$GPSSETUP,8AE8,0,1,1,0,0,1,0,0,0,1,3,0,0,0,0,6,0,C8,C8,1F4,1C2,32,64,7C,64,7D0,5,1,1,1E,0,0,0,0,0,0,1003,4,10,5,6,10,10,10,10,10,10,10,10,10,BC10,0,7C,0,108,302,604,0,20F,0,0,0,0,0,0,0,0,0,0,0,0,0,0,0,0,0,0,0,0,0,0,0,0,0,0,0,0,0,0,0,0,0,20,12C,877D*47
$GNRMC,162458.80,A,4816.48501,N,01139.86843,E,0.43,,080522,,,A*58
$GNGGA,162458.80,4816.48501,N,01139.86843,E,1,05,1.35,478.1,M,46.2,M,,*46
$GNGSA,A,3,01,10,14,03,08,,,,,,,,2.24,1.35,1.78*1F
$GNVTG,,T,,M,0.432,N,0.801,K,A*31
$SMGPS,0.0 m,-0.01 m/s,7.64 VRx,0.000 km,0 m,90.0 °,1:-- (  0.0 km/h)*E6
$SMGPS2,-0.24 X,+0.15 Y,+0.93 Z,9 ENL,0 us*4C
$GNRMC,162458.90,A,4816.48489,N,01139.86837,E,2.52,148.25,080522,,,A*4D
$GNGGA,162458.90,4816.48489,N,01139.86837,E,1,06,1.12,478.1,M,46.2,M,,*43
$GNGSA,A,3,01,10,14,03,08,32,,,,,,,2.07,1.12,1.73*11
$GNVTG,148.25,T,,M,2.524,N,4.674,K,A*29
$SMGPS,-0.0 m,-0.01 m/s,7.63 VRx,0.000 km,1 m,90.0 °,1:-- (  0.0 km/h)*CD
$SMGPS2,-0.23 X,+0.14 Y,+0.94 Z,3 ENL,0 us*47
$GNRMC,162459.00,A,4816.48486,N,01139.86834,E,0.16,,080522,,,A*5F
$GNGGA,162459.00,4816.48486,N,01139.86834,E,1,08,1.08,478.1,M,46.2,M,,*42
$GNGSA,A,3,01,10,14,03,08,21,32,,,,,,1.74,1.08,1.37*1E
$GNVTG,,T,,M,0.161,N,0.299,K,A*39
$SMGPS,0.0 m,-0.01 m/s,7.62 VRx,0.000 km,1 m,90.0 °,1:-- (  0.0 km/h)*E1
$SMGPS2,-0.23 X,+0.13 Y,+0.94 Z,2 ENL,0 us*41
$GNRMC,162459.10,A,4816.48472,N,01139.86819,E,0.34,,080522,,,A*5A
$GNGGA,162459.10,4816.48472,N,01139.86819,E,1,08,1.08,478.1,M,46.2,M,,*47
$GNGSA,A,3,01,10,14,03,08,21,32,,,,,,1.74,1.08,1.37*1E
$GNVTG,,T,,M,0.342,N,0.634,K,A*39
$SMGPS,0.0 m,-0.00 m/s,7.60 VRx,0.000 km,1 m,90.0 °,1:-- (  0.0 km/h)*E2
$SMGPS2,-0.23 X,+0.15 Y,+0.94 Z,1 ENL,0 us*44
$GNRMC,162459.20,A,4816.48467,N,01139.86805,E,0.29,,080522,,,A*5C
$GNGGA,162459.20,4816.48467,N,01139.86805,E,1,08,1.08,478.1,M,46.2,M,,*4D
$GNGSA,A,3,01,10,14,03,08,21,32,,,,,,1.74,1.08,1.37*1E
$GNVTG,,T,,M,0.288,N,0.534,K,A*3D
$SMGPS,-0.0 m,-0.00 m/s,7.62 VRx,0.000 km,1 m,90.0 °,1:-- (  0.0 km/h)*CD
$SMGPS2,-0.23 X,+0.14 Y,+0.93 Z,1 ENL,0 us*42
$GNRMC,162459.30,A,4816.48465,N,01139.86778,E,0.12,,080522,,,A*52
$GNGGA,162459.30,4816.48465,N,01139.86778,E,1,08,1.08,478.1,M,46.2,M,,*4B
$GNGSA,A,3,01,10,14,03,08,21,32,,,,,,1.74,1.08,1.37*1E
$GNVTG,,T,,M,0.115,N,0.213,K,A*38
$SMGPS,0.0 m,+0.00 m/s,7.60 VRx,0.000 km,1 m,90.0 °,1:-- (  0.0 km/h)*E4
$SMGPS2,-0.23 X,+0.14 Y,+0.93 Z,0 ENL,0 us*43
$GNRMC,162459.40,A,4816.48463,N,01139.86762,E,0.11,,080522,,,A*5B
$GNGGA,162459.40,4816.48463,N,01139.86762,E,1,07,1.09,478.1,M,46.2,M,,*4F
$GNGSA,A,3,01,10,14,03,08,21,32,,,,,,1.80,1.09,1.44*10
$GNVTG,,T,,M,0.106,N,0.197,K,A*35
$SMGPS,-0.0 m,+0.01 m/s,7.63 VRx,0.000 km,0 m,90.0 °,1:-- (  0.0 km/h)*CA
$SMGPS2,-0.24 X,+0.14 Y,+0.94 Z,0 ENL,0 us*43
$GNRMC,162459.50,A,4816.48464,N,01139.86756,E,0.27,,080522,,,A*5F
$GNGGA,162459.50,4816.48464,N,01139.86756,E,1,08,0.99,478.1,M,46.2,M,,*49
$GNGSA,A,3,01,10,14,03,08,21,32,22,,,,,1.71,0.99,1.40*12
$GNVTG,,T,,M,0.271,N,0.502,K,A*3E
$SMGPS,-0.0 m,+0.01 m/s,7.59 VRx,0.000 km,0 m,90.0 °,1:-- (  0.0 km/h)*C3
$SMGPS2,-0.23 X,+0.15 Y,+0.93 Z,1 ENL,0 us*43
$GNRMC,162459.60,A,4816.48470,N,01139.86752,E,0.89,,080522,,,A*59
$GNGGA,162459.60,4816.48470,N,01139.86752,E,1,08,0.99,478.1,M,46.2,M,,*4B
$GNGSA,A,3,01,10,14,03,08,21,32,22,,,,,1.71,0.99,1.40*12
$GNVTG,,T,,M,0.892,N,1.652,K,A*3E
$SMGPS,-0.0 m,+0.01 m/s,7.62 VRx,0.000 km,0 m,0.0 °,1:-- (  0.0 km/h)*F2
$SMGPS2,-0.25 X,+0.12 Y,+0.96 Z,2 ENL,0 us*44
$GNRMC,162459.70,A,4816.48467,N,01139.86759,E,0.17,,080522,,,A*52
$GNGGA,162459.70,4816.48467,N,01139.86759,E,1,09,0.86,478.1,M,46.2,M,,*48
$GNGSA,A,3,01,10,14,03,08,21,32,22,23,,,,1.45,0.86,1.17*18
$GNVTG,,T,,M,0.165,N,0.306,K,A*3A
$SMGPS,-0.0 m,+0.02 m/s,7.59 VRx,0.000 km,0 m,0.0 °,1:-- (  0.0 km/h)*F9
$SMGPS2,-0.20 X,+0.16 Y,+0.94 Z,2 ENL,0 us*47
$GNRMC,162459.80,A,4816.48468,N,01139.86764,E,0.19,,080522,,,A*52
$GNGGA,162459.80,4816.48468,N,01139.86764,E,1,09,0.86,478.1,M,46.2,M,,*46
$GNGSA,A,3,01,10,14,03,08,21,32,22,23,,,,1.45,0.86,1.17*18
$GNVTG,,T,,M,0.188,N,0.349,K,A*32
$SMGPS,-0.0 m,+0.01 m/s,7.62 VRx,0.000 km,0 m,0.0 °,1:-- (  0.0 km/h)*F2
$SMGPS2,-0.24 X,+0.07 Y,+0.90 Z,0 ENL,0 us*45
$GNRMC,162459.90,A,4816.48470,N,01139.86771,E,0.03,,080522,,,A*55
$GNGGA,162459.90,4816.48470,N,01139.86771,E,1,09,0.86,478.1,M,46.2,M,,*4A
$GNGSA,A,3,01,10,14,03,08,21,32,22,23,,,,1.45,0.86,1.17*18
$GNVTG,,T,,M,0.020,N,0.037,K,A*3B
$SMGPS,0.0 m,+0.01 m/s,7.60 VRx,0.000 km,0 m,90.0 °,1:-- (  0.0 km/h)*E4
$SMGPS2,-0.21 X,+0.06 Y,+0.93 Z,1 ENL,0 us*43
$GNRMC,162500.00,A,4816.48467,N,01139.86771,E,0.12,,080522,,,A*57
$GNGGA,162500.00,4816.48467,N,01139.86771,E,1,11,0.78,478.1,M,46.2,M,,*40
$GNGSA,A,3,01,10,14,03,08,21,27,32,22,23,,,1.38,0.78,1.14*15
$GNVTG,,T,,M,0.117,N,0.216,K,A*3F
$SMGPS,0.0 m,+0.01 m/s,7.61 VRx,0.000 km,0 m,90.0 °,1:-- (  0.0 km/h)*E5
$SMGPS2,-0.23 X,+0.05 Y,+0.94 Z,5 ENL,0 us*41
$GNRMC,162500.10,A,4816.48466,N,01139.86776,E,0.03,,080522,,,A*50
$GNGGA,162500.10,4816.48466,N,01139.86776,E,1,11,0.78,478.1,M,46.2,M,,*47
$GNGSA,A,3,01,10,14,03,08,21,27,32,22,23,,,1.38,0.78,1.14*15
$GNVTG,,T,,M,0.034,N,0.063,K,A*3F
$SMGPS,0.0 m,+0.01 m/s,7.60 VRx,0.000 km,0 m,90.0 °,1:-- (  0.0 km/h)*E4
$SMGPS2,-0.26 X,+0.00 Y,+0.98 Z,50 ENL,0 us*7D
$GNRMC,162500.20,A,4816.48467,N,01139.86781,E,0.12,,080522,,,A*5A
$GNGGA,162500.20,4816.48467,N,01139.86781,E,1,11,0.78,478.1,M,46.2,M,,*4D
$GNGSA,A,3,01,10,14,03,08,21,27,32,22,23,,,1.38,0.78,1.14*15
$GNVTG,,T,,M,0.123,N,0.228,K,A*35
$SMGPS,0.0 m,+0.01 m/s,7.62 VRx,0.000 km,0 m,90.0 °,1:-- (  0.0 km/h)*E6
$SMGPS2,-0.25 X,+0.04 Y,+0.95 Z,1 ENL,0 us*43
$GNRMC,162500.30,A,4816.48470,N,01139.86784,E,0.14,,080522,,,A*5E
$GNGGA,162500.30,4816.48470,N,01139.86784,E,1,11,0.78,478.1,M,46.2,M,,*4F
$GNGSA,A,3,01,10,14,03,08,21,27,32,22,23,,,1.38,0.78,1.14*15
$GNVTG,,T,,M,0.144,N,0.267,K,A*3F
$SMGPS,0.0 m,+0.00 m/s,7.60 VRx,0.000 km,0 m,90.0 °,1:-- (  0.0 km/h)*E5
$SMGPS2,-0.18 X,+0.04 Y,+0.95 Z,1 ENL,0 us*4D
$GNRMC,162500.40,A,4816.48472,N,01139.86782,E,0.30,,080522,,,A*5B
$GNGGA,162500.40,4816.48472,N,01139.86782,E,1,11,0.78,478.1,M,46.2,M,,*4C
$GNGSA,A,3,01,10,14,03,08,21,27,32,22,23,,,1.38,0.78,1.14*15
$GNVTG,,T,,M,0.300,N,0.556,K,A*38
$SMGPS,-0.0 m,+0.00 m/s,7.63 VRx,0.000 km,0 m,90.0 °,1:-- (  0.0 km/h)*CB
$SMGPS2,-0.23 X,+0.05 Y,+0.97 Z,1 ENL,0 us*46
$GNRMC,162500.50,A,4816.48466,N,01139.86781,E,0.36,,080522,,,A*5A
$GNGGA,162500.50,4816.48466,N,01139.86781,E,1,12,0.78,478.1,M,46.2,M,,*48
$GNGSA,A,3,01,10,14,03,08,21,27,32,22,23,,,1.31,0.78,1.06*1F
$GNVTG,,T,,M,0.363,N,0.671,K,A*3B
$SMGPS,-0.0 m,+0.00 m/s,7.59 VRx,0.000 km,0 m,90.0 °,1:-- (  0.0 km/h)*C2
$SMGPS2,-0.22 X,+0.06 Y,+0.98 Z,1 ENL,0 us*4B
$GNRMC,162500.60,A,4816.48459,N,01139.86787,E,0.94,,080522,,,A*5B
$GNGGA,162500.60,4816.48459,N,01139.86787,E,1,12,0.78,478.1,M,46.2,M,,*41
$GNGSA,A,3,01,10,14,03,08,21,27,32,22,23,,,1.31,0.78,1.06*1F
$GNVTG,,T,,M,0.935,N,1.732,K,A*35
$SMGPS,-0.0 m,-0.00 m/s,7.62 VRx,0.000 km,0 m,90.0 °,1:-- (  0.0 km/h)*CC
$SMGPS2,-0.22 X,+0.15 Y,+0.95 Z,20 ENL,0 us*77
$GNRMC,162500.70,A,4816.48453,N,01139.86792,E,0.82,,080522,,,A*53
$GNGGA,162500.70,4816.48453,N,01139.86792,E,1,12,0.90,478.1,M,46.2,M,,*48
$GNGSA,A,3,01,10,14,03,08,21,27,32,22,,,,1.53,0.90,1.23*1B
$GNVTG,,T,,M,0.817,N,1.512,K,A*34
$SMGPS,0.0 m,-0.00 m/s,7.59 VRx,0.000 km,1 m,153.5 °,1:-- (  0.0 km/h)*D3
$SMGPS2,-0.19 X,+0.08 Y,+0.98 Z,33 ENL,0 us*7C
$GNRMC,162500.80,A,4816.48446,N,01139.86796,E,0.35,,080522,,,A*50
$GNGGA,162500.80,4816.48446,N,01139.86796,E,1,12,0.90,478.1,M,46.2,M,,*47
$GNGSA,A,3,01,10,14,03,08,21,27,32,22,,,,1.53,0.90,1.23*1B
$GNVTG,,T,,M,0.349,N,0.647,K,A*36
$SMGPS,-0.0 m,-0.00 m/s,7.63 VRx,0.000 km,1 m,153.5 °,1:-- (  0.0 km/h)*F7
$SMGPS2,-0.29 X,+0.19 Y,+0.85 Z,49 ENL,0 us*7E
$GNRMC,162500.90,A,4816.48445,N,01139.86796,E,0.14,,080522,,,A*51
$GNGGA,162500.90,4816.48445,N,01139.86796,E,1,12,0.90,478.1,M,46.2,M,,*45
$GNGSA,A,3,01,10,14,03,08,21,27,32,22,,,,1.53,0.90,1.23*1B
$GNVTG,,T,,M,0.136,N,0.252,K,A*3C
$SMGPS,0.0 m,-0.00 m/s,7.66 VRx,0.000 km,1 m,153.5 °,1:-- (  0.0 km/h)*DF
$SMGPS2,-0.28 X,+0.27 Y,+0.93 Z,40 ENL,0 us*7C
$GNRMC,162501.00,A,4816.48449,N,01139.86795,E,0.15,,080522,,,A*57
$GNGGA,162501.00,4816.48449,N,01139.86795,E,1,11,0.91,478.1,M,46.2,M,,*40
$GNGSA,A,3,01,10,14,03,08,21,27,32,22,,,,1.58,0.91,1.29*1B
$GNVTG,,T,,M,0.145,N,0.269,K,A*30
$SMGPS,0.0 m,-0.00 m/s,7.70 VRx,0.000 km,1 m,153.5 °,1:-- (  0.0 km/h)*D8
$SMGPS2,-0.14 X,+0.07 Y,+1.01 Z,101 ENL,0 us*4F
$GNRMC,162501.10,A,4816.48453,N,01139.86795,E,0.59,,080522,,,A*55
$GNGGA,162501.10,4816.48453,N,01139.86795,E,1,11,0.91,478.1,M,46.2,M,,*4A
$GNGSA,A,3,01,10,14,03,08,21,27,32,22,,,,1.58,0.91,1.29*1B
$GNVTG,,T,,M,0.592,N,1.096,K,A*3D
$SMGPS,-0.0 m,+0.00 m/s,7.61 VRx,0.000 km,1 m,153.5 °,1:-- (  0.0 km/h)*F3
$SMGPS2,-0.20 X,+0.15 Y,+0.87 Z,25 ENL,0 us*73
$GNRMC,162501.20,A,4816.48456,N,01139.86793,E,0.45,,080522,,,A*58
$GNGGA,162501.20,4816.48456,N,01139.86793,E,1,11,0.91,478.1,M,46.2,M,,*4A
$GNGSA,A,3,01,10,14,03,08,21,27,32,22,,,,1.58,0.91,1.29*1B
$GNVTG,,T,,M,0.446,N,0.826,K,A*37
$SMGPS,0.0 m,+0.01 m/s,7.62 VRx,0.000 km,1 m,153.5 °,1:-- (  0.0 km/h)*DC
$SMGPS2,-0.18 X,+0.15 Y,+0.92 Z,2 ENL,0 us*49
$GNRMC,162501.30,A,4816.48461,N,01139.86789,E,1.23,,080522,,,A*57
$GNGGA,162501.30,4816.48461,N,01139.86789,E,1,10,0.92,478.1,M,46.2,M,,*46
$GNGSA,A,3,01,10,14,03,08,27,32,22,,,,,1.72,0.92,1.45*19
$GNVTG,,T,,M,1.232,N,2.281,K,A*36
$SMGPS,0.0 m,+0.01 m/s,7.61 VRx,0.000 km,1 m,153.5 °,1:-- (  0.0 km/h)*DF
$SMGPS2,-0.22 X,+0.17 Y,+0.98 Z,1 ENL,0 us*4B
$GNRMC,162501.40,A,4816.48465,N,01139.86785,E,1.26,,080522,,,A*5D
$GNGGA,162501.40,4816.48465,N,01139.86785,E,1,10,0.92,478.1,M,46.2,M,,*49
$GNGSA,A,3,01,10,14,03,08,27,32,22,,,,,1.72,0.92,1.45*19
$GNVTG,,T,,M,1.262,N,2.338,K,A*30
$SMGPS,0.0 m,+0.02 m/s,7.61 VRx,0.000 km,1 m,153.5 °,1:-- (  0.0 km/h)*DC
$SMGPS2,-0.23 X,+0.15 Y,+0.93 Z,1 ENL,0 us*43
$GNRMC,162501.50,A,4816.48474,N,01139.86781,E,2.12,,080522,,,A*5C
$GNGGA,162501.50,4816.48474,N,01139.86781,E,1,10,0.92,478.1,M,46.2,M,,*4C
$GNGSA,A,3,01,10,14,03,08,27,32,22,,,,,1.72,0.92,1.45*19
$GNVTG,,T,,M,2.117,N,3.921,K,A*31
$SMGPS,0.0 m,+0.03 m/s,7.60 VRx,0.001 km,0 m,90.0 °,1:-- (  0.0 km/h)*E7
$SMGPS2,-0.21 X,+0.17 Y,+0.93 Z,1 ENL,0 us*43
$GNRMC,162501.60,A,4816.48487,N,01139.86777,E,2.58,,080522,,,A*54
$GNGGA,162501.60,4816.48487,N,01139.86777,E,1,11,0.82,478.1,M,46.2,M,,*4A
$GNGSA,A,3,01,10,14,03,08,27,32,22,,,,,1.63,0.82,1.41*1C
$GNVTG,,T,,M,2.582,N,4.781,K,A*3A
$SMGPS,0.0 m,+0.03 m/s,7.62 VRx,0.001 km,0 m,90.0 °,1:-- (  0.0 km/h)*E5
$SMGPS2,-0.20 X,+0.17 Y,+0.93 Z,1 ENL,0 us*42
$GNRMC,162501.70,A,4816.48498,N,01139.86776,E,3.00,118.59,080522,,,A*4C
$GNGGA,162501.70,4816.48498,N,01139.86776,E,1,10,0.92,478.1,M,46.2,M,,*44
$GNGSA,A,3,01,10,14,03,08,27,32,22,,,,,1.72,0.92,1.45*19
$GNVTG,118.59,T,,M,2.998,N,5.553,K,A*2B
$SMGPS,-0.0 m,+0.03 m/s,7.61 VRx,0.001 km,0 m,90.0 °,1:-- (  0.0 km/h)*CB
$SMGPS2,-0.21 X,+0.16 Y,+0.89 Z,1 ENL,0 us*49
$GNRMC,162501.80,A,4816.48510,N,01139.86768,E,3.11,,080522,,,A*57
$GNGGA,162501.80,4816.48510,N,01139.86768,E,1,11,0.82,478.1,M,46.2,M,,*45
$GNGSA,A,3,01,10,14,03,08,27,32,22,,,,,1.63,0.82,1.41*1C
$GNVTG,,T,,M,3.106,N,5.752,K,A*3C
$SMGPS,0.0 m,+0.03 m/s,7.64 VRx,0.001 km,0 m,90.0 °,1:-- (  0.0 km/h)*E3
$SMGPS2,-0.20 X,+0.15 Y,+0.90 Z,0 ENL,0 us*42
$GNRMC,162501.90,A,4816.48518,N,01139.86755,E,2.84,,080522,,,A*5D
$GNGGA,162501.90,4816.48518,N,01139.86755,E,1,12,0.82,478.1,M,46.2,M,,*41
$GNGSA,A,3,01,10,14,03,08,27,32,22,,,,,1.53,0.82,1.30*19
$GNVTG,,T,,M,2.838,N,5.257,K,A*39
$SMGPS,0.0 m,+0.03 m/s,7.60 VRx,0.001 km,0 m,90.0 °,1:-- (  0.0 km/h)*E7
$SMGPS2,-0.23 X,+0.14 Y,+0.97 Z,1 ENL,0 us*46
$GNRMC,162502.00,A,4816.48525,N,01139.86747,E,1.50,,080522,,,A*50
$GNGGA,162502.00,4816.48525,N,01139.86747,E,1,11,0.82,478.1,M,46.2,M,,*45
$GNGSA,A,3,01,10,14,03,08,27,32,22,,,,,1.63,0.82,1.41*1C
$GNVTG,,T,,M,1.500,N,2.778,K,A*33
$SMGPS,-0.0 m,+0.03 m/s,7.63 VRx,0.002 km,1 m,0.0 °,1:-- (  0.0 km/h)*F2
$SMGPS2,-0.19 X,+0.14 Y,+0.91 Z,1 ENL,0 us*49
$GNRMC,162502.10,A,4816.48531,N,01139.86741,E,1.45,,080522,,,A*56
$GNGGA,162502.10,4816.48531,N,01139.86741,E,1,11,0.82,478.1,M,46.2,M,,*47
$GNGSA,A,3,01,10,14,03,08,27,32,22,,,,,1.63,0.82,1.41*1C
$GNVTG,,T,,M,1.447,N,2.679,K,A*31
$SMGPS,-0.0 m,+0.02 m/s,7.60 VRx,0.002 km,1 m,353.7 °,1:-- (  0.0 km/h)*F2
$SMGPS2,-0.13 X,+0.15 Y,+0.88 Z,111 ENL,0 us*4A
$GNRMC,162502.20,A,4816.48537,N,01139.86739,E,1.19,,080522,,,A*55
$GNGGA,162502.20,4816.48537,N,01139.86739,E,1,12,0.82,478.1,M,46.2,M,,*4E
$GNGSA,A,3,01,10,14,03,08,27,32,22,,,,,1.53,0.82,1.30*19
$GNVTG,,T,,M,1.189,N,2.203,K,A*3F
$SMGPS,-0.0 m,+0.01 m/s,7.64 VRx,0.002 km,1 m,353.7 °,1:-- (  0.0 km/h)*F5
$SMGPS2,-0.17 X,+0.17 Y,+0.89 Z,73 ENL,0 us*78
$GNRMC,162502.30,A,4816.48541,N,01139.86737,E,0.41,,080522,,,A*57
$GNGGA,162502.30,4816.48541,N,01139.86737,E,1,11,0.82,478.1,M,46.2,M,,*43
$GNGSA,A,3,01,10,14,03,08,27,32,22,,,,,1.63,0.82,1.41*1C
$GNVTG,,T,,M,0.413,N,0.764,K,A*3E
$SMGPS,0.0 m,+0.01 m/s,7.61 VRx,0.002 km,1 m,353.7 °,1:-- (  0.0 km/h)*DD
$SMGPS2,-0.28 X,+0.18 Y,+1.00 Z,581 ENL,0 us*43
$GNRMC,162502.40,A,4816.48544,N,01139.86738,E,0.65,,080522,,,A*5C
$GNGGA,162502.40,4816.48544,N,01139.86738,E,1,12,0.82,478.1,M,46.2,M,,*4D
$GNGSA,A,3,01,10,14,03,08,27,32,22,,,,,1.53,0.82,1.30*19
$GNVTG,,T,,M,0.654,N,1.211,K,A*39
$SMGPS,0.0 m,+0.00 m/s,7.63 VRx,0.002 km,1 m,347.5 °,1:-- (  0.0 km/h)*D9
$SMGPS2,-0.18 X,+0.16 Y,+0.88 Z,26 ENL,0 us*77
$GNRMC,162502.50,A,4816.48548,N,01139.86736,E,0.67,,080522,,,A*5D
$GNGGA,162502.50,4816.48548,N,01139.86736,E,1,12,0.73,478.1,M,46.2,M,,*40
$GNGSA,A,3,01,10,14,03,08,21,27,32,22,23,,,1.23,0.73,0.99*10
$GNVTG,,T,,M,0.674,N,1.248,K,A*37
$SMGPS,-0.0 m,-0.00 m/s,7.62 VRx,0.002 km,1 m,353.7 °,1:-- (  0.0 km/h)*F4
$SMGPS2,-0.23 X,+0.05 Y,+0.99 Z,2 ENL,0 us*4B
$GNRMC,162502.60,A,4816.48549,N,01139.86734,E,1.36,,080522,,,A*58
$GNGGA,162502.60,4816.48549,N,01139.86734,E,1,12,0.73,478.1,M,46.2,M,,*40
$GNGSA,A,3,01,10,14,03,08,21,27,32,22,23,,,1.23,0.73,0.99*10
$GNVTG,,T,,M,1.355,N,2.509,K,A*31
$SMGPS,-0.0 m,-0.01 m/s,7.62 VRx,0.002 km,1 m,347.5 °,1:-- (  0.0 km/h)*F2
$SMGPS2,-0.23 X,+0.13 Y,+0.86 Z,59 ENL,0 us*7C
$GNRMC,162502.70,A,4816.48553,N,01139.86739,E,0.15,,080522,,,A*5F
$GNGGA,162502.70,4816.48553,N,01139.86739,E,1,12,0.71,478.1,M,46.2,M,,*45
$GNGSA,A,3,01,10,14,03,08,21,27,32,22,23,,,1.19,0.71,0.96*14
$GNVTG,,T,,M,0.147,N,0.273,K,A*39
$SMGPS,0.0 m,-0.01 m/s,7.63 VRx,0.002 km,1 m,347.5 °,1:-- (  0.0 km/h)*DE
$SMGPS2,-0.24 X,+0.15 Y,+0.90 Z,154 ENL,0 us*46
$GNRMC,162502.80,A,4816.48548,N,01139.86748,E,0.15,,080522,,,A*5C
$GNGGA,162502.80,4816.48548,N,01139.86748,E,1,12,0.75,478.1,M,46.2,M,,*42
$GNGSA,A,3,01,10,14,03,08,21,27,32,22,23,,,1.22,0.75,0.96*18
$GNVTG,,T,,M,0.147,N,0.273,K,A*39
$SMGPS,0.0 m,-0.01 m/s,7.63 VRx,0.002 km,1 m,353.7 °,1:-- (  0.0 km/h)*D9
$SMGPS2,-0.24 X,+0.12 Y,+0.94 Z,12 ENL,0 us*76
$GNRMC,162502.90,A,4816.48545,N,01139.86762,E,0.44,,080522,,,A*5C
$GNGGA,162502.90,4816.48545,N,01139.86762,E,1,12,0.75,478.1,M,46.2,M,,*46
$GNGSA,A,3,01,10,14,03,08,21,27,32,22,23,,,1.22,0.75,0.96*18
$GNVTG,,T,,M,0.439,N,0.813,K,A*39
$SMGPS,0.0 m,-0.01 m/s,7.61 VRx,0.002 km,1 m,353.7 °,1:-- (  0.0 km/h)*DB
$SMGPS2,-0.24 X,+0.13 Y,+0.91 Z,3 ENL,0 us*42
$GNRMC,162503.00,A,4816.48540,N,01139.86771,E,0.39,,080522,,,A*59
$GNGGA,162503.00,4816.48540,N,01139.86771,E,1,12,0.75,478.1,M,46.2,M,,*49
$GNGSA,A,3,01,10,14,03,08,21,27,32,22,23,,,1.22,0.75,0.96*18
$GNVTG,,T,,M,0.386,N,0.715,K,A*33
$SMGPS,-0.0 m,-0.01 m/s,7.64 VRx,0.002 km,1 m,6.3 °,1:-- (  0.0 km/h)*F4
$SMGPS2,-0.23 X,+0.12 Y,+0.94 Z,1 ENL,0 us*43
$GNRMC,162503.10,A,4816.48534,N,01139.86782,E,0.20,,080522,,,A*5F
$GNGGA,162503.10,4816.48534,N,01139.86782,E,1,12,0.73,478.1,M,46.2,M,,*41
$GNGSA,A,3,01,10,14,03,08,21,27,32,22,23,,,1.20,0.73,0.95*1F
$GNVTG,,T,,M,0.201,N,0.371,K,A*3B
$SMGPS,-0.0 m,-0.01 m/s,7.60 VRx,0.002 km,1 m,6.3 °,1:-- (  0.0 km/h)*F0
$SMGPS2,-0.25 X,+0.13 Y,+0.92 Z,10 ENL,0 us*72
$GNRMC,162503.20,A,4816.48527,N,01139.86791,E,0.25,,080522,,,A*59
$GNGGA,162503.20,4816.48527,N,01139.86791,E,1,12,0.73,478.0,M,46.2,M,,*43
$GNGSA,A,3,01,10,14,03,08,21,27,32,22,23,,,1.20,0.73,0.95*1F
$GNVTG,,T,,M,0.245,N,0.455,K,A*3A
$SMGPS,-0.1 m,-0.02 m/s,7.64 VRx,0.002 km,1 m,12.5 °,1:-- (  0.0 km/h)*C5
$SMGPS2,-0.24 X,+0.14 Y,+0.96 Z,5 ENL,0 us*44
$GNRMC,162503.30,A,4816.48515,N,01139.86802,E,0.20,,080522,,,A*59
$GNGGA,162503.30,4816.48515,N,01139.86802,E,1,12,0.73,478.1,M,46.2,M,,*47
$GNGSA,A,3,01,10,14,03,08,21,27,32,22,23,,,1.20,0.73,0.95*1F
$GNVTG,,T,,M,0.197,N,0.364,K,A*33
$SMGPS,-0.0 m,-0.02 m/s,7.61 VRx,0.002 km,1 m,18.4 °,1:-- (  0.0 km/h)*CA
$SMGPS2,-0.24 X,+0.13 Y,+0.92 Z,1 ENL,0 us*43
$GNRMC,162503.40,A,4816.48508,N,01139.86813,E,0.30,,080522,,,A*53
$GNGGA,162503.40,4816.48508,N,01139.86813,E,1,12,0.73,478.1,M,46.2,M,,*4C
$GNGSA,A,3,01,10,14,03,08,21,27,32,22,23,,,1.20,0.73,0.95*1F
$GNVTG,,T,,M,0.301,N,0.558,K,A*37
$SMGPS,-0.0 m,-0.02 m/s,7.63 VRx,0.002 km,1 m,26.5 °,1:-- (  0.0 km/h)*C4
$SMGPS2,-0.23 X,+0.13 Y,+0.93 Z,1 ENL,0 us*45
$GNRMC,162503.50,A,4816.48497,N,01139.86826,E,0.08,,080522,,,A*58
$GNGGA,162503.50,4816.48497,N,01139.86826,E,1,12,0.73,478.1,M,46.2,M,,*4C
$GNGSA,A,3,01,10,14,03,08,21,27,32,22,23,,,1.20,0.73,0.95*1F
$GNVTG,,T,,M,0.068,N,0.126,K,A*36
$SMGPS,-0.0 m,-0.03 m/s,7.61 VRx,0.002 km,1 m,90.0 °,1:-- (  0.0 km/h)*CF
$SMGPS2,-0.24 X,+0.13 Y,+0.93 Z,0 ENL,0 us*43
$GNRMC,162503.60,A,4816.48489,N,01139.86837,E,0.16,,080522,,,A*5B
$GNGGA,162503.60,4816.48489,N,01139.86837,E,1,12,0.73,478.0,M,46.2,M,,*41
$GNGSA,A,3,01,10,14,03,08,21,27,32,22,23,,,1.20,0.73,0.95*1F
$GNVTG,,T,,M,0.151,N,0.280,K,A*32
$SMGPS,-0.1 m,-0.02 m/s,7.62 VRx,0.002 km,1 m,90.0 °,1:-- (  0.0 km/h)*CC
$SMGPS2,-0.24 X,+0.13 Y,+0.93 Z,1 ENL,0 us*42
$GNRMC,162503.70,A,4816.48473,N,01139.86841,E,0.14,,080522,,,A*5C
$GNGGA,162503.70,4816.48473,N,01139.86841,E,1,12,0.73,478.1,M,46.2,M,,*45
$GNGSA,A,3,01,10,14,03,08,21,27,32,22,23,,,1.20,0.73,0.95*1F
$GNVTG,,T,,M,0.134,N,0.248,K,A*35
$SMGPS,-0.0 m,-0.02 m/s,7.62 VRx,0.002 km,1 m,90.0 °,1:-- (  0.0 km/h)*CD
$SMGPS2,-0.23 X,+0.13 Y,+0.92 Z,0 ENL,0 us*45
$GNRMC,162503.80,A,4816.48459,N,01139.86844,E,0.13,,080522,,,A*59
$GNGGA,162503.80,4816.48459,N,01139.86844,E,1,12,0.73,478.1,M,46.2,M,,*47
$GNGSA,A,3,01,10,14,03,08,21,27,32,22,23,,,1.20,0.73,0.95*1F
$GNVTG,,T,,M,0.123,N,0.227,K,A*3A
$SMGPS,-0.0 m,-0.02 m/s,7.63 VRx,0.002 km,1 m,90.0 °,1:-- (  0.0 km/h)*CC
$SMGPS2,-0.24 X,+0.13 Y,+0.93 Z,0 ENL,0 us*43
$GNRMC,162503.90,A,4816.48446,N,01139.86843,E,0.12,,080522,,,A*50
$GNGGA,162503.90,4816.48446,N,01139.86843,E,1,12,0.73,478.1,M,46.2,M,,*4F
$GNGSA,A,3,01,10,14,03,08,21,27,32,22,23,,,1.20,0.73,0.95*1F
$GNVTG,,T,,M,0.116,N,0.216,K,A*3E
$SMGPS,-0.0 m,-0.02 m/s,7.61 VRx,0.002 km,1 m,128.7 °,1:-- (  0.0 km/h)*FB
$SMGPS2,-0.24 X,+0.14 Y,+0.93 Z,1 ENL,0 us*45
$GNRMC,162504.00,A,4816.48437,N,01139.86850,E,0.21,,080522,,,A*5A
$GNGGA,162504.00,4816.48437,N,01139.86850,E,1,12,0.73,478.1,M,46.2,M,,*45
$GNGSA,A,3,01,10,14,03,08,21,27,32,22,23,,,1.20,0.73,0.95*1F
$GNVTG,,T,,M,0.206,N,0.382,K,A*30
$SMGPS,-0.0 m,-0.02 m/s,7.64 VRx,0.002 km,1 m,128.7 °,1:-- (  0.0 km/h)*FE
$SMGPS2,-0.24 X,+0.13 Y,+0.93 Z,0 ENL,0 us*43
$GNRMC,162504.10,A,4816.48426,N,01139.86857,E,0.12,,080522,,,A*5C
$GNGGA,162504.10,4816.48426,N,01139.86857,E,1,12,0.73,478.1,M,46.2,M,,*43
$GNGSA,A,3,01,10,14,03,08,21,27,32,22,23,,,1.20,0.73,0.95*1F
$GNVTG,,T,,M,0.122,N,0.225,K,A*39
$SMGPS,-0.0 m,-0.02 m/s,7.60 VRx,0.002 km,1 m,125.3 °,1:-- (  0.0 km/h)*F3
$SMGPS2,-0.24 X,+0.13 Y,+0.93 Z,0 ENL,0 us*43
$GNRMC,162504.20,A,4816.48419,N,01139.86859,E,0.15,,080522,,,A*5A
$GNGGA,162504.20,4816.48419,N,01139.86859,E,1,12,0.73,478.1,M,46.2,M,,*42
$GNGSA,A,3,01,10,14,03,08,21,27,32,22,23,,,1.20,0.73,0.95*1F
$GNVTG,,T,,M,0.151,N,0.280,K,A*32
$SMGPS,0.0 m,-0.01 m/s,7.64 VRx,0.002 km,1 m,125.3 °,1:-- (  0.0 km/h)*D9
$SMGPS2,-0.24 X,+0.13 Y,+0.93 Z,0 ENL,0 us*43
$GNRMC,162504.30,A,4816.48419,N,01139.86855,E,0.07,,080522,,,A*54
$GNGGA,162504.30,4816.48419,N,01139.86855,E,1,12,0.73,478.1,M,46.2,M,,*4F
$GNGSA,A,3,01,10,14,03,08,21,27,32,22,23,,,1.20,0.73,0.95*1F
$GNVTG,,T,,M,0.065,N,0.121,K,A*3C
$SMGPS,-0.0 m,-0.01 m/s,7.60 VRx,0.002 km,1 m,125.3 °,1:-- (  0.0 km/h)*F0
$SMGPS2,-0.24 X,+0.13 Y,+0.93 Z,1 ENL,0 us*42
$GNRMC,162504.40,A,4816.48420,N,01139.86852,E,0.09,,080522,,,A*50
$GNGGA,162504.40,4816.48420,N,01139.86852,E,1,12,0.73,478.1,M,46.2,M,,*45
$GNGSA,A,3,01,10,14,03,08,21,27,32,22,23,,,1.20,0.73,0.95*1F
$GNVTG,,T,,M,0.085,N,0.158,K,A*3C
$SMGPS,-0.0 m,-0.01 m/s,7.64 VRx,0.002 km,1 m,125.3 °,1:-- (  0.0 km/h)*F4
$SMGPS2,-0.24 X,+0.13 Y,+0.93 Z,1 ENL,0 us*42
$GNRMC,162504.50,A,4816.48419,N,01139.86849,E,0.13,,080522,,,A*5A
$GNGGA,162504.50,4816.48419,N,01139.86849,E,1,12,0.73,478.1,M,46.2,M,,*44
$GNGSA,A,3,01,10,14,03,08,21,27,32,22,23,,,1.20,0.73,0.95*1F
$GNVTG,,T,,M,0.129,N,0.239,K,A*3F
$SMGPS,0.0 m,-0.02 m/s,7.60 VRx,0.002 km,1 m,125.3 °,1:-- (  0.0 km/h)*DE
$SMGPS2,-0.23 X,+0.13 Y,+0.93 Z,0 ENL,0 us*44
$GNRMC,162504.60,A,4816.48419,N,01139.86846,E,0.15,,080522,,,A*50
$GNGGA,162504.60,4816.48419,N,01139.86846,E,1,12,0.67,478.1,M,46.2,M,,*4D
$GNGSA,A,3,01,10,14,03,08,21,27,32,22,23,,,1.16,0.67,0.94*1E
$GNVTG,,T,,M,0.153,N,0.284,K,A*34
$SMGPS,0.0 m,-0.02 m/s,7.63 VRx,0.002 km,1 m,125.3 °,1:-- (  0.0 km/h)*DD
$SMGPS2,-0.24 X,+0.13 Y,+0.93 Z,1 ENL,0 us*42
$GNRMC,162504.70,A,4816.48417,N,01139.86845,E,0.11,,080522,,,A*58
$GNGGA,162504.70,4816.48417,N,01139.86845,E,1,12,0.67,478.1,M,46.2,M,,*41
$GNGSA,A,3,01,10,14,03,08,21,27,32,22,23,,,1.16,0.67,0.94*1E
$GNVTG,,T,,M,0.109,N,0.201,K,A*36
$SMGPS,0.0 m,-0.02 m/s,7.61 VRx,0.002 km,1 m,128.7 °,1:-- (  0.0 km/h)*D6
$SMGPS2,-0.24 X,+0.13 Y,+0.93 Z,0 ENL,0 us*43
$GNRMC,162504.80,A,4816.48418,N,01139.86843,E,0.11,,080522,,,A*5E
$GNGGA,162504.80,4816.48418,N,01139.86843,E,1,12,0.67,478.1,M,46.2,M,,*47
$GNGSA,A,3,01,10,14,03,08,21,27,32,22,23,,,1.16,0.67,0.94*1E
$GNVTG,,T,,M,0.110,N,0.203,K,A*3C
$SMGPS,-0.0 m,-0.02 m/s,7.62 VRx,0.002 km,1 m,128.7 °,1:-- (  0.0 km/h)*F8
$SMGPS2,-0.24 X,+0.13 Y,+0.93 Z,1 ENL,0 us*42
$GNRMC,162504.90,A,4816.48419,N,01139.86840,E,0.19,,080522,,,A*55
$GNGGA,162504.90,4816.48419,N,01139.86840,E,1,12,0.67,478.1,M,46.2,M,,*44
$GNGSA,A,3,01,10,14,03,08,21,27,32,22,23,,,1.16,0.67,0.94*1E
$GNVTG,,T,,M,0.188,N,0.348,K,A*33
$SMGPS,0.0 m,-0.01 m/s,7.62 VRx,0.002 km,1 m,128.7 °,1:-- (  0.0 km/h)*D6
$SMGPS2,-0.24 X,+0.13 Y,+0.93 Z,0 ENL,0 us*43
$GNRMC,162505.00,A,4816.48424,N,01139.86837,E,0.04,,080522,,,A*5F
$GNGGA,162505.00,4816.48424,N,01139.86837,E,1,12,0.67,478.1,M,46.2,M,,*42
$GNGSA,A,3,01,10,14,03,08,21,27,32,22,23,,,1.16,0.67,0.94*1E
$GNVTG,,T,,M,0.037,N,0.069,K,A*36
$SMGPS,0.0 m,-0.01 m/s,7.62 VRx,0.002 km,1 m,128.7 °,1:-- (  0.0 km/h)*D6
$SMGPS2,-0.24 X,+0.13 Y,+0.92 Z,1 ENL,0 us*43
$GNRMC,162505.10,A,4816.48426,N,01139.86836,E,0.02,,080522,,,A*5B
$GNGGA,162505.10,4816.48426,N,01139.86836,E,1,12,0.67,478.1,M,46.2,M,,*40
$GNGSA,A,3,01,10,14,03,08,21,27,32,22,23,,,1.16,0.67,0.94*1E
$GNVTG,,T,,M,0.023,N,0.043,K,A*3B
$SMGPS,0.0 m,-0.01 m/s,7.62 VRx,0.002 km,1 m,128.7 °,1:-- (  0.0 km/h)*D6
$SMGPS2,-0.24 X,+0.13 Y,+0.93 Z,0 ENL,0 us*43
$GNRMC,162505.20,A,4816.48425,N,01139.86838,E,0.06,,080522,,,A*51
$GNGGA,162505.20,4816.48425,N,01139.86838,E,1,12,0.67,478.1,M,46.2,M,,*4E
$GNGSA,A,3,01,10,14,03,08,21,27,32,22,23,,,1.16,0.67,0.94*1E
$GNVTG,,T,,M,0.062,N,0.114,K,A*3D
$SMGPS,0.0 m,+0.00 m/s,7.63 VRx,0.002 km,1 m,128.7 °,1:-- (  0.0 km/h)*D0
$SMGPS2,-0.23 X,+0.13 Y,+0.93 Z,1 ENL,0 us*45
$GNRMC,162505.30,A,4816.48426,N,01139.86839,E,0.05,,080522,,,A*51
$GNGGA,162505.30,4816.48426,N,01139.86839,E,1,12,0.67,478.1,M,46.2,M,,*4D
$GNGSA,A,3,01,10,14,03,08,21,27,32,22,23,,,1.16,0.67,0.94*1E
$GNVTG,,T,,M,0.041,N,0.075,K,A*3A
$SMGPS,0.0 m,+0.01 m/s,7.61 VRx,0.002 km,1 m,128.7 °,1:-- (  0.0 km/h)*D3
$SMGPS2,-0.24 X,+0.13 Y,+0.93 Z,1 ENL,0 us*42
$GNRMC,162505.40,A,4816.48425,N,01139.86837,E,0.03,,080522,,,A*5D
$GNGGA,162505.40,4816.48425,N,01139.86837,E,1,12,0.67,478.1,M,46.2,M,,*47
$GNGSA,A,3,01,10,14,03,08,21,27,32,22,23,,,1.16,0.67,0.94*1E
$GNVTG,,T,,M,0.021,N,0.040,K,A*3A
$SMGPS,-0.0 m,+0.01 m/s,7.63 VRx,0.002 km,1 m,128.7 °,1:-- (  0.0 km/h)*FC
$SMGPS2,-0.24 X,+0.13 Y,+0.93 Z,0 ENL,0 us*43
$GNRMC,162505.50,A,4816.48426,N,01139.86835,E,0.09,,080522,,,A*57
$GNGGA,162505.50,4816.48426,N,01139.86835,E,1,12,0.67,478.1,M,46.2,M,,*47
$GNGSA,A,3,01,10,14,03,08,21,27,32,22,23,,,1.16,0.67,0.94*1E
$GNVTG,,T,,M,0.090,N,0.167,K,A*34
$SMGPS,-0.0 m,+0.02 m/s,7.61 VRx,0.002 km,1 m,128.7 °,1:-- (  0.0 km/h)*FD
$SMGPS2,-0.24 X,+0.14 Y,+0.94 Z,0 ENL,0 us*43
$GNRMC,162505.60,A,4816.48423,N,01139.86831,E,0.13,,080522,,,A*5E
$GNGGA,162505.60,4816.48423,N,01139.86831,E,1,12,0.67,478.1,M,46.2,M,,*45
$GNGSA,A,3,01,10,14,03,08,21,27,32,22,23,,,1.16,0.67,0.94*1E
$GNVTG,,T,,M,0.131,N,0.242,K,A*3A
$SMGPS,-0.0 m,+0.02 m/s,7.64 VRx,0.002 km,1 m,128.7 °,1:-- (  0.0 km/h)*F8
$SMGPS2,-0.24 X,+0.13 Y,+0.93 Z,1 ENL,0 us*42
$GNRMC,162505.70,A,4816.48420,N,01139.86829,E,0.13,,080522,,,A*55
$GNGGA,162505.70,4816.48420,N,01139.86829,E,1,12,0.67,478.1,M,46.2,M,,*4E
$GNGSA,A,3,01,10,14,03,08,21,27,32,22,23,,,1.16,0.67,0.94*1E
$GNVTG,,T,,M,0.130,N,0.240,K,A*39
$SMGPS,-0.0 m,+0.02 m/s,7.61 VRx,0.002 km,1 m,132.8 °,1:-- (  0.0 km/h)*F9
$SMGPS2,-0.23 X,+0.13 Y,+0.93 Z,0 ENL,0 us*44
$GNRMC,162505.80,A,4816.48416,N,01139.86827,E,0.03,,080522,,,A*50
$GNGGA,162505.80,4816.48416,N,01139.86827,E,1,12,0.67,478.1,M,46.2,M,,*4A
$GNGSA,A,3,01,10,14,03,08,21,27,32,22,23,,,1.16,0.67,0.94*1E
$GNVTG,,T,,M,0.028,N,0.052,K,A*30
$SMGPS,-0.0 m,+0.02 m/s,7.64 VRx,0.002 km,1 m,132.8 °,1:-- (  0.0 km/h)*FC
$SMGPS2,-0.24 X,+0.13 Y,+0.93 Z,0 ENL,0 us*43
$GNRMC,162505.90,A,4816.48414,N,01139.86824,E,0.07,,080522,,,A*54
$GNGGA,162505.90,4816.48414,N,01139.86824,E,1,12,0.67,478.1,M,46.2,M,,*4A
$GNGSA,A,3,01,10,14,03,08,21,27,32,22,23,,,1.16,0.67,0.94*1E
$GNVTG,,T,,M,0.074,N,0.137,K,A*3B
$SMGPS,0.0 m,+0.01 m/s,7.61 VRx,0.002 km,1 m,132.8 °,1:-- (  0.0 km/h)*D7
$SMGPS2,-0.24 X,+0.13 Y,+0.92 Z,0 ENL,0 us*42
$GNRMC,162506.00,A,4816.48412,N,01139.86823,E,0.06,,080522,,,A*5E
$GNGGA,162506.00,4816.48412,N,01139.86823,E,1,12,0.67,478.1,M,46.2,M,,*41
$GNGSA,A,3,01,10,14,03,08,21,27,32,22,23,,,1.16,0.67,0.94*1E
$GNVTG,,T,,M,0.064,N,0.118,K,A*37
$SMGPS,-0.0 m,+0.02 m/s,7.62 VRx,0.002 km,1 m,132.8 °,1:-- (  0.0 km/h)*FA
$SMGPS2,-0.24 X,+0.13 Y,+0.93 Z,0 ENL,0 us*43
$GNRMC,162506.10,A,4816.48410,N,01139.86820,E,0.06,,080522,,,A*5E
$GNGGA,162506.10,4816.48410,N,01139.86820,E,1,12,0.67,478.1,M,46.2,M,,*41
$GNGSA,A,3,01,10,14,03,08,21,27,32,22,23,,,1.16,0.67,0.94*1E
$GNVTG,,T,,M,0.056,N,0.103,K,A*3C
$SMGPS,0.0 m,+0.02 m/s,7.60 VRx,0.002 km,2 m,151.6 °,1:-- (  0.0 km/h)*DD
$SMGPS2,-0.24 X,+0.13 Y,+0.93 Z,0 ENL,0 us*43
$GNRMC,162506.20,A,4816.48411,N,01139.86818,E,0.08,,080522,,,A*59
$GNGGA,162506.20,4816.48411,N,01139.86818,E,1,12,0.67,478.1,M,46.2,M,,*48
$GNGSA,A,3,01,10,14,03,08,21,27,32,22,23,,,1.16,0.67,0.94*1E
$GNVTG,,T,,M,0.080,N,0.149,K,A*39
$SMGPS,0.0 m,+0.02 m/s,7.62 VRx,0.002 km,2 m,155.4 °,1:-- (  0.0 km/h)*D9
$SMGPS2,-0.24 X,+0.13 Y,+0.93 Z,0 ENL,0 us*43
$GNRMC,162506.30,A,4816.48409,N,01139.86816,E,0.08,,080522,,,A*5F
$GNGGA,162506.30,4816.48409,N,01139.86816,E,1,12,0.67,478.1,M,46.2,M,,*4E
$GNGSA,A,3,01,10,14,03,08,21,27,32,22,23,,,1.16,0.67,0.94*1E
$GNVTG,,T,,M,0.076,N,0.141,K,A*38
$SMGPS,0.0 m,+0.01 m/s,7.61 VRx,0.002 km,2 m,155.4 °,1:-- (  0.0 km/h)*D9
$SMGPS2,-0.23 X,+0.13 Y,+0.93 Z,0 ENL,0 us*44
$GNRMC,162506.40,A,4816.48408,N,01139.86812,E,0.14,,080522,,,A*50
$GNGGA,162506.40,4816.48408,N,01139.86812,E,1,12,0.67,478.1,M,46.2,M,,*4C
$GNGSA,A,3,01,10,14,03,08,21,27,32,22,23,,,1.16,0.67,0.94*1E
$GNVTG,,T,,M,0.140,N,0.259,K,A*36
$SMGPS,0.0 m,+0.02 m/s,7.63 VRx,0.002 km,2 m,155.4 °,1:-- (  0.0 km/h)*D8
$SMGPS2,-0.24 X,+0.13 Y,+0.93 Z,0 ENL,0 us*43
$GNRMC,162506.50,A,4816.48406,N,01139.86810,E,0.10,,080522,,,A*59
$GNGGA,162506.50,4816.48406,N,01139.86810,E,1,12,0.67,478.1,M,46.2,M,,*41
$GNGSA,A,3,01,10,14,03,08,21,27,32,22,23,,,1.16,0.67,0.94*1E
$GNVTG,,T,,M,0.090,N,0.168,K,A*3B
$SMGPS,-0.0 m,+0.02 m/s,7.60 VRx,0.002 km,2 m,155.4 °,1:-- (  0.0 km/h)*F6
$SMGPS2,-0.24 X,+0.13 Y,+0.92 Z,0 ENL,0 us*42
$GNRMC,162506.60,A,4816.48404,N,01139.86808,E,0.08,,080522,,,A*58
$GNGGA,162506.60,4816.48404,N,01139.86808,E,1,12,0.67,478.1,M,46.2,M,,*49
$GNGSA,A,3,01,10,14,03,08,21,27,32,22,23,,,1.16,0.67,0.94*1E
$GNVTG,,T,,M,0.074,N,0.137,K,A*3B
$SMGPS,0.0 m,+0.02 m/s,7.62 VRx,0.002 km,2 m,159.5 °,1:-- (  0.0 km/h)*D4
$SMGPS2,-0.24 X,+0.13 Y,+0.93 Z,0 ENL,0 us*43
$GNRMC,162506.70,A,4816.48403,N,01139.86807,E,0.06,,080522,,,A*5F
$GNGGA,162506.70,4816.48403,N,01139.86807,E,1,12,0.64,478.1,M,46.2,M,,*43
$GNGSA,A,3,01,10,14,03,08,21,27,32,22,23,,,1.14,0.64,0.94*1F
$GNVTG,,T,,M,0.053,N,0.098,K,A*3A
$SMGPS,0.0 m,+0.02 m/s,7.62 VRx,0.002 km,2 m,159.5 °,1:-- (  0.0 km/h)*D4
$SMGPS2,-0.24 X,+0.13 Y,+0.93 Z,0 ENL,0 us*43
$GNRMC,162506.80,A,4816.48403,N,01139.86806,E,0.07,,080522,,,A*50
$GNGGA,162506.80,4816.48403,N,01139.86806,E,1,12,0.64,478.1,M,46.2,M,,*4D
$GNGSA,A,3,01,10,14,03,08,21,27,32,22,23,,,1.14,0.64,0.94*1F
$GNVTG,,T,,M,0.068,N,0.126,K,A*36
$SMGPS,0.0 m,+0.01 m/s,7.64 VRx,0.002 km,2 m,159.5 °,1:-- (  0.0 km/h)*D1
$SMGPS2,-0.25 X,+0.12 Y,+0.93 Z,0 ENL,0 us*43
$GNRMC,162506.90,A,4816.48403,N,01139.86805,E,0.04,,080522,,,A*51
$GNGGA,162506.90,4816.48403,N,01139.86805,E,1,12,0.64,478.1,M,46.2,M,,*4F
$GNGSA,A,3,01,10,14,03,08,21,27,32,22,23,,,1.14,0.64,0.94*1F
$GNVTG,,T,,M,0.023,N,0.043,K,A*3B
$SMGPS,0.0 m,-0.00 m/s,7.61 VRx,0.002 km,2 m,159.5 °,1:-- (  0.0 km/h)*D3
$SMGPS2,-0.24 X,+0.13 Y,+0.93 Z,0 ENL,0 us*43
$GNRMC,162507.00,A,4816.48405,N,01139.86804,E,0.15,,080522,,,A*5E
$GNGGA,162507.00,4816.48405,N,01139.86804,E,1,12,0.64,478.1,M,46.2,M,,*40
$GNGSA,A,3,01,10,14,03,08,21,27,32,22,23,,,1.14,0.64,0.94*1F
$GNVTG,,T,,M,0.145,N,0.268,K,A*31
$SMGPS,-0.0 m,-0.00 m/s,7.63 VRx,0.002 km,2 m,159.5 °,1:-- (  0.0 km/h)*FC
$SMGPS2,-0.23 X,+0.13 Y,+0.94 Z,0 ENL,0 us*43
$GNRMC,162507.10,A,4816.48405,N,01139.86802,E,0.10,,080522,,,A*5C
$GNGGA,162507.10,4816.48405,N,01139.86802,E,1,12,0.64,478.1,M,46.2,M,,*47
$GNGSA,A,3,01,10,14,03,08,21,27,32,22,23,,,1.14,0.64,0.94*1F
$GNVTG,,T,,M,0.098,N,0.181,K,A*34
$SMGPS,0.0 m,-0.00 m/s,7.60 VRx,0.002 km,2 m,159.5 °,1:-- (  0.0 km/h)*D2
$SMGPS2,-0.23 X,+0.13 Y,+0.93 Z,0 ENL,0 us*44
$GNRMC,162507.20,A,4816.48406,N,01139.86800,E,0.07,,080522,,,A*58
$GNGGA,162507.20,4816.48406,N,01139.86800,E,1,12,0.64,478.1,M,46.2,M,,*45
$GNGSA,A,3,01,10,14,03,08,21,27,32,22,23,,,1.14,0.64,0.94*1F
$GNVTG,,T,,M,0.067,N,0.125,K,A*3A
$SMGPS,0.0 m,-0.01 m/s,7.63 VRx,0.002 km,2 m,159.5 °,1:-- (  0.0 km/h)*D0
$SMGPS2,-0.23 X,+0.13 Y,+0.93 Z,0 ENL,0 us*44
$GNRMC,162507.30,A,4816.48407,N,01139.86799,E,0.05,,080522,,,A*55
$GNGGA,162507.30,4816.48407,N,01139.86799,E,1,12,0.64,478.1,M,46.2,M,,*4A
$GNGSA,A,3,01,10,14,03,08,21,27,32,22,23,,,1.14,0.64,0.94*1F
$GNVTG,,T,,M,0.042,N,0.077,K,A*3B
$SMGPS,-0.0 m,-0.00 m/s,7.62 VRx,0.002 km,2 m,159.5 °,1:-- (  0.0 km/h)*FD
$SMGPS2,-0.24 X,+0.13 Y,+0.93 Z,0 ENL,0 us*43
$GNRMC,162507.40,A,4816.48409,N,01139.86798,E,0.03,,080522,,,A*5B
$GNGGA,162507.40,4816.48409,N,01139.86798,E,1,12,0.64,478.1,M,46.2,M,,*42
$GNGSA,A,3,01,10,14,03,08,21,27,32,22,23,,,1.14,0.64,0.94*1F
$GNVTG,,T,,M,0.005,N,0.010,K,A*39
$SMGPS,0.0 m,+0.00 m/s,7.62 VRx,0.002 km,2 m,159.5 °,1:-- (  0.0 km/h)*D6
$SMGPS2,-0.24 X,+0.13 Y,+0.93 Z,0 ENL,0 us*43
$GNRMC,162507.50,A,4816.48410,N,01139.86797,E,0.06,,080522,,,A*58
$GNGGA,162507.50,4816.48410,N,01139.86797,E,1,12,0.64,478.1,M,46.2,M,,*44
$GNGSA,A,3,01,10,14,03,08,21,27,32,22,23,,,1.14,0.64,0.94*1F
$GNVTG,,T,,M,0.057,N,0.106,K,A*38
$SMGPS,0.0 m,+0.01 m/s,7.61 VRx,0.002 km,2 m,166.0 °,1:-- (  0.0 km/h)*DD
$SMGPS2,-0.24 X,+0.13 Y,+0.93 Z,0 ENL,0 us*43
$GNRMC,162507.60,A,4816.48410,N,01139.86797,E,0.05,,080522,,,A*58
$GNGGA,162507.60,4816.48410,N,01139.86797,E,1,12,0.64,478.1,M,46.2,M,,*47
$GNGSA,A,3,01,10,14,03,08,21,27,32,22,23,,,1.14,0.64,0.94*1F
$GNVTG,,T,,M,0.038,N,0.070,K,A*31
$SMGPS,0.0 m,+0.02 m/s,7.62 VRx,0.002 km,2 m,166.0 °,1:-- (  0.0 km/h)*DD
$SMGPS2,-0.24 X,+0.12 Y,+0.93 Z,0 ENL,0 us*42
$GNRMC,162507.70,A,4816.48412,N,01139.86797,E,0.09,,080522,,,A*57
$GNGGA,162507.70,4816.48412,N,01139.86797,E,1,12,0.64,478.1,M,46.2,M,,*44
$GNGSA,A,3,01,10,14,03,08,21,27,32,22,23,,,1.14,0.64,0.94*1F
$GNVTG,,T,,M,0.084,N,0.156,K,A*33
$SMGPS,-0.0 m,+0.02 m/s,7.61 VRx,0.002 km,2 m,166.0 °,1:-- (  0.0 km/h)*F3
$SMGPS2,-0.24 X,+0.13 Y,+0.93 Z,0 ENL,0 us*43
$GNRMC,162507.80,A,4816.48413,N,01139.86796,E,0.12,,080522,,,A*52
$GNGGA,162507.80,4816.48413,N,01139.86796,E,1,12,0.64,478.1,M,46.2,M,,*4B
$GNGSA,A,3,01,10,14,03,08,21,27,32,22,23,,,1.14,0.64,0.94*1F
$GNVTG,,T,,M,0.114,N,0.210,K,A*3A
$SMGPS,-0.0 m,+0.02 m/s,7.63 VRx,0.002 km,2 m,166.0 °,1:-- (  0.0 km/h)*F1
$SMGPS2,-0.24 X,+0.13 Y,+0.93 Z,0 ENL,0 us*43
$GNRMC,162507.90,A,4816.48415,N,01139.86796,E,0.04,,080522,,,A*52
$GNGGA,162507.90,4816.48415,N,01139.86796,E,1,12,0.64,478.1,M,46.2,M,,*4C
$GNGSA,A,3,01,10,14,03,08,21,27,32,22,23,,,1.14,0.64,0.94*1F
$GNVTG,,T,,M,0.034,N,0.063,K,A*3F
$SMGPS,-0.0 m,+0.02 m/s,7.59 VRx,0.002 km,2 m,166.0 °,1:-- (  0.0 km/h)*F8
$SMGPS2,-0.23 X,+0.13 Y,+0.93 Z,0 ENL,0 us*44
$GNRMC,162508.00,A,4816.48416,N,01139.86796,E,0.16,,080522,,,A*54
$GNGGA,162508.00,4816.48416,N,01139.86796,E,1,12,0.64,478.1,M,46.2,M,,*49
$GNGSA,A,3,01,10,14,03,08,21,27,32,22,23,,,1.14,0.64,0.94*1F
$GNVTG,,T,,M,0.157,N,0.290,K,A*35
$SMGPS,-0.0 m,+0.02 m/s,7.64 VRx,0.002 km,1 m,153.5 °,1:-- (  0.0 km/h)*F6
$SMGPS2,-0.24 X,+0.13 Y,+0.93 Z,0 ENL,0 us*43
$GNRMC,162508.10,A,4816.48417,N,01139.86795,E,0.09,,080522,,,A*59
$GNGGA,162508.10,4816.48417,N,01139.86795,E,1,12,0.64,478.1,M,46.2,M,,*4A
$GNGSA,A,3,01,10,14,03,08,21,27,32,22,23,,,1.14,0.64,0.94*1F
$GNVTG,,T,,M,0.087,N,0.161,K,A*34
$SMGPS,-0.0 m,+0.02 m/s,7.60 VRx,0.002 km,1 m,153.5 °,1:-- (  0.0 km/h)*F2
$SMGPS2,-0.24 X,+0.13 Y,+0.93 Z,0 ENL,0 us*43
$GNRMC,162508.20,A,4816.48417,N,01139.86794,E,0.11,,080522,,,A*52
$GNGGA,162508.20,4816.48417,N,01139.86794,E,1,12,0.64,478.1,M,46.2,M,,*48
$GNGSA,A,3,01,10,14,03,08,21,27,32,22,23,,,1.14,0.64,0.94*1F
$GNVTG,,T,,M,0.114,N,0.211,K,A*3B
$SMGPS,0.0 m,+0.01 m/s,7.62 VRx,0.002 km,1 m,153.5 °,1:-- (  0.0 km/h)*DE
$SMGPS2,-0.24 X,+0.13 Y,+0.93 Z,1 ENL,0 us*42
$GNRMC,162508.30,A,4816.48418,N,01139.86793,E,0.15,,080522,,,A*5F
$GNGGA,162508.30,4816.48418,N,01139.86793,E,1,12,0.64,478.1,M,46.2,M,,*41
$GNGSA,A,3,01,10,14,03,08,21,27,32,22,23,,,1.14,0.64,0.94*1F
$GNVTG,,T,,M,0.144,N,0.266,K,A*3E
$SMGPS,-0.0 m,+0.00 m/s,7.61 VRx,0.002 km,1 m,153.5 °,1:-- (  0.0 km/h)*F1
$SMGPS2,-0.24 X,+0.13 Y,+0.93 Z,1 ENL,0 us*42
$GNRMC,162508.40,A,4816.48419,N,01139.86793,E,0.04,,080522,,,A*59
$GNGGA,162508.40,4816.48419,N,01139.86793,E,1,12,0.64,478.1,M,46.2,M,,*47
$GNGSA,A,3,01,10,14,03,08,21,27,32,22,23,,,1.14,0.64,0.94*1F
$GNVTG,,T,,M,0.033,N,0.062,K,A*39
$SMGPS,-0.0 m,+0.00 m/s,7.63 VRx,0.002 km,1 m,153.5 °,1:-- (  0.0 km/h)*F3
$SMGPS2,-0.23 X,+0.13 Y,+0.93 Z,1 ENL,0 us*45
$GNRMC,162508.50,A,4816.48420,N,01139.86793,E,0.10,,080522,,,A*57
$GNGGA,162508.50,4816.48420,N,01139.86793,E,1,12,0.64,478.1,M,46.2,M,,*4C
$GNGSA,A,3,01,10,14,03,08,21,27,32,22,23,,,1.14,0.64,0.94*1F
$GNVTG,,T,,M,0.101,N,0.186,K,A*32
$SMGPS,-0.0 m,-0.00 m/s,7.60 VRx,0.002 km,1 m,153.5 °,1:-- (  0.0 km/h)*F6
$SMGPS2,-0.23 X,+0.13 Y,+0.93 Z,0 ENL,0 us*44
$GNRMC,162508.60,A,4816.48422,N,01139.86792,E,0.06,,080522,,,A*50
$GNGGA,162508.60,4816.48422,N,01139.86792,E,1,12,0.64,478.1,M,46.2,M,,*4C
$GNGSA,A,3,01,10,14,03,08,21,27,32,22,23,,,1.14,0.64,0.94*1F
$GNVTG,,T,,M,0.056,N,0.104,K,A*3B
$SMGPS,0.0 m,-0.01 m/s,7.62 VRx,0.002 km,1 m,153.5 °,1:-- (  0.0 km/h)*D8
$SMGPS2,-0.24 X,+0.13 Y,+0.93 Z,1 ENL,0 us*42
$GNRMC,162508.70,A,4816.48423,N,01139.86792,E,0.09,,080522,,,A*5F
$GNGGA,162508.70,4816.48423,N,01139.86792,E,1,12,0.64,478.1,M,46.2,M,,*4C
$GNGSA,A,3,01,10,14,03,08,21,27,32,22,23,,,1.14,0.64,0.94*1F
$GNVTG,,T,,M,0.086,N,0.159,K,A*3E
$SMGPS,0.0 m,-0.00 m/s,7.62 VRx,0.002 km,1 m,153.5 °,1:-- (  0.0 km/h)*D9
$SMGPS2,-0.24 X,+0.12 Y,+0.93 Z,0 ENL,0 us*42
$GNRMC,162508.80,A,4816.48425,N,01139.86791,E,0.14,,080522,,,A*59
$GNGGA,162508.80,4816.48425,N,01139.86791,E,1,12,0.64,478.1,M,46.2,M,,*46
$GNGSA,A,3,01,10,14,03,08,21,27,32,22,23,,,1.14,0.64,0.94*1F
$GNVTG,,T,,M,0.142,N,0.264,K,A*3A
$SMGPS,-0.0 m,-0.00 m/s,7.62 VRx,0.002 km,1 m,153.5 °,1:-- (  0.0 km/h)*F4
$SMGPS2,-0.23 X,+0.12 Y,+0.93 Z,1 ENL,0 us*44
$GNRMC,162508.90,A,4816.48426,N,01139.86790,E,0.09,,080522,,,A*56
$GNGGA,162508.90,4816.48426,N,01139.86790,E,1,12,0.64,478.1,M,46.2,M,,*45
$GNGSA,A,3,01,10,14,03,08,21,27,32,22,23,,,1.14,0.64,0.94*1F
$GNVTG,,T,,M,0.094,N,0.174,K,A*32
$SMGPS,0.0 m,+0.00 m/s,7.61 VRx,0.002 km,1 m,153.5 °,1:-- (  0.0 km/h)*DC
$SMGPS2,-0.23 X,+0.13 Y,+0.93 Z,1 ENL,0 us*45
$GNRMC,162509.00,A,4816.48426,N,01139.86790,E,0.06,,080522,,,A*51
$GNGGA,162509.00,4816.48426,N,01139.86790,E,1,12,0.64,478.1,M,46.2,M,,*4D
$GNGSA,A,3,01,10,14,03,08,21,27,32,22,23,,,1.14,0.64,0.94*1F
$GNVTG,,T,,M,0.055,N,0.102,K,A*3E
$SMGPS,0.0 m,+0.00 m/s,7.63 VRx,0.002 km,1 m,153.5 °,1:-- (  0.0 km/h)*DE
$SMGPS2,-0.23 X,+0.13 Y,+0.93 Z,1 ENL,0 us*45
$GNRMC,162509.10,A,4816.48426,N,01139.86789,E,0.10,,080522,,,A*5F
$GNGGA,162509.10,4816.48426,N,01139.86789,E,1,12,0.64,478.1,M,46.2,M,,*44
$GNGSA,A,3,01,10,14,03,08,21,27,32,22,23,,,1.14,0.64,0.94*1F
$GNVTG,,T,,M,0.103,N,0.190,K,A*37
$SMGPS,0.0 m,+0.01 m/s,7.61 VRx,0.002 km,1 m,153.5 °,1:-- (  0.0 km/h)*DD
$SMGPS2,-0.23 X,+0.13 Y,+0.93 Z,1 ENL,0 us*45
$GNRMC,162509.20,A,4816.48426,N,01139.86787,E,0.10,,080522,,,A*52
$GNGGA,162509.20,4816.48426,N,01139.86787,E,1,12,0.64,478.1,M,46.2,M,,*49
$GNGSA,A,3,01,10,14,03,08,21,27,32,22,23,,,1.14,0.64,0.94*1F
$GNVTG,,T,,M,0.098,N,0.181,K,A*34
$SMGPS,0.0 m,+0.01 m/s,7.63 VRx,0.002 km,1 m,153.5 °,1:-- (  0.0 km/h)*DF
$SMGPS2,-0.24 X,+0.13 Y,+0.93 Z,1 ENL,0 us*42
$GNRMC,162509.30,A,4816.48426,N,01139.86786,E,0.07,,080522,,,A*54
$GNGGA,162509.30,4816.48426,N,01139.86786,E,1,12,0.64,478.1,M,46.2,M,,*49
$GNGSA,A,3,01,10,14,03,08,21,27,32,22,23,,,1.14,0.64,0.94*1F
$GNVTG,,T,,M,0.064,N,0.118,K,A*37
$SMGPS,0.0 m,+0.01 m/s,7.61 VRx,0.002 km,1 m,153.5 °,1:-- (  0.0 km/h)*DD
$SMGPS2,-0.24 X,+0.13 Y,+0.93 Z,1 ENL,0 us*42
$GNRMC,162509.40,A,4816.48425,N,01139.86785,E,0.04,,080522,,,A*50
$GNGGA,162509.40,4816.48425,N,01139.86785,E,1,12,0.64,478.1,M,46.2,M,,*4E
$GNGSA,A,3,01,10,14,03,08,21,27,32,22,23,,,1.14,0.64,0.94*1F
$GNVTG,,T,,M,0.036,N,0.066,K,A*38
$SMGPS,-0.0 m,+0.01 m/s,7.64 VRx,0.002 km,1 m,153.5 °,1:-- (  0.0 km/h)*F5
$SMGPS2,-0.24 X,+0.13 Y,+0.92 Z,1 ENL,0 us*43
$GNRMC,162509.50,A,4816.48425,N,01139.86785,E,0.06,,080522,,,A*53
$GNGGA,162509.50,4816.48425,N,01139.86785,E,1,12,0.64,478.1,M,46.2,M,,*4F
$GNGSA,A,3,01,10,14,03,08,21,27,32,22,23,,,1.14,0.64,0.94*1F
$GNVTG,,T,,M,0.053,N,0.099,K,A*3B
$SMGPS,-0.0 m,+0.01 m/s,7.60 VRx,0.002 km,1 m,161.6 °,1:-- (  0.0 km/h)*F3
$SMGPS2,-0.24 X,+0.13 Y,+0.93 Z,1 ENL,0 us*42
$GNRMC,162509.60,A,4816.48424,N,01139.86785,E,0.09,,080522,,,A*5E
$GNGGA,162509.60,4816.48424,N,01139.86785,E,1,12,0.64,478.1,M,46.2,M,,*4D
$GNGSA,A,3,01,10,14,03,08,21,27,32,22,23,,,1.14,0.64,0.94*1F
$GNVTG,,T,,M,0.084,N,0.156,K,A*33
$SMGPS,0.0 m,+0.01 m/s,7.63 VRx,0.002 km,1 m,161.6 °,1:-- (  0.0 km/h)*DD
$SMGPS2,-0.24 X,+0.13 Y,+0.93 Z,1 ENL,0 us*42
$GNRMC,162509.70,A,4816.48424,N,01139.86785,E,0.09,,080522,,,A*5F
$GNGGA,162509.70,4816.48424,N,01139.86785,E,1,12,0.64,478.1,M,46.2,M,,*4C
$GNGSA,A,3,01,10,14,03,08,21,27,32,22,23,,,1.14,0.64,0.94*1F
$GNVTG,,T,,M,0.083,N,0.154,K,A*36
$SMGPS,0.0 m,+0.01 m/s,7.61 VRx,0.002 km,1 m,161.6 °,1:-- (  0.0 km/h)*DF
$SMGPS2,-0.24 X,+0.13 Y,+0.93 Z,0 ENL,0 us*43
$GNRMC,162509.80,A,4816.48424,N,01139.86784,E,0.05,,080522,,,A*5D
$GNGGA,162509.80,4816.48424,N,01139.86784,E,1,12,0.64,478.1,M,46.2,M,,*42
$GNGSA,A,3,01,10,14,03,08,21,27,32,22,23,,,1.14,0.64,0.94*1F
$GNVTG,,T,,M,0.040,N,0.074,K,A*3A
$SMGPS,-0.0 m,+0.01 m/s,7.62 VRx,0.002 km,1 m,161.6 °,1:-- (  0.0 km/h)*F1
$SMGPS2,-0.23 X,+0.13 Y,+0.92 Z,1 ENL,0 us*44
$GNRMC,162509.90,A,4816.48424,N,01139.86785,E,0.09,,080522,,,A*51
$GNGGA,162509.90,4816.48424,N,01139.86785,E,1,12,0.64,478.1,M,46.2,M,,*42
$GNGSA,A,3,01,10,14,03,08,21,27,32,22,23,,,1.14,0.64,0.94*1F
$GNVTG,,T,,M,0.086,N,0.159,K,A*3E
$SMGPS,-0.0 m,+0.01 m/s,7.61 VRx,0.002 km,1 m,161.6 °,1:-- (  0.0 km/h)*F2
$SMGPS2,-0.23 X,+0.13 Y,+0.93 Z,1 ENL,0 us*45
$GNRMC,162510.00,A,4816.48424,N,01139.86785,E,0.02,,080522,,,A*5B
$GNGGA,162510.00,4816.48424,N,01139.86785,E,1,12,0.64,478.1,M,46.2,M,,*43
$GNGSA,A,3,01,10,14,03,08,21,27,32,22,23,,,1.14,0.64,0.94*1F
$GNVTG,,T,,M,0.023,N,0.042,K,A*3A
$SMGPS,0.0 m,+0.01 m/s,7.62 VRx,0.002 km,1 m,161.6 °,1:-- (  0.0 km/h)*DC
$SMGPS2,-0.23 X,+0.13 Y,+0.93 Z,1 ENL,0 us*45
$GNRMC,162510.10,A,4816.48425,N,01139.86786,E,0.15,,080522,,,A*5E
$GNGGA,162510.10,4816.48425,N,01139.86786,E,1,12,0.64,478.1,M,46.2,M,,*40
$GNGSA,A,3,01,10,14,03,08,21,27,32,22,23,,,1.14,0.64,0.94*1F
$GNVTG,,T,,M,0.147,N,0.273,K,A*39
$SMGPS,-0.0 m,+0.01 m/s,7.61 VRx,0.002 km,1 m,161.6 °,1:-- (  0.0 km/h)*F2
$SMGPS2,-0.24 X,+0.13 Y,+0.93 Z,1 ENL,0 us*42
$GNRMC,162510.20,A,4816.48425,N,01139.86787,E,0.07,,080522,,,A*5F
$GNGGA,162510.20,4816.48425,N,01139.86787,E,1,12,0.64,478.1,M,46.2,M,,*42
$GNGSA,A,3,01,10,14,03,08,21,27,32,22,23,,,1.14,0.64,0.94*1F
$GNVTG,,T,,M,0.067,N,0.124,K,A*3B
$SMGPS,-0.0 m,+0.00 m/s,7.62 VRx,0.002 km,1 m,153.5 °,1:-- (  0.0 km/h)*F2
$SMGPS2,-0.23 X,+0.12 Y,+0.93 Z,1 ENL,0 us*44
$GNRMC,162510.30,A,4816.48425,N,01139.86787,E,0.03,,080522,,,A*5A
$GNGGA,162510.30,4816.48425,N,01139.86787,E,1,12,0.64,478.1,M,46.2,M,,*43
$GNGSA,A,3,01,10,14,03,08,21,27,32,22,23,,,1.14,0.64,0.94*1F
$GNVTG,,T,,M,0.033,N,0.061,K,A*3A
$SMGPS,-0.0 m,+0.00 m/s,7.60 VRx,0.002 km,1 m,153.5 °,1:-- (  0.0 km/h)*F0
$SMGPS2,-0.24 X,+0.12 Y,+0.93 Z,1 ENL,0 us*43
$GNRMC,162510.40,A,4816.48426,N,01139.86788,E,0.09,,080522,,,A*5B
$GNGGA,162510.40,4816.48426,N,01139.86788,E,1,12,0.64,478.1,M,46.2,M,,*48
$GNGSA,A,3,01,10,14,03,08,21,27,32,22,23,,,1.14,0.64,0.94*1F
$GNVTG,,T,,M,0.091,N,0.168,K,A*3A
$SMGPS,-0.0 m,+0.00 m/s,7.63 VRx,0.002 km,1 m,153.5 °,1:-- (  0.0 km/h)*F3
$SMGPS2,-0.24 X,+0.13 Y,+0.93 Z,0 ENL,0 us*43
$GNRMC,162510.50,A,4816.48426,N,01139.86789,E,0.09,,080522,,,A*5B
$GNGGA,162510.50,4816.48426,N,01139.86789,E,1,12,0.64,478.1,M,46.2,M,,*48
$GNGSA,A,3,01,10,14,03,08,21,27,32,22,23,,,1.14,0.64,0.94*1F
$GNVTG,,T,,M,0.086,N,0.159,K,A*3E
$SMGPS,-0.0 m,+0.00 m/s,7.60 VRx,0.002 km,1 m,153.5 °,1:-- (  0.0 km/h)*F0
$SMGPS2,-0.24 X,+0.13 Y,+0.93 Z,0 ENL,0 us*43
$GNRMC,162510.60,A,4816.48426,N,01139.86790,E,0.03,,080522,,,A*5A
$GNGGA,162510.60,4816.48426,N,01139.86790,E,1,12,0.64,478.1,M,46.2,M,,*43
$GNGSA,A,3,01,10,14,03,08,21,27,32,22,23,,,1.14,0.64,0.94*1F
$GNVTG,,T,,M,0.017,N,0.032,K,A*3A
$SMGPS,-0.0 m,-0.00 m/s,7.63 VRx,0.002 km,1 m,153.5 °,1:-- (  0.0 km/h)*F5
$SMGPS2,-0.24 X,+0.13 Y,+0.93 Z,1 ENL,0 us*42
$GNRMC,162510.70,A,4816.48427,N,01139.86791,E,0.04,,080522,,,A*5C
$GNGGA,162510.70,4816.48427,N,01139.86791,E,1,12,0.64,478.1,M,46.2,M,,*42
$GNGSA,A,3,01,10,14,03,08,21,27,32,22,23,,,1.14,0.64,0.94*1F
$GNVTG,,T,,M,0.039,N,0.073,K,A*33
$SMGPS,0.0 m,-0.01 m/s,7.60 VRx,0.002 km,1 m,153.5 °,1:-- (  0.0 km/h)*DA
$SMGPS2,-0.24 X,+0.12 Y,+0.93 Z,0 ENL,0 us*42
$GNRMC,162510.80,A,4816.48427,N,01139.86792,E,0.10,,080522,,,A*55
$GNGGA,162510.80,4816.48427,N,01139.86792,E,1,12,0.64,478.1,M,46.2,M,,*4E
$GNGSA,A,3,01,10,14,03,08,21,27,32,22,23,,,1.14,0.64,0.94*1F
$GNVTG,,T,,M,0.099,N,0.184,K,A*30
$SMGPS,0.0 m,-0.01 m/s,7.63 VRx,0.002 km,1 m,153.5 °,1:-- (  0.0 km/h)*D9
$SMGPS2,-0.24 X,+0.13 Y,+0.93 Z,0 ENL,0 us*43
$GNRMC,162510.90,A,4816.48427,N,01139.86793,E,0.08,,080522,,,A*5C
$GNGGA,162510.90,4816.48427,N,01139.86793,E,1,12,0.64,478.1,M,46.2,M,,*4E
$GNGSA,A,3,01,10,14,03,08,21,27,32,22,23,,,1.14,0.64,0.94*1F
$GNVTG,,T,,M,0.072,N,0.133,K,A*39
$SMGPS,-0.0 m,-0.01 m/s,7.61 VRx,0.002 km,1 m,153.5 °,1:-- (  0.0 km/h)*F6
$SMGPS2,-0.24 X,+0.13 Y,+0.94 Z,0 ENL,0 us*44
$GNRMC,162511.00,A,4816.48427,N,01139.86793,E,0.08,,080522,,,A*54
$GNGGA,162511.00,4816.48427,N,01139.86793,E,1,12,0.64,478.1,M,46.2,M,,*46
$GNGSA,A,3,01,10,14,03,08,21,27,32,22,23,,,1.14,0.64,0.94*1F
$GNVTG,,T,,M,0.075,N,0.139,K,A*34
$SMGPS,-0.0 m,-0.01 m/s,7.62 VRx,0.002 km,1 m,153.5 °,1:-- (  0.0 km/h)*F5
$SMGPS2,-0.24 X,+0.13 Y,+0.93 Z,1 ENL,0 us*42
$GNRMC,162511.10,A,4816.48427,N,01139.86794,E,0.04,,080522,,,A*5E
$GNGGA,162511.10,4816.48427,N,01139.86794,E,1,12,0.64,478.1,M,46.2,M,,*40
$GNGSA,A,3,01,10,14,03,08,21,27,32,22,23,,,1.14,0.64,0.94*1F
$GNVTG,,T,,M,0.041,N,0.076,K,A*39
$SMGPS,0.0 m,-0.01 m/s,7.62 VRx,0.002 km,1 m,153.5 °,1:-- (  0.0 km/h)*D8
$SMGPS2,-0.24 X,+0.13 Y,+0.93 Z,0 ENL,0 us*43
$GNRMC,162511.20,A,4816.48427,N,01139.86795,E,0.03,,080522,,,A*5B
$GNGGA,162511.20,4816.48427,N,01139.86795,E,1,12,0.64,478.1,M,46.2,M,,*42
$GNGSA,A,3,01,10,14,03,08,21,27,32,22,23,,,1.14,0.64,0.94*1F
$GNVTG,,T,,M,0.025,N,0.047,K,A*39
$SMGPS,0.0 m,-0.01 m/s,7.62 VRx,0.002 km,1 m,153.5 °,1:-- (  0.0 km/h)*D8
$SMGPS2,-0.23 X,+0.12 Y,+0.93 Z,1 ENL,0 us*44
$GNRMC,162511.30,A,4816.48428,N,01139.86795,E,0.07,,080522,,,A*51
$GNGGA,162511.30,4816.48428,N,01139.86795,E,1,12,0.64,478.1,M,46.2,M,,*4C
$GNGSA,A,3,01,10,14,03,08,21,27,32,22,23,,,1.14,0.64,0.94*1F
$GNVTG,,T,,M,0.070,N,0.129,K,A*30
$SMGPS,0.0 m,-0.01 m/s,7.61 VRx,0.002 km,1 m,153.5 °,1:-- (  0.0 km/h)*DB
$SMGPS2,-0.24 X,+0.13 Y,+0.93 Z,1 ENL,0 us*42
$GNRMC,162511.40,A,4816.48428,N,01139.86796,E,0.14,,080522,,,A*57
$GNGGA,162511.40,4816.48428,N,01139.86796,E,1,12,0.64,478.1,M,46.2,M,,*48
$GNGSA,A,3,01,10,14,03,08,21,27,32,22,23,,,1.14,0.64,0.94*1F
$GNVTG,,T,,M,0.136,N,0.252,K,A*3C
$SMGPS,0.0 m,-0.01 m/s,7.63 VRx,0.002 km,1 m,153.5 °,1:-- (  0.0 km/h)*D9
$SMGPS2,-0.24 X,+0.13 Y,+0.93 Z,1 ENL,0 us*42
$GNRMC,162511.50,A,4816.48428,N,01139.86797,E,0.05,,080522,,,A*57
$GNGGA,162511.50,4816.48428,N,01139.86797,E,1,12,0.64,478.1,M,46.2,M,,*48
$GNGSA,A,3,01,10,14,03,08,21,27,32,22,23,,,1.14,0.64,0.94*1F
$GNVTG,,T,,M,0.053,N,0.098,K,A*3A
$SMGPS,0.0 m,-0.01 m/s,7.61 VRx,0.002 km,1 m,153.5 °,1:-- (  0.0 km/h)*DB
$SMGPS2,-0.23 X,+0.13 Y,+0.93 Z,1 ENL,0 us*45
$GNRMC,162511.60,A,4816.48428,N,01139.86797,E,0.07,,080522,,,A*56
$GNGGA,162511.60,4816.48428,N,01139.86797,E,1,12,0.64,478.1,M,46.2,M,,*4B
$GNGSA,A,3,01,10,14,03,08,21,27,32,22,23,,,1.14,0.64,0.94*1F
$GNVTG,,T,,M,0.064,N,0.119,K,A*36
$SMGPS,0.0 m,-0.01 m/s,7.63 VRx,0.002 km,1 m,153.5 °,1:-- (  0.0 km/h)*D9
$SMGPS2,-0.24 X,+0.14 Y,+0.93 Z,0 ENL,0 us*44
$GNRMC,162511.70,A,4816.48428,N,01139.86798,E,0.11,,080522,,,A*5F
$GNGGA,162511.70,4816.48428,N,01139.86798,E,1,12,0.64,478.1,M,46.2,M,,*45
$GNGSA,A,3,01,10,14,03,08,21,27,32,22,23,,,1.14,0.64,0.94*1F
$GNVTG,,T,,M,0.107,N,0.198,K,A*3B
$SMGPS,-0.0 m,-0.01 m/s,7.59 VRx,0.002 km,1 m,153.5 °,1:-- (  0.0 km/h)*FD
$SMGPS2,-0.23 X,+0.12 Y,+0.93 Z,0 ENL,0 us*45
$GNRMC,162511.80,A,4816.48428,N,01139.86799,E,0.02,,080522,,,A*53
$GNGGA,162511.80,4816.48428,N,01139.86799,E,1,12,0.64,478.1,M,46.2,M,,*4B
$GNGSA,A,3,01,10,14,03,08,21,27,32,22,23,,,1.14,0.64,0.94*1F
$GNVTG,,T,,M,0.020,N,0.037,K,A*3B
$SMGPS,-0.0 m,-0.01 m/s,7.63 VRx,0.002 km,1 m,153.5 °,1:-- (  0.0 km/h)*F4
$SMGPS2,-0.24 X,+0.13 Y,+0.93 Z,1 ENL,0 us*42
$GNRMC,162511.90,A,4816.48429,N,01139.86799,E,0.13,,080522,,,A*53
$GNGGA,162511.90,4816.48429,N,01139.86799,E,1,12,0.64,478.1,M,46.2,M,,*4B
$GNGSA,A,3,01,10,14,03,08,21,27,32,22,23,,,1.14,0.64,0.94*1F
$GNVTG,,T,,M,0.128,N,0.237,K,A*30
$SMGPS,-0.0 m,-0.01 m/s,7.60 VRx,0.002 km,1 m,143.2 °,1:-- (  0.0 km/h)*F1
$SMGPS2,-0.24 X,+0.13 Y,+0.93 Z,0 ENL,0 us*43
$GNRMC,162512.00,A,4816.48429,N,01139.86800,E,0.11,,080522,,,A*54
$GNGGA,162512.00,4816.48429,N,01139.86800,E,1,12,0.64,478.1,M,46.2,M,,*4E
$GNGSA,A,3,01,10,14,03,08,21,27,32,22,23,,,1.14,0.64,0.94*1F
$GNVTG,,T,,M,0.112,N,0.208,K,A*35
$SMGPS,0.0 m,-0.02 m/s,7.63 VRx,0.002 km,1 m,143.2 °,1:-- (  0.0 km/h)*DC
$SMGPS2,-0.23 X,+0.13 Y,+0.93 Z,1 ENL,0 us*45
$GNRMC,162512.10,A,4816.48430,N,01139.86800,E,0.05,,080522,,,A*58
$GNGGA,162512.10,4816.48430,N,01139.86800,E,1,12,0.64,478.1,M,46.2,M,,*47
$GNGSA,A,3,01,10,14,03,08,21,27,32,22,23,,,1.14,0.64,0.94*1F
$GNVTG,,T,,M,0.046,N,0.085,K,A*32
$SMGPS,0.0 m,-0.01 m/s,7.61 VRx,0.002 km,1 m,143.2 °,1:-- (  0.0 km/h)*DD
$SMGPS2,-0.24 X,+0.13 Y,+0.93 Z,1 ENL,0 us*42
$GNRMC,162512.20,A,4816.48430,N,01139.86801,E,0.14,,080522,,,A*5A
$GNGGA,162512.20,4816.48430,N,01139.86801,E,1,12,0.64,478.1,M,46.2,M,,*45
$GNGSA,A,3,01,10,14,03,08,21,27,32,22,23,,,1.14,0.64,0.94*1F
$GNVTG,,T,,M,0.139,N,0.257,K,A*36
$SMGPS,0.0 m,-0.02 m/s,7.62 VRx,0.002 km,1 m,143.2 °,1:-- (  0.0 km/h)*DD
$SMGPS2,-0.23 X,+0.12 Y,+0.93 Z,1 ENL,0 us*44
$GNRMC,162512.30,A,4816.48430,N,01139.86801,E,0.13,,080522,,,A*5C
$GNGGA,162512.30,4816.48430,N,01139.86801,E,1,12,0.64,478.1,M,46.2,M,,*44
$GNGSA,A,3,01,10,14,03,08,21,27,32,22,23,,,1.14,0.64,0.94*1F
$GNVTG,,T,,M,0.130,N,0.240,K,A*39
$SMGPS,-0.0 m,-0.02 m/s,7.60 VRx,0.002 km,1 m,143.2 °,1:-- (  0.0 km/h)*F2
$SMGPS2,-0.24 X,+0.13 Y,+0.93 Z,1 ENL,0 us*42
$GNRMC,162512.40,A,4816.48431,N,01139.86801,E,0.03,,080522,,,A*5B
$GNGGA,162512.40,4816.48431,N,01139.86801,E,1,12,0.64,478.1,M,46.2,M,,*42
$GNGSA,A,3,01,10,14,03,08,21,27,32,22,23,,,1.14,0.64,0.94*1F
$GNVTG,,T,,M,0.016,N,0.029,K,A*31
$SMGPS,-0.0 m,-0.02 m/s,7.62 VRx,0.002 km,1 m,143.2 °,1:-- (  0.0 km/h)*F0
$SMGPS2,-0.24 X,+0.13 Y,+0.93 Z,1 ENL,0 us*42
$GNRMC,162512.50,A,4816.48431,N,01139.86802,E,0.04,,080522,,,A*5E
$GNGGA,162512.50,4816.48431,N,01139.86802,E,1,12,0.64,478.0,M,46.2,M,,*41
$GNGSA,A,3,01,10,14,03,08,21,27,32,22,23,,,1.14,0.64,0.94*1F
$GNVTG,,T,,M,0.030,N,0.055,K,A*3E
$SMGPS,-0.1 m,-0.01 m/s,7.61 VRx,0.002 km,1 m,143.2 °,1:-- (  0.0 km/h)*F1
$SMGPS2,-0.24 X,+0.13 Y,+0.93 Z,1 ENL,0 us*42
$GNRMC,162512.60,A,4816.48432,N,01139.86802,E,0.03,,080522,,,A*59
$GNGGA,162512.60,4816.48432,N,01139.86802,E,1,12,0.64,478.1,M,46.2,M,,*40
$GNGSA,A,3,01,10,14,03,08,21,27,32,22,23,,,1.14,0.64,0.94*1F
$GNVTG,,T,,M,0.009,N,0.016,K,A*33
$SMGPS,0.0 m,-0.01 m/s,7.62 VRx,0.002 km,1 m,143.2 °,1:-- (  0.0 km/h)*DE
$SMGPS2,-0.24 X,+0.12 Y,+0.93 Z,1 ENL,0 us*43
$GNRMC,162512.70,A,4816.48432,N,01139.86802,E,0.18,,080522,,,A*52
$GNGGA,162512.70,4816.48432,N,01139.86802,E,1,12,0.64,478.1,M,46.2,M,,*41
$GNGSA,A,3,01,10,14,03,08,21,27,32,22,23,,,1.14,0.64,0.94*1F
$GNVTG,,T,,M,0.183,N,0.339,K,A*3E
$SMGPS,0.0 m,-0.00 m/s,7.60 VRx,0.002 km,1 m,143.2 °,1:-- (  0.0 km/h)*DD
$SMGPS2,-0.24 X,+0.13 Y,+0.93 Z,1 ENL,0 us*42
$GNRMC,162512.80,A,4816.48432,N,01139.86802,E,0.03,,080522,,,A*57
$GNGGA,162512.80,4816.48432,N,01139.86802,E,1,12,0.64,478.1,M,46.2,M,,*4E
$GNGSA,A,3,01,10,14,03,08,21,27,32,22,23,,,1.14,0.64,0.94*1F
$GNVTG,,T,,M,0.025,N,0.047,K,A*39
$SMGPS,0.0 m,-0.00 m/s,7.63 VRx,0.002 km,1 m,143.2 °,1:-- (  0.0 km/h)*DE
$SMGPS2,-0.24 X,+0.13 Y,+0.93 Z,1 ENL,0 us*42
$GNRMC,162512.90,A,4816.48432,N,01139.86803,E,0.06,,080522,,,A*52
$GNGGA,162512.90,4816.48432,N,01139.86803,E,1,12,0.64,478.1,M,46.2,M,,*4E
$GNGSA,A,3,01,10,14,03,08,21,27,32,22,23,,,1.14,0.64,0.94*1F
$GNVTG,,T,,M,0.057,N,0.105,K,A*3B
$SMGPS,-0.0 m,-0.00 m/s,7.60 VRx,0.002 km,1 m,143.2 °,1:-- (  0.0 km/h)*F0
$SMGPS2,-0.24 X,+0.13 Y,+0.92 Z,1 ENL,0 us*43
$GNRMC,162513.00,A,4816.48433,N,01139.86803,E,0.05,,080522,,,A*58
$GNGGA,162513.00,4816.48433,N,01139.86803,E,1,12,0.64,478.1,M,46.2,M,,*47
$GNGSA,A,3,01,10,14,03,08,21,27,32,22,23,,,1.14,0.64,0.94*1F
$GNVTG,,T,,M,0.051,N,0.094,K,A*34
$SMGPS,-0.0 m,-0.00 m/s,7.63 VRx,0.002 km,1 m,143.2 °,1:-- (  0.0 km/h)*F3
$SMGPS2,-0.24 X,+0.13 Y,+0.93 Z,0 ENL,0 us*43
$GNRMC,162513.10,A,4816.48433,N,01139.86803,E,0.05,,080522,,,A*59
$GNGGA,162513.10,4816.48433,N,01139.86803,E,1,12,0.64,478.1,M,46.2,M,,*46
$GNGSA,A,3,01,10,14,03,08,21,27,32,22,23,,,1.14,0.64,0.94*1F
$GNVTG,,T,,M,0.053,N,0.099,K,A*3B
$SMGPS,0.0 m,-0.01 m/s,7.60 VRx,0.002 km,1 m,143.2 °,1:-- (  0.0 km/h)*DC
$SMGPS2,-0.24 X,+0.13 Y,+0.93 Z,0 ENL,0 us*43
$GNRMC,162513.20,A,4816.48433,N,01139.86803,E,0.10,,080522,,,A*5E
$GNGGA,162513.20,4816.48433,N,01139.86803,E,1,12,0.64,478.1,M,46.2,M,,*45
$GNGSA,A,3,01,10,14,03,08,21,27,32,22,23,,,1.14,0.64,0.94*1F
$GNVTG,,T,,M,0.097,N,0.179,K,A*3C
$SMGPS,0.0 m,-0.01 m/s,7.64 VRx,0.002 km,1 m,143.2 °,1:-- (  0.0 km/h)*D8
$SMGPS2,-0.24 X,+0.13 Y,+0.94 Z,1 ENL,0 us*45
$GNRMC,162513.30,A,4816.48434,N,01139.86803,E,0.06,,080522,,,A*5F
$GNGGA,162513.30,4816.48434,N,01139.86803,E,1,12,0.64,478.1,M,46.2,M,,*43
$GNGSA,A,3,01,10,14,03,08,21,27,32,22,23,,,1.14,0.64,0.94*1F
$GNVTG,,T,,M,0.058,N,0.108,K,A*39
$SMGPS,0.0 m,-0.02 m/s,7.60 VRx,0.002 km,1 m,143.2 °,1:-- (  0.0 km/h)*DF
$SMGPS2,-0.23 X,+0.13 Y,+0.93 Z,1 ENL,0 us*45
$GNRMC,162513.40,A,4816.48434,N,01139.86802,E,0.08,,080522,,,A*57
$GNGGA,162513.40,4816.48434,N,01139.86802,E,1,12,0.64,478.1,M,46.2,M,,*45
$GNGSA,A,3,01,10,14,03,08,21,27,32,22,23,,,1.14,0.64,0.94*1F
$GNVTG,,T,,M,0.078,N,0.144,K,A*33
$SMGPS,-0.0 m,-0.02 m/s,7.63 VRx,0.002 km,1 m,143.2 °,1:-- (  0.0 km/h)*F1
$SMGPS2,-0.24 X,+0.13 Y,+0.93 Z,1 ENL,0 us*42
$GNRMC,162513.50,A,4816.48434,N,01139.86802,E,0.02,,080522,,,A*5C
$GNGGA,162513.50,4816.48434,N,01139.86802,E,1,12,0.64,478.1,M,46.2,M,,*44
$GNGSA,A,3,01,10,14,03,08,21,27,32,22,23,,,1.14,0.64,0.94*1F
$GNVTG,,T,,M,0.019,N,0.036,K,A*30
$SMGPS,0.0 m,-0.03 m/s,7.61 VRx,0.002 km,1 m,143.2 °,1:-- (  0.0 km/h)*DF
$SMGPS2,-0.24 X,+0.13 Y,+0.93 Z,1 ENL,0 us*42
$GNRMC,162513.60,A,4816.48434,N,01139.86802,E,0.02,,080522,,,A*5F
$GNGGA,162513.60,4816.48434,N,01139.86802,E,1,12,0.64,478.0,M,46.2,M,,*46
$GNGSA,A,3,01,10,14,03,08,21,27,32,22,23,,,1.14,0.64,0.94*1F
$GNVTG,,T,,M,0.022,N,0.041,K,A*38
$SMGPS,-0.1 m,-0.02 m/s,7.62 VRx,0.002 km,1 m,143.2 °,1:-- (  0.0 km/h)*F1
$SMGPS2,-0.24 X,+0.13 Y,+0.93 Z,1 ENL,0 us*42
$GNRMC,162513.70,A,4816.48434,N,01139.86802,E,0.05,,080522,,,A*59
$GNGGA,162513.70,4816.48434,N,01139.86802,E,1,12,0.64,478.1,M,46.2,M,,*46
$GNGSA,A,3,01,10,14,03,08,21,27,32,22,23,,,1.14,0.64,0.94*1F
$GNVTG,,T,,M,0.050,N,0.092,K,A*33
$SMGPS,0.0 m,-0.02 m/s,7.62 VRx,0.002 km,1 m,143.2 °,1:-- (  0.0 km/h)*DD
$SMGPS2,-0.23 X,+0.13 Y,+0.93 Z,1 ENL,0 us*45
$GNRMC,162513.80,A,4816.48435,N,01139.86802,E,0.09,,080522,,,A*5B
$GNGGA,162513.80,4816.48435,N,01139.86802,E,1,12,0.64,478.1,M,46.2,M,,*48
$GNGSA,A,3,01,10,14,03,08,21,27,32,22,23,,,1.14,0.64,0.94*1F
$GNVTG,,T,,M,0.087,N,0.162,K,A*37
$SMGPS,0.0 m,-0.01 m/s,7.62 VRx,0.002 km,1 m,143.2 °,1:-- (  0.0 km/h)*DE
$SMGPS2,-0.24 X,+0.13 Y,+0.93 Z,0 ENL,0 us*43
$GNRMC,162513.90,A,4816.48435,N,01139.86801,E,0.06,,080522,,,A*56
$GNGGA,162513.90,4816.48435,N,01139.86801,E,1,12,0.64,478.1,M,46.2,M,,*4A
$GNGSA,A,3,01,10,14,03,08,21,27,32,22,23,,,1.14,0.64,0.94*1F
$GNVTG,,T,,M,0.064,N,0.118,K,A*37
$SMGPS,0.0 m,-0.01 m/s,7.61 VRx,0.002 km,1 m,143.2 °,1:-- (  0.0 km/h)*DD
$SMGPS2,-0.24 X,+0.13 Y,+0.93 Z,1 ENL,0 us*42
$GNRMC,162514.00,A,4816.48436,N,01139.86801,E,0.07,,080522,,,A*5A
$GNGGA,162514.00,4816.48436,N,01139.86801,E,1,12,0.64,478.1,M,46.2,M,,*47
$GNGSA,A,3,01,10,14,03,08,21,27,32,22,23,,,1.14,0.64,0.94*1F
$GNVTG,,T,,M,0.064,N,0.119,K,A*36
$SMGPS,0.0 m,-0.01 m/s,7.63 VRx,0.002 km,1 m,143.2 °,1:-- (  0.0 km/h)*DF
$SMGPS2,-0.24 X,+0.13 Y,+0.94 Z,1 ENL,0 us*45
$GNRMC,162514.10,A,4816.48436,N,01139.86801,E,0.11,,080522,,,A*5C
$GNGGA,162514.10,4816.48436,N,01139.86801,E,1,12,0.64,478.1,M,46.2,M,,*46
$GNGSA,A,3,01,10,14,03,08,21,27,32,22,23,,,1.14,0.64,0.94*1F
$GNVTG,,T,,M,0.108,N,0.201,K,A*37
$SMGPS,0.0 m,+0.00 m/s,7.60 VRx,0.002 km,1 m,143.2 °,1:-- (  0.0 km/h)*DB
$SMGPS2,-0.24 X,+0.13 Y,+0.93 Z,1 ENL,0 us*42
$GNRMC,162514.20,A,4816.48436,N,01139.86801,E,0.07,,080522,,,A*58
$GNGGA,162514.20,4816.48436,N,01139.86801,E,1,12,0.64,478.1,M,46.2,M,,*45
$GNGSA,A,3,01,10,14,03,08,21,27,32,22,23,,,1.14,0.64,0.94*1F
$GNVTG,,T,,M,0.070,N,0.130,K,A*38
$SMGPS,0.0 m,+0.01 m/s,7.64 VRx,0.002 km,1 m,143.2 °,1:-- (  0.0 km/h)*DE
$SMGPS2,-0.24 X,+0.13 Y,+0.93 Z,1 ENL,0 us*42
$GNRMC,162514.30,A,4816.48437,N,01139.86801,E,0.06,,080522,,,A*59
$GNGGA,162514.30,4816.48437,N,01139.86801,E,1,12,0.64,478.1,M,46.2,M,,*45
$GNGSA,A,3,01,10,14,03,08,21,27,32,22,23,,,1.14,0.64,0.94*1F
$GNVTG,,T,,M,0.061,N,0.113,K,A*39
$SMGPS,-0.0 m,+0.01 m/s,7.59 VRx,0.002 km,1 m,143.2 °,1:-- (  0.0 km/h)*FD
$SMGPS2,-0.24 X,+0.13 Y,+0.93 Z,1 ENL,0 us*42
$GNRMC,162514.40,A,4816.48437,N,01139.86801,E,0.04,,080522,,,A*5C
$GNGGA,162514.40,4816.48437,N,01139.86801,E,1,12,0.64,478.1,M,46.2,M,,*42
$GNGSA,A,3,01,10,14,03,08,21,27,32,22,23,,,1.14,0.64,0.94*1F
$GNVTG,,T,,M,0.042,N,0.077,K,A*3B
$SMGPS,-0.0 m,+0.01 m/s,7.63 VRx,0.002 km,1 m,143.2 °,1:-- (  0.0 km/h)*F4
$SMGPS2,-0.24 X,+0.13 Y,+0.93 Z,0 ENL,0 us*43
$GNRMC,162514.50,A,4816.48437,N,01139.86801,E,0.04,,080522,,,A*5D
$GNGGA,162514.50,4816.48437,N,01139.86801,E,1,12,0.64,478.1,M,46.2,M,,*43
$GNGSA,A,3,01,10,14,03,08,21,27,32,22,23,,,1.14,0.64,0.94*1F
$GNVTG,,T,,M,0.040,N,0.074,K,A*3A
$SMGPS,-0.0 m,+0.01 m/s,7.61 VRx,0.002 km,1 m,143.2 °,1:-- (  0.0 km/h)*F6
$SMGPS2,-0.24 X,+0.13 Y,+0.93 Z,0 ENL,0 us*43
$GNRMC,162514.60,A,4816.48438,N,01139.86801,E,0.11,,080522,,,A*55
$GNGGA,162514.60,4816.48438,N,01139.86801,E,1,12,0.64,478.1,M,46.2,M,,*4F
$GNGSA,A,3,01,10,14,03,08,21,27,32,22,23,,,1.14,0.64,0.94*1F
$GNVTG,,T,,M,0.114,N,0.211,K,A*3B
$SMGPS,-0.0 m,+0.01 m/s,7.62 VRx,0.002 km,1 m,143.2 °,1:-- (  0.0 km/h)*F5
$SMGPS2,-0.24 X,+0.13 Y,+0.93 Z,1 ENL,0 us*42
$GNRMC,162514.70,A,4816.48438,N,01139.86801,E,0.08,,080522,,,A*5C
$GNGGA,162514.70,4816.48438,N,01139.86801,E,1,12,0.64,478.1,M,46.2,M,,*4E
$GNGSA,A,3,01,10,14,03,08,21,27,32,22,23,,,1.14,0.64,0.94*1F
$GNVTG,,T,,M,0.075,N,0.139,K,A*34
$SMGPS,0.0 m,+0.00 m/s,7.60 VRx,0.002 km,1 m,143.2 °,1:-- (  0.0 km/h)*DB
$SMGPS2,-0.24 X,+0.13 Y,+0.93 Z,1 ENL,0 us*42
$GNRMC,162514.80,A,4816.48438,N,01139.86802,E,0.11,,080522,,,A*58
$GNGGA,162514.80,4816.48438,N,01139.86802,E,1,12,0.64,478.1,M,46.2,M,,*42
$GNGSA,A,3,01,10,14,03,08,21,27,32,22,23,,,1.14,0.64,0.94*1F
$GNVTG,,T,,M,0.102,N,0.189,K,A*3E
$SMGPS,-0.0 m,+0.00 m/s,7.62 VRx,0.002 km,1 m,143.2 °,1:-- (  0.0 km/h)*F4
$SMGPS2,-0.24 X,+0.13 Y,+0.93 Z,1 ENL,0 us*42
$GNRMC,162514.90,A,4816.48438,N,01139.86802,E,0.15,,080522,,,A*5D
$GNGGA,162514.90,4816.48438,N,01139.86802,E,1,12,0.64,478.1,M,46.2,M,,*43
$GNGSA,A,3,01,10,14,03,08,21,27,32,22,23,,,1.14,0.64,0.94*1F
$GNVTG,,T,,M,0.144,N,0.267,K,A*3F
$SMGPS,-0.0 m,+0.00 m/s,7.62 VRx,0.002 km,1 m,143.2 °,1:-- (  0.0 km/h)*F4
$SMGPS2,-0.24 X,+0.13 Y,+0.93 Z,0 ENL,0 us*43
$GNRMC,162515.00,A,4816.48438,N,01139.86802,E,0.06,,080522,,,A*57
$GNGGA,162515.00,4816.48438,N,01139.86802,E,1,12,0.64,478.1,M,46.2,M,,*4B
$GNGSA,A,3,01,10,14,03,08,21,27,32,22,23,,,1.14,0.64,0.94*1F
$GNVTG,,T,,M,0.056,N,0.104,K,A*3B
$SMGPS,-0.0 m,+0.00 m/s,7.62 VRx,0.002 km,1 m,143.2 °,1:-- (  0.0 km/h)*F4
$SMGPS2,-0.24 X,+0.13 Y,+0.93 Z,1 ENL,0 us*42
$GNRMC,162515.10,A,4816.48439,N,01139.86802,E,0.11,,080522,,,A*51
$GNGGA,162515.10,4816.48439,N,01139.86802,E,1,12,0.64,478.1,M,46.2,M,,*4B
$GNGSA,A,3,01,10,14,03,08,21,27,32,22,23,,,1.14,0.64,0.94*1F
$GNVTG,,T,,M,0.101,N,0.187,K,A*33
$SMGPS,-0.0 m,+0.00 m/s,7.60 VRx,0.002 km,1 m,143.2 °,1:-- (  0.0 km/h)*F6
$SMGPS2,-0.24 X,+0.13 Y,+0.93 Z,1 ENL,0 us*42
$GNRMC,162515.20,A,4816.48439,N,01139.86802,E,0.04,,080522,,,A*56
$GNGGA,162515.20,4816.48439,N,01139.86802,E,1,12,0.64,478.1,M,46.2,M,,*48
$GNGSA,A,3,01,10,14,03,08,21,27,32,22,23,,,1.14,0.64,0.94*1F
$GNVTG,,T,,M,0.025,N,0.046,K,A*38
$SMGPS,-0.0 m,+0.00 m/s,7.62 VRx,0.002 km,1 m,143.2 °,1:-- (  0.0 km/h)*F4
$SMGPS2,-0.24 X,+0.13 Y,+0.93 Z,1 ENL,0 us*42
$GNRMC,162515.30,A,4816.48439,N,01139.86802,E,0.08,,080522,,,A*5B
$GNGGA,162515.30,4816.48439,N,01139.86802,E,1,12,0.64,478.1,M,46.2,M,,*49
$GNGSA,A,3,01,10,14,03,08,21,27,32,22,23,,,1.14,0.64,0.94*1F
$GNVTG,,T,,M,0.069,N,0.129,K,A*38
$SMGPS,0.0 m,-0.00 m/s,7.61 VRx,0.002 km,1 m,143.2 °,1:-- (  0.0 km/h)*DC
$SMGPS2,-0.24 X,+0.13 Y,+0.93 Z,1 ENL,0 us*42
$GNRMC,162515.40,A,4816.48440,N,01139.86803,E,0.09,,080522,,,A*52
$GNGGA,162515.40,4816.48440,N,01139.86803,E,1,12,0.64,478.1,M,46.2,M,,*41
$GNGSA,A,3,01,10,14,03,08,21,27,32,22,23,,,1.14,0.64,0.94*1F
$GNVTG,,T,,M,0.078,N,0.144,K,A*33
$SMGPS,0.0 m,+0.00 m/s,7.63 VRx,0.002 km,1 m,143.2 °,1:-- (  0.0 km/h)*D8
$SMGPS2,-0.24 X,+0.13 Y,+0.93 Z,1 ENL,0 us*42
$GNRMC,162515.50,A,4816.48441,N,01139.86803,E,0.25,,080522,,,A*5C
$GNGGA,162515.50,4816.48441,N,01139.86803,E,1,12,0.64,478.1,M,46.2,M,,*41
$GNGSA,A,3,01,10,14,03,08,21,27,32,22,23,,,1.14,0.64,0.94*1F
$GNVTG,,T,,M,0.244,N,0.451,K,A*3F
$SMGPS,0.0 m,-0.00 m/s,7.59 VRx,0.002 km,1 m,143.2 °,1:-- (  0.0 km/h)*D7
$SMGPS2,-0.23 X,+0.13 Y,+0.93 Z,0 ENL,0 us*44
$GNRMC,162515.60,A,4816.48441,N,01139.86803,E,0.10,,080522,,,A*59
$GNGGA,162515.60,4816.48441,N,01139.86803,E,1,12,0.64,478.1,M,46.2,M,,*42
