$GPSSETUP,8AE8,0,1,1,0,0,1,0,0,0,1,3,0,0,0,0,6,0,C8,C8,1F4,1C2,32,64,7C,64,7D0,5,1,1,1E,0,0,0,0,0,0,1003,4,10,5,6,10,10,10,10,10,10,10,10,10,BC10,0,7C,0,108,302,604,0,20F,0,0,0,0,0,0,0,0,0,0,0,0,0,0,0,0,0,0,0,0,0,0,0,0,0,0,0,0,0,0,0,0,0,20,12C,877D*47
$GNRMC,160630.50,A,4816.48557,N,01139.86784,E,0.05,,080522,,,A*5E
$GNGGA,160630.50,4816.48557,N,01139.86784,E,1,10,1.33,473.6,M,46.2,M,,*4C
$GNGSA,A,3,32,10,01,21,08,14,,,,,,,1.96,1.33,1.44*1D
$GNVTG,,T,,M,0.046,N,0.085,K,A*32
$SMGPS,-0.0 m,+0.01 m/s,7.64 VRx,0.000 km,1 m,18.4 °,1:-- (  0.0 km/h)*C8
$SMGPS2,-0.20 X,+0.12 Y,+0.94 Z,12 ENL,0 us*72
$GNRMC,160630.60,A,4816.48530,N,01139.86769,E,0.26,,080522,,,A*5E
$GNGGA,160630.60,4816.48530,N,01139.86769,E,1,10,1.33,473.6,M,46.2,M,,*4D
$GNGSA,A,3,32,10,01,21,08,14,,,,,,,1.96,1.33,1.44*1D
$GNVTG,,T,,M,0.256,N,0.474,K,A*3B
$SMGPS,-0.0 m,+0.01 m/s,7.60 VRx,0.000 km,1 m,170.6 °,1:-- (  0.0 km/h)*F1
$SMGPS2,-0.20 X,+0.11 Y,+0.94 Z,6 ENL,0 us*44
$GNRMC,160630.70,A,4816.48532,N,01139.86770,E,0.25,,080522,,,A*56
$GNGGA,160630.70,4816.48532,N,01139.86770,E,1,10,1.33,473.6,M,46.2,M,,*46
$GNGSA,A,3,32,10,01,21,08,14,,,,,,,1.96,1.33,1.44*1D
$GNVTG,,T,,M,0.242,N,0.448,K,A*31
$SMGPS,0.0 m,+0.02 m/s,7.67 VRx,0.000 km,1 m,180.0 °,1:-- (  0.0 km/h)*D1
$SMGPS2,-0.19 X,+0.11 Y,+0.94 Z,1 ENL,0 us*49
$GNRMC,160630.80,A,4816.48546,N,01139.86782,E,0.22,,080522,,,A*50
$GNGGA,160630.80,4816.48546,N,01139.86782,E,1,10,1.33,473.6,M,46.2,M,,*47
$GNGSA,A,3,32,10,01,21,08,14,,,,,,,1.96,1.33,1.44*1D
$GNVTG,,T,,M,0.212,N,0.393,K,A*35
$SMGPS,0.0 m,+0.02 m/s,7.59 VRx,0.000 km,1 m,180.0 °,1:-- (  0.0 km/h)*DC
$SMGPS2,-0.22 X,+0.12 Y,+0.93 Z,1 ENL,0 us*45
$GNRMC,160630.90,A,4816.48545,N,01139.86792,E,0.19,,080522,,,A*5B
$GNGGA,160630.90,4816.48545,N,01139.86792,E,1,10,1.33,473.6,M,46.2,M,,*44
$GNGSA,A,3,32,10,01,21,08,14,,,,,,,1.96,1.33,1.44*1D
$GNVTG,,T,,M,0.186,N,0.345,K,A*30
$SMGPS,-0.0 m,+0.01 m/s,7.60 VRx,0.000 km,1 m,170.6 °,1:-- (  0.0 km/h)*F1
$SMGPS2,-0.20 X,+0.12 Y,+0.93 Z,5 ENL,0 us*43
$GNRMC,160631.00,A,4816.48527,N,01139.86793,E,0.08,,080522,,,A*56
$GNGGA,160631.00,4816.48527,N,01139.86793,E,1,11,1.02,473.6,M,46.2,M,,*4A
$GNGSA,A,3,32,10,01,21,08,14,,,,,,,1.61,1.02,1.24*11
$GNVTG,,T,,M,0.080,N,0.149,K,A*39
$SMGPS,-0.0 m,+0.01 m/s,7.59 VRx,0.000 km,1 m,161.6 °,1:-- (  0.0 km/h)*FB
$SMGPS2,-0.20 X,+0.11 Y,+0.94 Z,3 ENL,0 us*41
$GNRMC,160631.10,A,4816.48510,N,01139.86799,E,0.04,,080522,,,A*55
$GNGGA,160631.10,4816.48510,N,01139.86799,E,1,11,1.02,473.6,M,46.2,M,,*45
$GNGSA,A,3,32,10,01,21,08,14,,,,,,,1.61,1.02,1.24*11
$GNVTG,,T,,M,0.036,N,0.068,K,A*36
$SMGPS,0.0 m,+0.01 m/s,7.60 VRx,0.000 km,1 m,161.6 °,1:-- (  0.0 km/h)*DC
$SMGPS2,-0.19 X,+0.12 Y,+0.93 Z,6 ENL,0 us*4A
$GNRMC,160631.20,A,4816.48512,N,01139.86803,E,0.31,,080522,,,A*5E
$GNGGA,160631.20,4816.48512,N,01139.86803,E,1,10,1.33,473.6,M,46.2,M,,*4B
$GNGSA,A,3,32,10,01,21,08,14,,,,,,,1.96,1.33,1.44*1D
$GNVTG,,T,,M,0.310,N,0.574,K,A*39
$SMGPS,-0.0 m,+0.01 m/s,7.59 VRx,0.000 km,2 m,166.9 °,1:-- (  0.0 km/h)*F0
$SMGPS2,-0.22 X,+0.11 Y,+0.94 Z,1 ENL,0 us*41
$GNRMC,160631.30,A,4816.48511,N,01139.86807,E,0.25,,080522,,,A*5D
$GNGGA,160631.30,4816.48511,N,01139.86807,E,1,11,1.02,473.6,M,46.2,M,,*4E
$GNGSA,A,3,32,10,01,21,08,14,,,,,,,1.61,1.02,1.24*11
$GNVTG,,T,,M,0.253,N,0.469,K,A*32
$SMGPS,-0.0 m,+0.00 m/s,7.60 VRx,0.000 km,1 m,149.8 °,1:-- (  0.0 km/h)*F4
$SMGPS2,-0.21 X,+0.11 Y,+0.93 Z,1 ENL,0 us*45
$GNRMC,160631.40,A,4816.48513,N,01139.86812,E,0.28,,080522,,,A*51
$GNGGA,160631.40,4816.48513,N,01139.86812,E,1,11,1.02,473.6,M,46.2,M,,*4F
$GNGSA,A,3,32,10,01,21,08,14,,,,,,,1.61,1.02,1.24*11
$GNVTG,,T,,M,0.283,N,0.523,K,A*30
$SMGPS,-0.0 m,-0.00 m/s,7.58 VRx,0.000 km,1 m,149.8 °,1:-- (  0.0 km/h)*F9
$SMGPS2,-0.22 X,+0.12 Y,+0.97 Z,2 ENL,0 us*42
$GNRMC,160631.50,A,4816.48513,N,01139.86822,E,0.41,,080522,,,A*5C
$GNGGA,160631.50,4816.48513,N,01139.86822,E,1,12,0.94,473.6,M,46.2,M,,*40
$GNGSA,A,3,32,10,01,21,08,27,14,,,,,,1.55,0.94,1.22*1B
$GNVTG,,T,,M,0.408,N,0.755,K,A*36
$SMGPS,-0.0 m,-0.00 m/s,7.61 VRx,0.000 km,1 m,143.2 °,1:-- (  0.0 km/h)*F3
$SMGPS2,-0.17 X,+0.12 Y,+0.92 Z,0 ENL,0 us*43
$GNRMC,160631.60,A,4816.48520,N,01139.86831,E,0.18,,080522,,,A*51
$GNGGA,160631.60,4816.48520,N,01139.86831,E,1,12,0.94,473.6,M,46.2,M,,*41
$GNGSA,A,3,32,10,01,21,08,27,14,,,,,,1.55,0.94,1.22*1B
$GNVTG,,T,,M,0.182,N,0.337,K,A*31
$SMGPS,0.0 m,-0.00 m/s,7.58 VRx,0.000 km,1 m,143.2 °,1:-- (  0.0 km/h)*D4
$SMGPS2,-0.20 X,+0.11 Y,+0.92 Z,1 ENL,0 us*45
$GNRMC,160631.70,A,4816.48523,N,01139.86839,E,0.13,,080522,,,A*50
$GNGGA,160631.70,4816.48523,N,01139.86839,E,1,12,0.94,473.6,M,46.2,M,,*4B
$GNGSA,A,3,32,10,01,21,08,27,14,,,,,,1.55,0.94,1.22*1B
$GNVTG,,T,,M,0.132,N,0.244,K,A*3F
$SMGPS,-0.0 m,-0.00 m/s,7.61 VRx,0.000 km,1 m,137.5 °,1:-- (  0.0 km/h)*F7
$SMGPS2,-0.23 X,+0.13 Y,+0.97 Z,1 ENL,0 us*41
$GNRMC,160631.80,A,4816.48516,N,01139.86844,E,0.06,,080522,,,A*57
$GNGGA,160631.80,4816.48516,N,01139.86844,E,1,12,0.94,473.6,M,46.2,M,,*48
$GNGSA,A,3,32,10,01,21,08,27,14,,,,,,1.55,0.94,1.22*1B
$GNVTG,,T,,M,0.057,N,0.105,K,A*3B
$SMGPS,-0.0 m,-0.00 m/s,7.60 VRx,0.000 km,1 m,132.8 °,1:-- (  0.0 km/h)*FE
$SMGPS2,-0.15 X,+0.13 Y,+0.92 Z,1 ENL,0 us*41
$GNRMC,160631.90,A,4816.48521,N,01139.86854,E,0.08,,080522,,,A*5D
$GNGGA,160631.90,4816.48521,N,01139.86854,E,1,12,1.04,473.5,M,46.2,M,,*47
$GNGSA,A,3,32,10,01,21,08,27,22,14,,,,,1.63,1.04,1.25*11
$GNVTG,,T,,M,0.075,N,0.138,K,A*35
$SMGPS,-0.1 m,-0.01 m/s,7.62 VRx,0.000 km,1 m,132.8 °,1:-- (  0.0 km/h)*FC
$SMGPS2,-0.24 X,+0.10 Y,+0.93 Z,3 ENL,0 us*43
$GNRMC,160632.00,A,4816.48522,N,01139.86858,E,0.13,,080522,,,A*52
$GNGGA,160632.00,4816.48522,N,01139.86858,E,1,12,1.04,473.6,M,46.2,M,,*41
$GNGSA,A,3,32,10,01,21,08,27,22,14,,,,,1.63,1.04,1.25*11
$GNVTG,,T,,M,0.126,N,0.233,K,A*3A
$SMGPS,0.0 m,+0.00 m/s,7.60 VRx,0.000 km,1 m,128.7 °,1:-- (  0.0 km/h)*D1
$SMGPS2,-0.20 X,+0.14 Y,+0.95 Z,46 ENL,0 us*74
$GNRMC,160632.10,A,4816.48517,N,01139.86857,E,0.13,,080522,,,A*5A
$GNGGA,160632.10,4816.48517,N,01139.86857,E,1,12,1.04,473.6,M,46.2,M,,*49
$GNGSA,A,3,32,10,01,21,08,27,22,14,,,,,1.63,1.04,1.25*11
$GNVTG,,T,,M,0.127,N,0.235,K,A*3D
$SMGPS,-0.0 m,-0.00 m/s,7.61 VRx,0.000 km,1 m,128.7 °,1:-- (  0.0 km/h)*FB
$SMGPS2,-0.18 X,+0.12 Y,+0.90 Z,2 ENL,0 us*4C
$GNRMC,160632.20,A,4816.48506,N,01139.86853,E,0.14,,080522,,,A*5A
$GNGGA,160632.20,4816.48506,N,01139.86853,E,1,12,1.04,473.6,M,46.2,M,,*4E
$GNGSA,A,3,32,10,01,21,08,27,22,14,,,,,1.63,1.04,1.25*11
$GNVTG,,T,,M,0.141,N,0.261,K,A*3C
$SMGPS,0.0 m,-0.00 m/s,7.59 VRx,0.000 km,1 m,128.7 °,1:-- (  0.0 km/h)*DD
$SMGPS2,-0.19 X,+0.15 Y,+0.98 Z,13 ENL,0 us*72
$GNRMC,160632.30,A,4816.48497,N,01139.86850,E,0.10,,080522,,,A*55
$GNGGA,160632.30,4816.48497,N,01139.86850,E,1,12,1.04,473.6,M,46.2,M,,*45
$GNGSA,A,3,32,10,01,21,08,27,22,14,,,,,1.63,1.04,1.25*11
$GNVTG,,T,,M,0.094,N,0.174,K,A*32
$SMGPS,-0.0 m,-0.01 m/s,7.61 VRx,0.000 km,2 m,153.5 °,1:-- (  0.0 km/h)*F7
$SMGPS2,-0.17 X,+0.16 Y,+0.90 Z,3 ENL,0 us*46
$GNRMC,160632.40,A,4816.48496,N,01139.86850,E,0.44,,080522,,,A*52
$GNGGA,160632.40,4816.48496,N,01139.86850,E,1,12,0.88,473.6,M,46.2,M,,*46
$GNGSA,A,3,32,10,01,21,08,27,22,23,14,,,,1.47,0.88,1.17*12
$GNVTG,,T,,M,0.435,N,0.806,K,A*31
$SMGPS,-0.0 m,-0.01 m/s,7.60 VRx,0.000 km,2 m,153.5 °,1:-- (  0.0 km/h)*F6
$SMGPS2,-0.23 X,+0.11 Y,+0.97 Z,5 ENL,0 us*47
$GNRMC,160632.50,A,4816.48496,N,01139.86847,E,0.09,,080522,,,A*5C
$GNGGA,160632.50,4816.48496,N,01139.86847,E,1,12,0.88,473.6,M,46.2,M,,*41
$GNGSA,A,3,32,10,01,21,08,27,22,23,14,,,,1.47,0.88,1.17*12
$GNVTG,,T,,M,0.087,N,0.162,K,A*37
$SMGPS,0.0 m,-0.01 m/s,7.62 VRx,0.000 km,2 m,153.5 °,1:-- (  0.0 km/h)*D9
$SMGPS2,-0.18 X,+0.10 Y,+0.97 Z,22 ENL,0 us*7B
$GNRMC,160632.60,A,4816.48498,N,01139.86846,E,0.29,,080522,,,A*52
$GNGGA,160632.60,4816.48498,N,01139.86846,E,1,12,0.88,473.6,M,46.2,M,,*4D
$GNGSA,A,3,32,10,01,21,08,27,22,23,14,,,,1.47,0.88,1.17*12
$GNVTG,,T,,M,0.291,N,0.538,K,A*39
$SMGPS,0.0 m,-0.01 m/s,7.60 VRx,0.000 km,2 m,153.5 °,1:-- (  0.0 km/h)*DB
$SMGPS2,-0.18 X,+0.11 Y,+0.93 Z,1 ENL,0 us*4F
$GNRMC,160632.70,A,4816.48499,N,01139.86846,E,0.18,,080522,,,A*50
$GNGGA,160632.70,4816.48499,N,01139.86846,E,1,12,0.88,473.6,M,46.2,M,,*4D
$GNGSA,A,3,32,10,01,21,08,27,22,23,14,,,,1.47,0.88,1.17*12
$GNVTG,,T,,M,0.175,N,0.325,K,A*3A
$SMGPS,-0.0 m,-0.02 m/s,7.63 VRx,0.000 km,2 m,156.6 °,1:-- (  0.0 km/h)*F0
$SMGPS2,-0.21 X,+0.14 Y,+0.95 Z,3 ENL,0 us*44
$GNRMC,160632.80,A,4816.48503,N,01139.86849,E,0.16,,080522,,,A*5C
$GNGGA,160632.80,4816.48503,N,01139.86849,E,1,12,0.88,473.6,M,46.2,M,,*4F
$GNGSA,A,3,32,10,01,21,08,27,22,23,14,,,,1.44,0.88,1.14*12
$GNVTG,,T,,M,0.153,N,0.284,K,A*34
$SMGPS,-0.0 m,-0.01 m/s,7.59 VRx,0.000 km,2 m,156.6 °,1:-- (  0.0 km/h)*FA
$SMGPS2,-0.20 X,+0.13 Y,+0.98 Z,46 ENL,0 us*7E
$GNRMC,160632.90,A,4816.48505,N,01139.86852,E,0.04,,080522,,,A*52
$GNGGA,160632.90,4816.48505,N,01139.86852,E,1,12,0.88,473.6,M,46.2,M,,*42
$GNGSA,A,3,32,10,01,21,08,27,22,23,14,,,,1.44,0.88,1.14*12
$GNVTG,,T,,M,0.021,N,0.039,K,A*34
$SMGPS,-0.0 m,-0.02 m/s,7.62 VRx,0.000 km,2 m,153.5 °,1:-- (  0.0 km/h)*F7
$SMGPS2,-0.17 X,+0.12 Y,+0.93 Z,1 ENL,0 us*43
$GNRMC,160633.00,A,4816.48507,N,01139.86855,E,0.34,,080522,,,A*5C
$GNGGA,160633.00,4816.48507,N,01139.86855,E,1,12,0.88,473.6,M,46.2,M,,*4F
$GNGSA,A,3,32,10,01,21,08,27,22,23,14,,,,1.44,0.88,1.14*12
$GNVTG,,T,,M,0.336,N,0.623,K,A*3C
$SMGPS,0.0 m,-0.02 m/s,7.60 VRx,0.000 km,2 m,153.5 °,1:-- (  0.0 km/h)*D8
$SMGPS2,-0.18 X,+0.15 Y,+0.92 Z,4 ENL,0 us*4F
$GNRMC,160633.10,A,4816.48507,N,01139.86856,E,0.07,,080522,,,A*5E
$GNGGA,160633.10,4816.48507,N,01139.86856,E,1,12,0.88,473.6,M,46.2,M,,*4D
$GNGSA,A,3,32,10,01,21,08,27,22,23,14,,,,1.44,0.88,1.14*12
$GNVTG,,T,,M,0.053,N,0.098,K,A*3A
$SMGPS,-0.0 m,-0.03 m/s,7.62 VRx,0.000 km,2 m,153.5 °,1:-- (  0.0 km/h)*F6
$SMGPS2,-0.21 X,+0.11 Y,+0.97 Z,1 ENL,0 us*41
$GNRMC,160633.20,A,4816.48506,N,01139.86858,E,0.14,,080522,,,A*50
$GNGGA,160633.20,4816.48506,N,01139.86858,E,1,12,0.88,473.6,M,46.2,M,,*41
$GNGSA,A,3,32,10,01,21,08,27,22,23,14,,,,1.44,0.88,1.14*12
$GNVTG,,T,,M,0.132,N,0.245,K,A*3E
$SMGPS,-0.0 m,-0.02 m/s,7.60 VRx,0.000 km,2 m,153.5 °,1:-- (  0.0 km/h)*F5
$SMGPS2,-0.18 X,+0.09 Y,+0.96 Z,10 ENL,0 us*73
$GNRMC,160633.30,A,4816.48504,N,01139.86861,E,0.07,,080522,,,A*5B
$GNGGA,160633.30,4816.48504,N,01139.86861,E,1,12,0.88,473.6,M,46.2,M,,*48
$GNGSA,A,3,32,10,01,21,08,27,22,23,14,,,,1.44,0.88,1.14*12
$GNVTG,,T,,M,0.048,N,0.089,K,A*30
$SMGPS,0.0 m,-0.02 m/s,7.61 VRx,0.000 km,2 m,153.5 °,1:-- (  0.0 km/h)*D9
$SMGPS2,-0.17 X,+0.10 Y,+0.95 Z,1 ENL,0 us*47
$GNRMC,160633.40,A,4816.48503,N,01139.86864,E,0.30,,080522,,,A*5A
$GNGGA,160633.40,4816.48503,N,01139.86864,E,1,12,0.88,473.6,M,46.2,M,,*4D
$GNGSA,A,3,32,10,01,21,08,27,22,23,14,,,,1.44,0.88,1.14*12
$GNVTG,,T,,M,0.296,N,0.549,K,A*38
$SMGPS,0.0 m,-0.02 m/s,7.60 VRx,0.000 km,2 m,150.5 °,1:-- (  0.0 km/h)*DB
$SMGPS2,-0.18 X,+0.06 Y,+0.95 Z,0 ENL,0 us*4E
$GNRMC,160633.50,A,4816.48502,N,01139.86864,E,0.08,,080522,,,A*51
$GNGGA,160633.50,4816.48502,N,01139.86864,E,1,12,0.88,473.6,M,46.2,M,,*4D
$GNGSA,A,3,32,10,01,21,08,27,22,23,14,,,,1.44,0.88,1.14*12
$GNVTG,,T,,M,0.079,N,0.146,K,A*30
$SMGPS,-0.0 m,-0.01 m/s,7.61 VRx,0.000 km,2 m,150.5 °,1:-- (  0.0 km/h)*F4
$SMGPS2,-0.18 X,+0.04 Y,+0.94 Z,0 ENL,0 us*4D
$GNRMC,160633.60,A,4816.48500,N,01139.86864,E,0.06,,080522,,,A*5E
$GNGGA,160633.60,4816.48500,N,01139.86864,E,1,12,0.88,473.6,M,46.2,M,,*4C
$GNGSA,A,3,32,10,01,21,08,27,22,23,14,,,,1.44,0.88,1.14*12
$GNVTG,,T,,M,0.055,N,0.102,K,A*3E
$SMGPS,0.0 m,-0.01 m/s,7.60 VRx,0.000 km,2 m,150.5 °,1:-- (  0.0 km/h)*D8
$SMGPS2,-0.19 X,+0.04 Y,+0.96 Z,0 ENL,0 us*4E
$GNRMC,160633.70,A,4816.48497,N,01139.86862,E,0.17,,080522,,,A*56
$GNGGA,160633.70,4816.48497,N,01139.86862,E,1,12,0.88,473.6,M,46.2,M,,*44
$GNGSA,A,3,32,10,01,21,08,27,22,23,14,,,,1.44,0.88,1.14*12
$GNVTG,,T,,M,0.172,N,0.319,K,A*32
$SMGPS,0.0 m,+0.00 m/s,7.62 VRx,0.000 km,2 m,150.5 °,1:-- (  0.0 km/h)*DD
$SMGPS2,-0.16 X,+0.05 Y,+0.92 Z,26 ENL,0 us*70
$GNRMC,160633.80,A,4816.48493,N,01139.86858,E,0.17,,080522,,,A*54
$GNGGA,160633.80,4816.48493,N,01139.86858,E,1,12,0.88,473.6,M,46.2,M,,*46
$GNGSA,A,3,32,10,01,21,08,27,22,23,14,,,,1.44,0.88,1.14*12
$GNVTG,,T,,M,0.171,N,0.317,K,A*3F
$SMGPS,0.0 m,+0.01 m/s,7.58 VRx,0.000 km,2 m,150.5 °,1:-- (  0.0 km/h)*D5
$SMGPS2,-0.17 X,+0.07 Y,+0.93 Z,19 ENL,0 us*7E
$GNRMC,160633.90,A,4816.48488,N,01139.86855,E,0.06,,080522,,,A*52
$GNGGA,160633.90,4816.48488,N,01139.86855,E,1,12,0.88,473.6,M,46.2,M,,*40
$GNGSA,A,3,32,10,01,21,08,27,22,23,14,,,,1.44,0.88,1.14*12
$GNVTG,,T,,M,0.056,N,0.103,K,A*3C
$SMGPS,0.0 m,+0.01 m/s,7.62 VRx,0.000 km,2 m,153.5 °,1:-- (  0.0 km/h)*DF
$SMGPS2,-0.16 X,+0.13 Y,+0.98 Z,21 ENL,0 us*7A
$GNRMC,160634.00,A,4816.48480,N,01139.86850,E,0.11,,080522,,,A*57
$GNGGA,160634.00,4816.48480,N,01139.86850,E,1,12,0.75,473.6,M,46.2,M,,*41
$GNGSA,A,3,32,10,01,21,08,27,22,23,14,,,,1.24,0.75,0.98*13
$GNVTG,,T,,M,0.107,N,0.199,K,A*3A
$SMGPS,0.0 m,+0.01 m/s,7.59 VRx,0.000 km,2 m,153.5 °,1:-- (  0.0 km/h)*D7
$SMGPS2,-0.25 X,+0.08 Y,+0.84 Z,3 ENL,0 us*4D
$GNRMC,160634.10,A,4816.48476,N,01139.86846,E,0.21,,080522,,,A*5B
$GNGGA,160634.10,4816.48476,N,01139.86846,E,1,12,0.75,473.6,M,46.2,M,,*4E
$GNGSA,A,3,32,10,01,21,08,27,22,23,14,,,,1.24,0.75,0.98*13
$GNVTG,,T,,M,0.207,N,0.383,K,A*30
$SMGPS,0.0 m,+0.01 m/s,7.62 VRx,0.000 km,2 m,153.5 °,1:-- (  0.0 km/h)*DF
$SMGPS2,-0.21 X,+0.13 Y,+0.96 Z,20 ENL,0 us*71
$GNRMC,160634.20,A,4816.48469,N,01139.86841,E,0.32,,080522,,,A*53
$GNGGA,160634.20,4816.48469,N,01139.86841,E,1,12,0.75,473.6,M,46.2,M,,*44
$GNGSA,A,3,32,10,01,21,08,27,22,23,14,,,,1.24,0.75,0.98*13
$GNVTG,,T,,M,0.318,N,0.590,K,A*3B
$SMGPS,0.0 m,+0.01 m/s,7.59 VRx,0.000 km,2 m,156.6 °,1:-- (  0.0 km/h)*D1
$SMGPS2,-0.21 X,+0.11 Y,+0.93 Z,1 ENL,0 us*45
$GNRMC,160634.30,A,4816.48464,N,01139.86839,E,0.12,,080522,,,A*52
$GNGGA,160634.30,4816.48464,N,01139.86839,E,1,12,0.75,473.6,M,46.2,M,,*47
$GNGSA,A,3,32,10,01,21,08,27,22,23,14,,,,1.24,0.75,0.98*13
$GNVTG,,T,,M,0.112,N,0.207,K,A*3A
$SMGPS,0.0 m,+0.00 m/s,7.61 VRx,0.000 km,2 m,156.6 °,1:-- (  0.0 km/h)*DB
$SMGPS2,-0.17 X,+0.04 Y,+0.96 Z,2 ENL,0 us*42
$GNRMC,160634.40,A,4816.48461,N,01139.86834,E,0.18,,080522,,,A*57
$GNGGA,160634.40,4816.48461,N,01139.86834,E,1,12,0.76,473.6,M,46.2,M,,*4B
$GNGSA,A,3,32,10,01,21,08,27,22,23,14,,,,1.27,0.76,1.02*11
$GNVTG,,T,,M,0.180,N,0.334,K,A*30
$SMGPS,-0.0 m,+0.00 m/s,7.59 VRx,0.000 km,2 m,156.6 °,1:-- (  0.0 km/h)*FD
$SMGPS2,-0.21 X,+0.09 Y,+0.95 Z,1 ENL,0 us*4A
$GNRMC,160634.50,A,4816.48459,N,01139.86829,E,0.28,,080522,,,A*52
$GNGGA,160634.50,4816.48459,N,01139.86829,E,1,12,0.75,473.6,M,46.2,M,,*4E
$GNGSA,A,3,32,10,01,21,08,27,22,23,14,,,,1.24,0.75,0.98*13
$GNVTG,,T,,M,0.277,N,0.513,K,A*38
$SMGPS,-0.0 m,-0.00 m/s,7.61 VRx,0.000 km,3 m,165.3 °,1:-- (  0.0 km/h)*F4
$SMGPS2,-0.21 X,+0.17 Y,+0.94 Z,1 ENL,0 us*44
$GNRMC,160634.60,A,4816.48456,N,01139.86826,E,0.09,,080522,,,A*52
$GNGGA,160634.60,4816.48456,N,01139.86826,E,1,12,0.75,473.6,M,46.2,M,,*4D
$GNGSA,A,3,32,10,01,21,08,27,22,23,14,,,,1.24,0.75,0.98*13
$GNVTG,,T,,M,0.094,N,0.174,K,A*32
$SMGPS,-0.0 m,-0.01 m/s,7.60 VRx,0.000 km,3 m,165.3 °,1:-- (  0.0 km/h)*F4
$SMGPS2,-0.23 X,+0.15 Y,+0.88 Z,176 ENL,0 us*48
$GNRMC,160634.70,A,4816.48451,N,01139.86825,E,0.21,,080522,,,A*5D
$GNGGA,160634.70,4816.48451,N,01139.86825,E,1,12,0.68,473.6,M,46.2,M,,*44
$GNGSA,A,3,32,10,01,21,08,27,22,23,14,,,,1.17,0.68,0.95*12
$GNVTG,,T,,M,0.208,N,0.385,K,A*39
$SMGPS,-0.0 m,-0.01 m/s,7.61 VRx,0.000 km,3 m,165.3 °,1:-- (  0.0 km/h)*F5
$SMGPS2,-0.22 X,+0.10 Y,+0.96 Z,79 ENL,0 us*7D
$GNRMC,160634.80,A,4816.48446,N,01139.86823,E,0.23,,080522,,,A*50
$GNGGA,160634.80,4816.48446,N,01139.86823,E,1,12,0.68,473.6,M,46.2,M,,*4B
$GNGSA,A,3,32,10,01,21,08,27,22,23,14,,,,1.17,0.68,0.95*12
$GNVTG,,T,,M,0.230,N,0.427,K,A*3D
$SMGPS,-0.0 m,-0.01 m/s,7.60 VRx,0.000 km,3 m,165.3 °,1:-- (  0.0 km/h)*F4
$SMGPS2,-0.22 X,+0.11 Y,+0.91 Z,4 ENL,0 us*41
$GNRMC,160634.90,A,4816.48444,N,01139.86821,E,0.24,,080522,,,A*56
$GNGGA,160634.90,4816.48444,N,01139.86821,E,1,12,0.68,473.6,M,46.2,M,,*4A
$GNGSA,A,3,32,10,01,21,08,27,22,23,14,,,,1.17,0.68,0.95*12
$GNVTG,,T,,M,0.244,N,0.452,K,A*3C
$SMGPS,0.0 m,-0.00 m/s,7.61 VRx,0.000 km,3 m,165.3 °,1:-- (  0.0 km/h)*D9
$SMGPS2,-0.22 X,+0.13 Y,+0.95 Z,2 ENL,0 us*41
$GNRMC,160635.00,A,4816.48443,N,01139.86820,E,0.20,,080522,,,A*5C
$GNGGA,160635.00,4816.48443,N,01139.86820,E,1,12,0.68,473.6,M,46.2,M,,*44
$GNGSA,A,3,32,10,01,21,08,27,22,23,14,,,,1.17,0.68,0.95*12
$GNVTG,,T,,M,0.199,N,0.368,K,A*31
$SMGPS,0.0 m,+0.00 m/s,7.59 VRx,0.000 km,3 m,167.9 °,1:-- (  0.0 km/h)*DC
$SMGPS2,-0.22 X,+0.12 Y,+0.94 Z,1 ENL,0 us*42
$GNRMC,160635.10,A,4816.48439,N,01139.86818,E,0.03,,080522,,,A*5A
$GNGGA,160635.10,4816.48439,N,01139.86818,E,1,12,0.68,473.6,M,46.2,M,,*43
$GNGSA,A,3,32,10,01,21,08,27,22,23,14,,,,1.17,0.68,0.95*12
$GNVTG,,T,,M,0.029,N,0.054,K,A*37
$SMGPS,-0.0 m,+0.00 m/s,7.61 VRx,0.000 km,3 m,167.9 °,1:-- (  0.0 km/h)*FA
$SMGPS2,-0.22 X,+0.11 Y,+0.93 Z,0 ENL,0 us*47
$GNRMC,160635.20,A,4816.48436,N,01139.86815,E,0.16,,080522,,,A*5F
$GNGGA,160635.20,4816.48436,N,01139.86815,E,1,12,0.68,473.6,M,46.2,M,,*42
$GNGSA,A,3,32,10,01,21,08,27,22,23,14,,,,1.17,0.68,0.95*12
$GNVTG,,T,,M,0.163,N,0.302,K,A*38
$SMGPS,-0.0 m,+0.01 m/s,7.58 VRx,0.000 km,3 m,167.9 °,1:-- (  0.0 km/h)*F1
$SMGPS2,-0.22 X,+0.11 Y,+0.93 Z,0 ENL,0 us*47
$GNRMC,160635.30,A,4816.48430,N,01139.86812,E,0.23,,080522,,,A*59
$GNGGA,160635.30,4816.48430,N,01139.86812,E,1,12,0.68,473.6,M,46.2,M,,*42
$GNGSA,A,3,32,10,01,21,08,27,22,23,14,,,,1.17,0.68,0.95*12
$GNVTG,,T,,M,0.229,N,0.423,K,A*31
$SMGPS,0.0 m,+0.01 m/s,7.62 VRx,0.000 km,3 m,167.9 °,1:-- (  0.0 km/h)*D5
$SMGPS2,-0.21 X,+0.12 Y,+0.93 Z,0 ENL,0 us*47
$GNRMC,160635.40,A,4816.48424,N,01139.86808,E,0.11,,080522,,,A*51
$GNGGA,160635.40,4816.48424,N,01139.86808,E,1,12,0.68,473.6,M,46.2,M,,*4B
$GNGSA,A,3,32,10,01,21,08,27,22,23,14,,,,1.17,0.68,0.95*12
$GNVTG,,T,,M,0.106,N,0.195,K,A*37
$SMGPS,0.0 m,+0.02 m/s,7.58 VRx,0.000 km,3 m,167.9 °,1:-- (  0.0 km/h)*DF
$SMGPS2,-0.21 X,+0.12 Y,+0.94 Z,0 ENL,0 us*40
$GNRMC,160635.50,A,4816.48419,N,01139.86805,E,0.13,,080522,,,A*51
$GNGGA,160635.50,4816.48419,N,01139.86805,E,1,12,0.68,473.6,M,46.2,M,,*49
$GNGSA,A,3,32,10,01,21,08,27,22,23,14,,,,1.17,0.68,0.95*12
$GNVTG,,T,,M,0.123,N,0.227,K,A*3A
$SMGPS,-0.0 m,+0.02 m/s,7.61 VRx,0.000 km,3 m,170.6 °,1:-- (  0.0 km/h)*F1
$SMGPS2,-0.22 X,+0.12 Y,+0.93 Z,1 ENL,0 us*45
$GNRMC,160635.60,A,4816.48415,N,01139.86801,E,0.09,,080522,,,A*51
$GNGGA,160635.60,4816.48415,N,01139.86801,E,1,12,0.65,473.6,M,46.2,M,,*4F
$GNGSA,A,3,32,10,01,21,08,27,22,23,14,,,,1.15,0.65,0.95*1D
$GNVTG,,T,,M,0.081,N,0.149,K,A*38
$SMGPS,0.0 m,+0.02 m/s,7.60 VRx,0.000 km,3 m,170.6 °,1:-- (  0.0 km/h)*DD
$SMGPS2,-0.21 X,+0.12 Y,+0.94 Z,0 ENL,0 us*40
$GNRMC,160635.70,A,4816.48410,N,01139.86799,E,0.09,,080522,,,A*5B
$GNGGA,160635.70,4816.48410,N,01139.86799,E,1,12,0.65,473.6,M,46.2,M,,*45
$GNGSA,A,3,32,10,01,21,08,27,22,23,14,,,,1.15,0.65,0.95*1D
$GNVTG,,T,,M,0.088,N,0.163,K,A*39
$SMGPS,0.0 m,+0.01 m/s,7.61 VRx,0.000 km,3 m,170.6 °,1:-- (  0.0 km/h)*DF
$SMGPS2,-0.21 X,+0.12 Y,+0.94 Z,0 ENL,0 us*40
$GNRMC,160635.80,A,4816.48404,N,01139.86795,E,0.18,,080522,,,A*5D
$GNGGA,160635.80,4816.48404,N,01139.86795,E,1,12,0.65,473.6,M,46.2,M,,*43
$GNGSA,A,3,32,10,01,21,08,27,22,23,14,,,,1.15,0.65,0.95*1D
$GNVTG,,T,,M,0.179,N,0.332,K,A*30
$SMGPS,-0.0 m,+0.01 m/s,7.59 VRx,0.000 km,4 m,172.6 °,1:-- (  0.0 km/h)*FC
$SMGPS2,-0.21 X,+0.12 Y,+0.94 Z,0 ENL,0 us*40
$GNRMC,160635.90,A,4816.48396,N,01139.86793,E,0.05,,080522,,,A*5A
$GNGGA,160635.90,4816.48396,N,01139.86793,E,1,12,0.65,473.6,M,46.2,M,,*48
$GNGSA,A,3,32,10,01,21,08,27,22,23,14,,,,1.15,0.65,0.95*1D
$GNVTG,,T,,M,0.040,N,0.073,K,A*3D
$SMGPS,-0.0 m,+0.02 m/s,7.61 VRx,0.000 km,4 m,175.8 °,1:-- (  0.0 km/h)*FD
$SMGPS2,-0.21 X,+0.12 Y,+0.94 Z,0 ENL,0 us*40
$GNRMC,160636.00,A,4816.48390,N,01139.86790,E,0.07,,080522,,,A*57
$GNGGA,160636.00,4816.48390,N,01139.86790,E,1,12,0.65,473.6,M,46.2,M,,*47
$GNGSA,A,3,32,10,01,21,08,27,22,23,14,,,,1.15,0.65,0.95*1D
$GNVTG,,T,,M,0.069,N,0.128,K,A*39
$SMGPS,-0.0 m,+0.02 m/s,7.59 VRx,0.000 km,4 m,175.8 °,1:-- (  0.0 km/h)*F6
$SMGPS2,-0.22 X,+0.12 Y,+0.93 Z,0 ENL,0 us*44
$GNRMC,160636.10,A,4816.48386,N,01139.86788,E,0.18,,080522,,,A*56
$GNGGA,160636.10,4816.48386,N,01139.86788,E,1,12,0.65,473.6,M,46.2,M,,*48
$GNGSA,A,3,32,10,01,21,08,27,22,23,14,,,,1.15,0.65,0.95*1D
$GNVTG,,T,,M,0.178,N,0.329,K,A*3B
$SMGPS,-0.0 m,+0.01 m/s,7.61 VRx,0.000 km,4 m,175.8 °,1:-- (  0.0 km/h)*FE
$SMGPS2,-0.21 X,+0.12 Y,+0.94 Z,1 ENL,0 us*41
$GNRMC,160636.20,A,4816.48384,N,01139.86787,E,0.14,,080522,,,A*54
$GNGGA,160636.20,4816.48384,N,01139.86787,E,1,12,0.65,473.6,M,46.2,M,,*46
$GNGSA,A,3,32,10,01,21,08,27,22,23,14,,,,1.15,0.65,0.95*1D
$GNVTG,,T,,M,0.138,N,0.256,K,A*36
$SMGPS,-0.0 m,+0.00 m/s,7.58 VRx,0.000 km,4 m,175.8 °,1:-- (  0.0 km/h)*F5
$SMGPS2,-0.21 X,+0.12 Y,+0.93 Z,0 ENL,0 us*47
$GNRMC,160636.30,A,4816.48382,N,01139.86786,E,0.05,,080522,,,A*52
$GNGGA,160636.30,4816.48382,N,01139.86786,E,1,12,0.65,473.6,M,46.2,M,,*40
$GNGSA,A,3,32,10,01,21,08,27,22,23,14,,,,1.15,0.65,0.95*1D
$GNVTG,,T,,M,0.045,N,0.084,K,A*30
$SMGPS,0.0 m,+0.00 m/s,7.61 VRx,0.000 km,4 m,175.8 °,1:-- (  0.0 km/h)*D2
$SMGPS2,-0.21 X,+0.12 Y,+0.94 Z,0 ENL,0 us*40
$GNRMC,160636.40,A,4816.48381,N,01139.86784,E,0.14,,080522,,,A*54
$GNGGA,160636.40,4816.48381,N,01139.86784,E,1,12,0.65,473.6,M,46.2,M,,*46
$GNGSA,A,3,32,10,01,21,08,27,22,23,14,,,,1.15,0.65,0.95*1D
$GNVTG,,T,,M,0.137,N,0.253,K,A*3C
$SMGPS,-0.0 m,+0.00 m/s,7.59 VRx,0.000 km,4 m,175.8 °,1:-- (  0.0 km/h)*F4
$SMGPS2,-0.21 X,+0.12 Y,+0.94 Z,0 ENL,0 us*40
$GNRMC,160636.50,A,4816.48380,N,01139.86783,E,0.10,,080522,,,A*57
$GNGGA,160636.50,4816.48380,N,01139.86783,E,1,12,0.65,473.6,M,46.2,M,,*41
$GNGSA,A,3,32,10,01,21,08,27,22,23,14,,,,1.15,0.65,0.95*1D
$GNVTG,,T,,M,0.099,N,0.183,K,A*37
$SMGPS,0.0 m,+0.00 m/s,7.62 VRx,0.000 km,4 m,177.9 °,1:-- (  0.0 km/h)*D2
$SMGPS2,-0.22 X,+0.12 Y,+0.94 Z,0 ENL,0 us*43
$GNRMC,160636.60,A,4816.48380,N,01139.86782,E,0.16,,080522,,,A*53
$GNGGA,160636.60,4816.48380,N,01139.86782,E,1,12,0.65,473.6,M,46.2,M,,*43
$GNGSA,A,3,32,10,01,21,08,27,22,23,14,,,,1.15,0.65,0.95*1D
$GNVTG,,T,,M,0.159,N,0.295,K,A*3E
$SMGPS,0.0 m,-0.00 m/s,7.59 VRx,0.000 km,4 m,177.9 °,1:-- (  0.0 km/h)*DC
$SMGPS2,-0.22 X,+0.11 Y,+0.94 Z,0 ENL,0 us*40
$GNRMC,160636.70,A,4816.48380,N,01139.86781,E,0.06,,080522,,,A*50
$GNGGA,160636.70,4816.48380,N,01139.86781,E,1,12,0.65,473.6,M,46.2,M,,*41
$GNGSA,A,3,32,10,01,21,08,27,22,23,14,,,,1.15,0.65,0.95*1D
$GNVTG,,T,,M,0.063,N,0.117,K,A*3F
$SMGPS,0.0 m,-0.00 m/s,7.61 VRx,0.000 km,4 m,177.9 °,1:-- (  0.0 km/h)*D7
$SMGPS2,-0.21 X,+0.12 Y,+0.94 Z,0 ENL,0 us*40
$GNRMC,160636.80,A,4816.48379,N,01139.86780,E,0.05,,080522,,,A*5B
$GNGGA,160636.80,4816.48379,N,01139.86780,E,1,12,0.65,473.6,M,46.2,M,,*49
$GNGSA,A,3,32,10,01,21,08,27,22,23,14,,,,1.15,0.65,0.95*1D
$GNVTG,,T,,M,0.051,N,0.095,K,A*35
$SMGPS,0.0 m,+0.00 m/s,7.58 VRx,0.000 km,4 m,177.9 °,1:-- (  0.0 km/h)*DB
$SMGPS2,-0.21 X,+0.11 Y,+0.94 Z,1 ENL,0 us*42
$GNRMC,160636.90,A,4816.48378,N,01139.86779,E,0.07,,080522,,,A*5F
$GNGGA,160636.90,4816.48378,N,01139.86779,E,1,12,0.65,473.6,M,46.2,M,,*4F
$GNGSA,A,3,32,10,01,21,08,27,22,23,14,,,,1.15,0.65,0.95*1D
$GNVTG,,T,,M,0.069,N,0.128,K,A*39
$SMGPS,0.0 m,+0.01 m/s,7.61 VRx,0.000 km,4 m,177.9 °,1:-- (  0.0 km/h)*D0
$SMGPS2,-0.21 X,+0.11 Y,+0.93 Z,35 ENL,0 us*72
$GNRMC,160637.00,A,4816.48376,N,01139.86778,E,0.14,,080522,,,A*5A
$GNGGA,160637.00,4816.48376,N,01139.86778,E,1,12,0.65,473.6,M,46.2,M,,*48
$GNGSA,A,3,32,10,01,21,08,27,22,23,14,,,,1.15,0.65,0.95*1D
$GNVTG,,T,,M,0.140,N,0.260,K,A*3C
$SMGPS,-0.0 m,+0.00 m/s,7.60 VRx,0.000 km,4 m,177.9 °,1:-- (  0.0 km/h)*FD
$SMGPS2,-0.21 X,+0.12 Y,+0.94 Z,1 ENL,0 us*41
$GNRMC,160637.10,A,4816.48376,N,01139.86777,E,0.10,,080522,,,A*50
$GNGGA,160637.10,4816.48376,N,01139.86777,E,1,12,0.65,473.6,M,46.2,M,,*46
$GNGSA,A,3,32,10,01,21,08,27,22,23,14,,,,1.15,0.65,0.95*1D
$GNVTG,,T,,M,0.102,N,0.189,K,A*3E
$SMGPS,-0.0 m,+0.01 m/s,7.59 VRx,0.000 km,4 m,177.9 °,1:-- (  0.0 km/h)*F6
$SMGPS2,-0.22 X,+0.12 Y,+0.94 Z,171 ENL,0 us*44
$GNRMC,160637.20,A,4816.48376,N,01139.86777,E,0.16,,080522,,,A*55
$GNGGA,160637.20,4816.48376,N,01139.86777,E,1,12,0.65,473.6,M,46.2,M,,*45
$GNGSA,A,3,32,10,01,21,08,27,22,23,14,,,,1.15,0.65,0.95*1D
$GNVTG,,T,,M,0.164,N,0.304,K,A*39
$SMGPS,0.0 m,+0.00 m/s,7.59 VRx,0.000 km,4 m,177.9 °,1:-- (  0.0 km/h)*DA
$SMGPS2,-0.22 X,+0.11 Y,+0.94 Z,35 ENL,0 us*76
$GNRMC,160637.30,A,4816.48375,N,01139.86776,E,0.10,,080522,,,A*50
$GNGGA,160637.30,4816.48375,N,01139.86776,E,1,12,0.65,473.6,M,46.2,M,,*46
$GNGSA,A,3,32,10,01,21,08,27,22,23,14,,,,1.15,0.65,0.95*1D
$GNVTG,,T,,M,0.097,N,0.180,K,A*3A
$SMGPS,0.0 m,+0.00 m/s,7.59 VRx,0.000 km,4 m,177.9 °,1:-- (  0.0 km/h)*DA
$SMGPS2,-0.22 X,+0.12 Y,+0.94 Z,22 ENL,0 us*73
$GNRMC,160637.40,A,4816.48376,N,01139.86777,E,0.18,,080522,,,A*5D
$GNGGA,160637.40,4816.48376,N,01139.86777,E,1,12,0.65,473.6,M,46.2,M,,*43
$GNGSA,A,3,32,10,01,21,08,27,22,23,14,,,,1.15,0.65,0.95*1D
$GNVTG,,T,,M,0.183,N,0.338,K,A*3F
$SMGPS,-0.0 m,-0.00 m/s,7.59 VRx,0.000 km,4 m,177.9 °,1:-- (  0.0 km/h)*F1
$SMGPS2,-0.21 X,+0.12 Y,+0.93 Z,9 ENL,0 us*4E
$GNRMC,160637.50,A,4816.48376,N,01139.86777,E,0.10,,080522,,,A*54
$GNGGA,160637.50,4816.48376,N,01139.86777,E,1,12,0.65,473.6,M,46.2,M,,*42
$GNGSA,A,3,32,10,01,21,08,27,22,23,14,,,,1.15,0.65,0.95*1D
$GNVTG,,T,,M,0.101,N,0.187,K,A*33
$SMGPS,-0.0 m,-0.00 m/s,7.61 VRx,0.000 km,4 m,177.9 °,1:-- (  0.0 km/h)*FA
$SMGPS2,-0.22 X,+0.12 Y,+0.94 Z,1 ENL,0 us*42
$GNRMC,160637.60,A,4816.48376,N,01139.86778,E,0.03,,080522,,,A*5A
$GNGGA,160637.60,4816.48376,N,01139.86778,E,1,12,0.65,473.6,M,46.2,M,,*4E
$GNGSA,A,3,32,10,01,21,08,27,22,23,14,,,,1.15,0.65,0.95*1D
$GNVTG,,T,,M,0.033,N,0.061,K,A*3A
$SMGPS,-0.0 m,-0.01 m/s,7.58 VRx,0.000 km,4 m,177.9 °,1:-- (  0.0 km/h)*F1
$SMGPS2,-0.21 X,+0.12 Y,+0.94 Z,0 ENL,0 us*40
$GNRMC,160637.70,A,4816.48376,N,01139.86778,E,0.05,,080522,,,A*5D
$GNGGA,160637.70,4816.48376,N,01139.86778,E,1,12,0.65,473.6,M,46.2,M,,*4F
$GNGSA,A,3,32,10,01,21,08,27,22,23,14,,,,1.15,0.65,0.95*1D
$GNVTG,,T,,M,0.051,N,0.094,K,A*34
$SMGPS,-0.0 m,-0.01 m/s,7.62 VRx,0.000 km,4 m,177.9 °,1:-- (  0.0 km/h)*F8
$SMGPS2,-0.21 X,+0.12 Y,+0.94 Z,0 ENL,0 us*40
$GNRMC,160637.80,A,4816.48377,N,01139.86779,E,0.02,,080522,,,A*55
$GNGGA,160637.80,4816.48377,N,01139.86779,E,1,12,0.65,473.6,M,46.2,M,,*40
$GNGSA,A,3,32,10,01,21,08,27,22,23,14,,,,1.15,0.65,0.95*1D
$GNVTG,,T,,M,0.015,N,0.028,K,A*33
$SMGPS,-0.0 m,-0.02 m/s,7.59 VRx,0.000 km,4 m,177.9 °,1:-- (  0.0 km/h)*F3
$SMGPS2,-0.22 X,+0.12 Y,+0.94 Z,0 ENL,0 us*43
$GNRMC,160637.90,A,4816.48378,N,01139.86779,E,0.19,,080522,,,A*51
$GNGGA,160637.90,4816.48378,N,01139.86779,E,1,12,0.65,473.6,M,46.2,M,,*4E
$GNGSA,A,3,32,10,01,21,08,27,22,23,14,,,,1.15,0.65,0.95*1D
$GNVTG,,T,,M,0.187,N,0.346,K,A*32
$SMGPS,-0.0 m,-0.01 m/s,7.63 VRx,0.000 km,4 m,177.9 °,1:-- (  0.0 km/h)*F9
$SMGPS2,-0.22 X,+0.12 Y,+0.93 Z,0 ENL,0 us*44
$GNRMC,160638.00,A,4816.48379,N,01139.86780,E,0.03,,080522,,,A*5B
$GNGGA,160638.00,4816.48379,N,01139.86780,E,1,12,0.65,473.6,M,46.2,M,,*4F
$GNGSA,A,3,32,10,01,21,08,27,22,23,14,,,,1.15,0.65,0.95*1D
$GNVTG,,T,,M,0.020,N,0.037,K,A*3B
$SMGPS,-0.0 m,-0.01 m/s,7.59 VRx,0.000 km,4 m,177.9 °,1:-- (  0.0 km/h)*F0
$SMGPS2,-0.21 X,+0.11 Y,+0.94 Z,0 ENL,0 us*43
$GNRMC,160638.10,A,4816.48379,N,01139.86781,E,0.05,,080522,,,A*5D
$GNGGA,160638.10,4816.48379,N,01139.86781,E,1,12,0.65,473.6,M,46.2,M,,*4F
$GNGSA,A,3,32,10,01,21,08,27,22,23,14,,,,1.15,0.65,0.95*1D
$GNVTG,,T,,M,0.048,N,0.088,K,A*31
$SMGPS,-0.0 m,-0.00 m/s,7.61 VRx,0.000 km,4 m,177.9 °,1:-- (  0.0 km/h)*FA
$SMGPS2,-0.22 X,+0.12 Y,+0.93 Z,0 ENL,0 us*44
$GNRMC,160638.20,A,4816.48379,N,01139.86781,E,0.12,,080522,,,A*58
$GNGGA,160638.20,4816.48379,N,01139.86781,E,1,12,0.65,473.6,M,46.2,M,,*4C
$GNGSA,A,3,32,10,01,21,08,27,22,23,14,,,,1.15,0.65,0.95*1D
$GNVTG,,T,,M,0.122,N,0.226,K,A*3A
$SMGPS,0.0 m,+0.00 m/s,7.59 VRx,0.000 km,4 m,177.9 °,1:-- (  0.0 km/h)*DA
$SMGPS2,-0.21 X,+0.12 Y,+0.94 Z,0 ENL,0 us*40
$GNRMC,160638.30,A,4816.48379,N,01139.86782,E,0.08,,080522,,,A*51
$GNGGA,160638.30,4816.48379,N,01139.86782,E,1,12,0.65,473.6,M,46.2,M,,*4E
$GNGSA,A,3,32,10,01,21,08,27,22,23,14,,,,1.15,0.65,0.95*1D
$GNVTG,,T,,M,0.078,N,0.144,K,A*33
$SMGPS,0.0 m,+0.01 m/s,7.60 VRx,0.000 km,4 m,177.9 °,1:-- (  0.0 km/h)*D1
$SMGPS2,-0.21 X,+0.12 Y,+0.93 Z,0 ENL,0 us*47
$GNRMC,160638.40,A,4816.48380,N,01139.86783,E,0.06,,080522,,,A*5F
$GNGGA,160638.40,4816.48380,N,01139.86783,E,1,12,0.65,473.6,M,46.2,M,,*4E
$GNGSA,A,3,32,10,01,21,08,27,22,23,14,,,,1.15,0.65,0.95*1D
$GNVTG,,T,,M,0.059,N,0.109,K,A*39
$SMGPS,-0.0 m,+0.01 m/s,7.59 VRx,0.000 km,4 m,177.9 °,1:-- (  0.0 km/h)*F6
$SMGPS2,-0.21 X,+0.12 Y,+0.93 Z,0 ENL,0 us*47
$GNRMC,160638.50,A,4816.48380,N,01139.86784,E,0.11,,080522,,,A*5F
$GNGGA,160638.50,4816.48380,N,01139.86784,E,1,12,0.65,473.6,M,46.2,M,,*48
$GNGSA,A,3,32,10,01,21,08,27,22,23,14,,,,1.15,0.65,0.95*1D
$GNVTG,,T,,M,0.109,N,0.201,K,A*36
$SMGPS,-0.0 m,+0.02 m/s,7.61 VRx,0.000 km,4 m,177.9 °,1:-- (  0.0 km/h)*FE
$SMGPS2,-0.21 X,+0.12 Y,+0.93 Z,0 ENL,0 us*47
$GNRMC,160638.60,A,4816.48381,N,01139.86785,E,0.06,,080522,,,A*5A
$GNGGA,160638.60,4816.48381,N,01139.86785,E,1,12,0.65,473.6,M,46.2,M,,*4B
$GNGSA,A,3,32,10,01,21,08,27,22,23,14,,,,1.15,0.65,0.95*1D
$GNVTG,,T,,M,0.055,N,0.102,K,A*3E
$SMGPS,-0.0 m,+0.02 m/s,7.59 VRx,0.000 km,4 m,177.9 °,1:-- (  0.0 km/h)*F5
$SMGPS2,-0.21 X,+0.12 Y,+0.94 Z,0 ENL,0 us*40
$GNRMC,160638.70,A,4816.48383,N,01139.86786,E,0.40,,080522,,,A*58
$GNGGA,160638.70,4816.48383,N,01139.86786,E,1,12,0.65,473.6,M,46.2,M,,*4B
$GNGSA,A,3,32,10,01,21,08,27,22,23,14,,,,1.15,0.65,0.95*1D
$GNVTG,,T,,M,0.396,N,0.734,K,A*31
$SMGPS,0.0 m,+0.01 m/s,7.61 VRx,0.000 km,4 m,177.9 °,1:-- (  0.0 km/h)*D0
$SMGPS2,-0.22 X,+0.12 Y,+0.94 Z,0 ENL,0 us*43
$GNRMC,160638.80,A,4816.48385,N,01139.86788,E,0.15,,080522,,,A*5F
$GNGGA,160638.80,4816.48385,N,01139.86788,E,1,12,0.65,473.6,M,46.2,M,,*4C
$GNGSA,A,3,32,10,01,21,08,27,22,23,14,,,,1.15,0.65,0.95*1D
$GNVTG,,T,,M,0.149,N,0.276,K,A*32
$SMGPS,-0.0 m,+0.01 m/s,7.59 VRx,0.000 km,4 m,175.8 °,1:-- (  0.0 km/h)*F5
$SMGPS2,-0.21 X,+0.12 Y,+0.93 Z,0 ENL,0 us*47
$GNRMC,160638.90,A,4816.48386,N,01139.86788,E,0.01,,080522,,,A*58
$GNGGA,160638.90,4816.48386,N,01139.86788,E,1,12,0.65,473.6,M,46.2,M,,*4E
$GNGSA,A,3,32,10,01,21,08,27,22,23,14,,,,1.15,0.65,0.95*1D
$GNVTG,,T,,M,0.011,N,0.020,K,A*3F
$SMGPS,-0.0 m,+0.00 m/s,7.61 VRx,0.000 km,4 m,175.8 °,1:-- (  0.0 km/h)*FF
$SMGPS2,-0.22 X,+0.12 Y,+0.94 Z,0 ENL,0 us*43
$GNRMC,160639.00,A,4816.48387,N,01139.86789,E,0.05,,080522,,,A*54
$GNGGA,160639.00,4816.48387,N,01139.86789,E,1,12,0.65,473.7,M,46.2,M,,*47
$GNGSA,A,3,32,10,01,21,08,27,22,23,14,,,,1.15,0.65,0.95*1D
$GNVTG,,T,,M,0.048,N,0.088,K,A*31
$SMGPS,0.1 m,+0.00 m/s,7.59 VRx,0.000 km,4 m,175.8 °,1:-- (  0.0 km/h)*D8
$SMGPS2,-0.22 X,+0.11 Y,+0.93 Z,0 ENL,0 us*47
$GNRMC,160639.10,A,4816.48387,N,01139.86790,E,0.13,,080522,,,A*5A
$GNGGA,160639.10,4816.48387,N,01139.86790,E,1,12,0.65,473.6,M,46.2,M,,*4F
$GNGSA,A,3,32,10,01,21,08,27,22,23,14,,,,1.15,0.65,0.95*1D
$GNVTG,,T,,M,0.129,N,0.238,K,A*3E
$SMGPS,-0.0 m,-0.00 m/s,7.62 VRx,0.000 km,4 m,175.8 °,1:-- (  0.0 km/h)*FA
$SMGPS2,-0.21 X,+0.12 Y,+0.94 Z,0 ENL,0 us*40
$GNRMC,160639.20,A,4816.48387,N,01139.86791,E,0.10,,080522,,,A*5B
$GNGGA,160639.20,4816.48387,N,01139.86791,E,1,12,0.65,473.6,M,46.2,M,,*4D
$GNGSA,A,3,32,10,01,21,08,27,22,23,14,,,,1.15,0.65,0.95*1D
$GNVTG,,T,,M,0.097,N,0.180,K,A*3A
$SMGPS,0.0 m,-0.00 m/s,7.59 VRx,0.000 km,4 m,175.8 °,1:-- (  0.0 km/h)*DF
$SMGPS2,-0.22 X,+0.12 Y,+0.94 Z,0 ENL,0 us*43
$GNRMC,160639.30,A,4816.48388,N,01139.86792,E,0.08,,080522,,,A*5F
$GNGGA,160639.30,4816.48388,N,01139.86792,E,1,12,0.65,473.6,M,46.2,M,,*40
$GNGSA,A,3,32,10,01,21,08,27,22,23,14,,,,1.15,0.65,0.95*1D
$GNVTG,,T,,M,0.077,N,0.143,K,A*3B
$SMGPS,0.0 m,-0.00 m/s,7.61 VRx,0.000 km,4 m,175.8 °,1:-- (  0.0 km/h)*D4
$SMGPS2,-0.22 X,+0.12 Y,+0.94 Z,0 ENL,0 us*43
$GNRMC,160639.40,A,4816.48388,N,01139.86792,E,0.07,,080522,,,A*57
$GNGGA,160639.40,4816.48388,N,01139.86792,E,1,12,0.65,473.6,M,46.2,M,,*47
$GNGSA,A,3,32,10,01,21,08,27,22,23,14,,,,1.15,0.65,0.95*1D
$GNVTG,,T,,M,0.065,N,0.120,K,A*3D
$SMGPS,-0.0 m,-0.01 m/s,7.60 VRx,0.000 km,4 m,175.8 °,1:-- (  0.0 km/h)*F9
$SMGPS2,-0.22 X,+0.12 Y,+0.93 Z,0 ENL,0 us*44
$GNRMC,160639.50,A,4816.48389,N,01139.86793,E,0.03,,080522,,,A*52
$GNGGA,160639.50,4816.48389,N,01139.86793,E,1,12,0.65,473.6,M,46.2,M,,*46
$GNGSA,A,3,32,10,01,21,08,27,22,23,14,,,,1.15,0.65,0.95*1D
$GNVTG,,T,,M,0.026,N,0.048,K,A*35
$SMGPS,0.0 m,-0.01 m/s,7.61 VRx,0.000 km,4 m,175.8 °,1:-- (  0.0 km/h)*D5
$SMGPS2,-0.22 X,+0.11 Y,+0.94 Z,0 ENL,0 us*40
$GNRMC,160639.60,A,4816.48389,N,01139.86793,E,0.08,,080522,,,A*5A
$GNGGA,160639.60,4816.48389,N,01139.86793,E,1,12,0.65,473.6,M,46.2,M,,*45
$GNGSA,A,3,32,10,01,21,08,27,22,23,14,,,,1.15,0.65,0.95*1D
$GNVTG,,T,,M,0.079,N,0.146,K,A*30
$SMGPS,0.0 m,-0.01 m/s,7.59 VRx,0.000 km,4 m,175.8 °,1:-- (  0.0 km/h)*DE
$SMGPS2,-0.22 X,+0.12 Y,+0.94 Z,0 ENL,0 us*43
$GNRMC,160639.70,A,4816.48389,N,01139.86794,E,0.07,,080522,,,A*53
$GNGGA,160639.70,4816.48389,N,01139.86794,E,1,12,0.65,473.6,M,46.2,M,,*43
$GNGSA,A,3,32,10,01,21,08,27,22,23,14,,,,1.15,0.65,0.95*1D
$GNVTG,,T,,M,0.072,N,0.134,K,A*3E
$SMGPS,-0.0 m,+0.00 m/s,7.61 VRx,0.000 km,4 m,175.8 °,1:-- (  0.0 km/h)*FF
$SMGPS2,-0.22 X,+0.12 Y,+0.93 Z,0 ENL,0 us*44
$GNRMC,160639.80,A,4816.48389,N,01139.86794,E,0.21,,080522,,,A*58
$GNGGA,160639.80,4816.48389,N,01139.86794,E,1,12,0.65,473.6,M,46.2,M,,*4C
$GNGSA,A,3,32,10,01,21,08,27,22,23,14,,,,1.15,0.65,0.95*1D
$GNVTG,,T,,M,0.210,N,0.388,K,A*3D
$SMGPS,0.0 m,+0.00 m/s,7.60 VRx,0.000 km,4 m,175.8 °,1:-- (  0.0 km/h)*D3
$SMGPS2,-0.21 X,+0.12 Y,+0.93 Z,0 ENL,0 us*47
$GNRMC,160639.90,A,4816.48389,N,01139.86795,E,0.08,,080522,,,A*53
$GNGGA,160639.90,4816.48389,N,01139.86795,E,1,12,0.65,473.6,M,46.2,M,,*4C
$GNGSA,A,3,32,10,01,21,08,27,22,23,14,,,,1.15,0.65,0.95*1D
$GNVTG,,T,,M,0.078,N,0.145,K,A*32
$SMGPS,0.0 m,+0.00 m/s,7.62 VRx,0.000 km,4 m,175.8 °,1:-- (  0.0 km/h)*D1
$SMGPS2,-0.21 X,+0.12 Y,+0.94 Z,0 ENL,0 us*40
$GNRMC,160640.00,A,4816.48389,N,01139.86795,E,0.11,,080522,,,A*5C
$GNGGA,160640.00,4816.48389,N,01139.86795,E,1,12,0.65,473.6,M,46.2,M,,*4B
$GNGSA,A,3,32,10,01,21,08,27,22,23,14,,,,1.15,0.65,0.95*1D
$GNVTG,,T,,M,0.104,N,0.192,K,A*32
$SMGPS,0.0 m,+0.00 m/s,7.58 VRx,0.000 km,4 m,175.8 °,1:-- (  0.0 km/h)*D8
$SMGPS2,-0.21 X,+0.12 Y,+0.94 Z,0 ENL,0 us*40
$GNRMC,160640.10,A,4816.48389,N,01139.86795,E,0.22,,080522,,,A*5D
$GNGGA,160640.10,4816.48389,N,01139.86795,E,1,12,0.65,473.6,M,46.2,M,,*4A
$GNGSA,A,3,32,10,01,21,08,27,22,23,14,,,,1.15,0.65,0.95*1D
$GNVTG,,T,,M,0.212,N,0.392,K,A*34
$SMGPS,0.0 m,+0.01 m/s,7.62 VRx,0.000 km,4 m,175.8 °,1:-- (  0.0 km/h)*D0
$SMGPS2,-0.22 X,+0.12 Y,+0.94 Z,0 ENL,0 us*43
$GNRMC,160640.20,A,4816.48388,N,01139.86795,E,0.16,,080522,,,A*58
$GNGGA,160640.20,4816.48388,N,01139.86795,E,1,12,0.65,473.6,M,46.2,M,,*48
$GNGSA,A,3,32,10,01,21,08,27,22,23,14,,,,1.15,0.65,0.95*1D
$GNVTG,,T,,M,0.160,N,0.296,K,A*37
$SMGPS,-0.0 m,+0.01 m/s,7.58 VRx,0.000 km,4 m,175.8 °,1:-- (  0.0 km/h)*F4
$SMGPS2,-0.22 X,+0.12 Y,+0.93 Z,0 ENL,0 us*44
$GNRMC,160640.30,A,4816.48388,N,01139.86795,E,0.05,,080522,,,A*5B
$GNGGA,160640.30,4816.48388,N,01139.86795,E,1,12,0.65,473.6,M,46.2,M,,*49
$GNGSA,A,3,32,10,01,21,08,27,22,23,14,,,,1.15,0.65,0.95*1D
$GNVTG,,T,,M,0.036,N,0.067,K,A*39
$SMGPS,0.0 m,+0.01 m/s,7.62 VRx,0.000 km,4 m,175.8 °,1:-- (  0.0 km/h)*D0
$SMGPS2,-0.22 X,+0.12 Y,+0.94 Z,0 ENL,0 us*43
$GNRMC,160640.40,A,4816.48388,N,01139.86795,E,0.05,,080522,,,A*5C
$GNGGA,160640.40,4816.48388,N,01139.86795,E,1,12,0.65,473.6,M,46.2,M,,*4E
$GNGSA,A,3,32,10,01,21,08,27,22,23,14,,,,1.15,0.65,0.95*1D
$GNVTG,,T,,M,0.035,N,0.065,K,A*38
$SMGPS,0.0 m,-0.00 m/s,7.58 VRx,0.000 km,4 m,175.8 °,1:-- (  0.0 km/h)*DE
$SMGPS2,-0.21 X,+0.12 Y,+0.94 Z,0 ENL,0 us*40
$GNRMC,160640.50,A,4816.48388,N,01139.86795,E,0.14,,080522,,,A*5D
$GNGGA,160640.50,4816.48388,N,01139.86795,E,1,12,0.65,473.6,M,46.2,M,,*4F
$GNGSA,A,3,32,10,01,21,08,27,22,23,14,,,,1.15,0.65,0.95*1D
$GNVTG,,T,,M,0.134,N,0.248,K,A*35
$SMGPS,0.0 m,-0.01 m/s,7.62 VRx,0.000 km,4 m,175.8 °,1:-- (  0.0 km/h)*D6
$SMGPS2,-0.22 X,+0.12 Y,+0.93 Z,0 ENL,0 us*44
$GNRMC,160640.60,A,4816.48388,N,01139.86795,E,0.04,,080522,,,A*5F
$GNGGA,160640.60,4816.48388,N,01139.86795,E,1,12,0.65,473.6,M,46.2,M,,*4C
$GNGSA,A,3,32,10,01,21,08,27,22,23,14,,,,1.15,0.65,0.95*1D
$GNVTG,,T,,M,0.039,N,0.072,K,A*32
$SMGPS,-0.0 m,-0.01 m/s,7.59 VRx,0.000 km,4 m,175.8 °,1:-- (  0.0 km/h)*F3
$SMGPS2,-0.22 X,+0.12 Y,+0.93 Z,0 ENL,0 us*44
$GNRMC,160640.70,A,4816.48388,N,01139.86795,E,0.08,,080522,,,A*52
$GNGGA,160640.70,4816.48388,N,01139.86795,E,1,12,0.65,473.6,M,46.2,M,,*4D
$GNGSA,A,3,32,10,01,21,08,27,22,23,14,,,,1.15,0.65,0.95*1D
$GNVTG,,T,,M,0.076,N,0.140,K,A*39
$SMGPS,-0.0 m,-0.01 m/s,7.61 VRx,0.000 km,4 m,175.8 °,1:-- (  0.0 km/h)*F8
$SMGPS2,-0.22 X,+0.12 Y,+0.93 Z,0 ENL,0 us*44
$GNRMC,160640.80,A,4816.48387,N,01139.86795,E,0.14,,080522,,,A*5F
$GNGGA,160640.80,4816.48387,N,01139.86795,E,1,12,0.65,473.6,M,46.2,M,,*4D
$GNGSA,A,3,32,10,01,21,08,27,22,23,14,,,,1.15,0.65,0.95*1D
$GNVTG,,T,,M,0.139,N,0.258,K,A*39
$SMGPS,-0.0 m,-0.01 m/s,7.59 VRx,0.000 km,4 m,175.8 °,1:-- (  0.0 km/h)*F3
$SMGPS2,-0.22 X,+0.12 Y,+0.93 Z,1 ENL,0 us*45
$GNRMC,160640.90,A,4816.48387,N,01139.86796,E,0.03,,080522,,,A*5B
$GNGGA,160640.90,4816.48387,N,01139.86796,E,1,12,0.65,473.6,M,46.2,M,,*4F
$GNGSA,A,3,32,10,01,21,08,27,22,23,14,,,,1.15,0.65,0.95*1D
$GNVTG,,T,,M,0.025,N,0.047,K,A*39
$SMGPS,0.0 m,-0.01 m/s,7.61 VRx,0.000 km,4 m,175.8 °,1:-- (  0.0 km/h)*D5
$SMGPS2,-0.21 X,+0.12 Y,+0.94 Z,1 ENL,0 us*41
$GNRMC,160641.00,A,4816.48386,N,01139.86796,E,0.09,,080522,,,A*58
$GNGGA,160641.00,4816.48386,N,01139.86796,E,1,12,0.65,473.6,M,46.2,M,,*46
$GNGSA,A,3,32,10,01,21,08,27,22,23,14,,,,1.15,0.65,0.95*1D
$GNVTG,,T,,M,0.090,N,0.167,K,A*34
$SMGPS,-0.0 m,-0.01 m/s,7.59 VRx,0.000 km,4 m,175.8 °,1:-- (  0.0 km/h)*F3
$SMGPS2,-0.22 X,+0.12 Y,+0.93 Z,0 ENL,0 us*44
$GNRMC,160641.10,A,4816.48385,N,01139.86796,E,0.16,,080522,,,A*54
$GNGGA,160641.10,4816.48385,N,01139.86796,E,1,12,0.65,473.6,M,46.2,M,,*44
$GNGSA,A,3,32,10,01,21,08,27,22,23,14,,,,1.15,0.65,0.95*1D
$GNVTG,,T,,M,0.164,N,0.304,K,A*39
$SMGPS,0.0 m,-0.01 m/s,7.61 VRx,0.000 km,4 m,175.8 °,1:-- (  0.0 km/h)*D5
$SMGPS2,-0.21 X,+0.12 Y,+0.93 Z,0 ENL,0 us*47
$GNRMC,160641.20,A,4816.48385,N,01139.86796,E,0.05,,080522,,,A*55
$GNGGA,160641.20,4816.48385,N,01139.86796,E,1,12,0.65,473.6,M,46.2,M,,*47
$GNGSA,A,3,32,10,01,21,08,27,22,23,14,,,,1.15,0.65,0.95*1D
$GNVTG,,T,,M,0.049,N,0.090,K,A*39
$SMGPS,-0.0 m,-0.00 m/s,7.59 VRx,0.000 km,4 m,175.8 °,1:-- (  0.0 km/h)*F2
$SMGPS2,-0.21 X,+0.12 Y,+0.93 Z,0 ENL,0 us*47
$GNRMC,160641.30,A,4816.48383,N,01139.86796,E,0.04,,080522,,,A*53
$GNGGA,160641.30,4816.48383,N,01139.86796,E,1,12,0.65,473.6,M,46.2,M,,*40
$GNGSA,A,3,32,10,01,21,08,27,22,23,14,,,,1.15,0.65,0.95*1D
$GNVTG,,T,,M,0.036,N,0.066,K,A*38
$SMGPS,0.0 m,+0.00 m/s,7.61 VRx,0.000 km,4 m,175.8 °,1:-- (  0.0 km/h)*D2
$SMGPS2,-0.22 X,+0.12 Y,+0.94 Z,0 ENL,0 us*43
$GNRMC,160641.40,A,4816.48382,N,01139.86796,E,0.10,,080522,,,A*50
$GNGGA,160641.40,4816.48382,N,01139.86796,E,1,12,0.65,473.6,M,46.2,M,,*46
$GNGSA,A,3,32,10,01,21,08,27,22,23,14,,,,1.15,0.65,0.95*1D
$GNVTG,,T,,M,0.097,N,0.180,K,A*3A
$SMGPS,0.0 m,+0.00 m/s,7.59 VRx,0.000 km,4 m,175.8 °,1:-- (  0.0 km/h)*D9
$SMGPS2,-0.22 X,+0.12 Y,+0.93 Z,0 ENL,0 us*44
$GNRMC,160641.50,A,4816.48382,N,01139.86796,E,0.09,,080522,,,A*59
$GNGGA,160641.50,4816.48382,N,01139.86796,E,1,12,0.65,473.6,M,46.2,M,,*47
$GNGSA,A,3,32,10,01,21,08,27,22,23,14,,,,1.15,0.65,0.95*1D
$GNVTG,,T,,M,0.092,N,0.170,K,A*30
$SMGPS,-0.0 m,+0.01 m/s,7.62 VRx,0.000 km,4 m,175.8 °,1:-- (  0.0 km/h)*FD
$SMGPS2,-0.22 X,+0.12 Y,+0.94 Z,0 ENL,0 us*43
$GNRMC,160641.60,A,4816.48381,N,01139.86796,E,0.06,,080522,,,A*56
$GNGGA,160641.60,4816.48381,N,01139.86796,E,1,12,0.65,473.6,M,46.2,M,,*47
$GNGSA,A,3,32,10,01,21,08,27,22,23,14,,,,1.15,0.65,0.95*1D
$GNVTG,,T,,M,0.061,N,0.114,K,A*3E
$SMGPS,0.0 m,+0.01 m/s,7.58 VRx,0.000 km,4 m,175.8 °,1:-- (  0.0 km/h)*D9
$SMGPS2,-0.21 X,+0.12 Y,+0.93 Z,0 ENL,0 us*47
$GNRMC,160641.70,A,4816.48380,N,01139.86795,E,0.28,,080522,,,A*59
$GNGGA,160641.70,4816.48380,N,01139.86795,E,1,12,0.65,473.6,M,46.2,M,,*44
$GNGSA,A,3,32,10,01,21,08,27,22,23,14,,,,1.15,0.65,0.95*1D
$GNVTG,,T,,M,0.284,N,0.527,K,A*33
$SMGPS,-0.0 m,+0.00 m/s,7.62 VRx,0.000 km,4 m,175.8 °,1:-- (  0.0 km/h)*FC
$SMGPS2,-0.21 X,+0.12 Y,+0.94 Z,0 ENL,0 us*40
$GNRMC,160641.80,A,4816.48380,N,01139.86795,E,0.20,,080522,,,A*5E
$GNGGA,160641.80,4816.48380,N,01139.86795,E,1,12,0.65,473.6,M,46.2,M,,*4B
$GNGSA,A,3,32,10,01,21,08,27,22,23,14,,,,1.15,0.65,0.95*1D
$GNVTG,,T,,M,0.204,N,0.377,K,A*38
$SMGPS,-0.0 m,+0.00 m/s,7.60 VRx,0.000 km,4 m,175.8 °,1:-- (  0.0 km/h)*FE
$SMGPS2,-0.22 X,+0.12 Y,+0.93 Z,0 ENL,0 us*44
$GNRMC,160641.90,A,4816.48378,N,01139.86795,E,0.02,,080522,,,A*58
$GNGGA,160641.90,4816.48378,N,01139.86795,E,1,12,0.65,473.6,M,46.2,M,,*4D
$GNGSA,A,3,32,10,01,21,08,27,22,23,14,,,,1.15,0.65,0.95*1D
$GNVTG,,T,,M,0.014,N,0.027,K,A*3D
$SMGPS,-0.0 m,+0.00 m/s,7.61 VRx,0.000 km,4 m,175.8 °,1:-- (  0.0 km/h)*FF
$SMGPS2,-0.21 X,+0.12 Y,+0.93 Z,0 ENL,0 us*47
$GNRMC,160642.00,A,4816.48378,N,01139.86795,E,0.11,,080522,,,A*50
$GNGGA,160642.00,4816.48378,N,01139.86795,E,1,12,0.65,473.6,M,46.2,M,,*47
$GNGSA,A,3,32,10,01,21,08,27,22,23,14,,,,1.15,0.65,0.95*1D
$GNVTG,,T,,M,0.108,N,0.199,K,A*35
$SMGPS,-0.0 m,+0.00 m/s,7.59 VRx,0.000 km,4 m,175.8 °,1:-- (  0.0 km/h)*F4
$SMGPS2,-0.21 X,+0.12 Y,+0.93 Z,0 ENL,0 us*47
$GNRMC,160642.10,A,4816.48378,N,01139.86795,E,0.29,,080522,,,A*5A
$GNGGA,160642.10,4816.48378,N,01139.86795,E,1,12,0.65,473.6,M,46.2,M,,*46
$GNGSA,A,3,32,10,01,21,08,27,22,23,14,,,,1.15,0.65,0.95*1D
$GNVTG,,T,,M,0.288,N,0.533,K,A*3A
$SMGPS,-0.0 m,-0.00 m/s,7.61 VRx,0.000 km,4 m,175.8 °,1:-- (  0.0 km/h)*F9
$SMGPS2,-0.22 X,+0.12 Y,+0.94 Z,0 ENL,0 us*43
$GNRMC,160642.20,A,4816.48377,N,01139.86795,E,0.19,,080522,,,A*55
$GNGGA,160642.20,4816.48377,N,01139.86795,E,1,12,0.65,473.6,M,46.2,M,,*4A
$GNGSA,A,3,32,10,01,21,08,27,22,23,14,,,,1.15,0.65,0.95*1D
$GNVTG,,T,,M,0.188,N,0.348,K,A*33
$SMGPS,0.0 m,-0.00 m/s,7.59 VRx,0.000 km,4 m,175.8 °,1:-- (  0.0 km/h)*DF
$SMGPS2,-0.22 X,+0.12 Y,+0.93 Z,0 ENL,0 us*44
$GNRMC,160642.30,A,4816.48376,N,01139.86795,E,0.13,,080522,,,A*5F
$GNGGA,160642.30,4816.48376,N,01139.86795,E,1,12,0.65,473.6,M,46.2,M,,*4A
$GNGSA,A,3,32,10,01,21,08,27,22,23,14,,,,1.15,0.65,0.95*1D
$GNVTG,,T,,M,0.132,N,0.244,K,A*3F
$SMGPS,-0.0 m,-0.00 m/s,7.61 VRx,0.000 km,4 m,175.8 °,1:-- (  0.0 km/h)*F9
$SMGPS2,-0.21 X,+0.12 Y,+0.94 Z,0 ENL,0 us*40
$GNRMC,160642.40,A,4816.48376,N,01139.86795,E,0.04,,080522,,,A*5E
$GNGGA,160642.40,4816.48376,N,01139.86795,E,1,12,0.65,473.6,M,46.2,M,,*4D
$GNGSA,A,3,32,10,01,21,08,27,22,23,14,,,,1.15,0.65,0.95*1D
$GNVTG,,T,,M,0.038,N,0.071,K,A*30
$SMGPS,-0.0 m,+0.00 m/s,7.59 VRx,0.000 km,4 m,175.8 °,1:-- (  0.0 km/h)*F4
$SMGPS2,-0.21 X,+0.12 Y,+0.94 Z,0 ENL,0 us*40
$GNRMC,160642.50,A,4816.48376,N,01139.86795,E,0.11,,080522,,,A*5B
$GNGGA,160642.50,4816.48376,N,01139.86795,E,1,12,0.65,473.6,M,46.2,M,,*4C
$GNGSA,A,3,32,10,01,21,08,27,22,23,14,,,,1.15,0.65,0.95*1D
$GNVTG,,T,,M,0.108,N,0.199,K,A*35
$SMGPS,0.0 m,-0.00 m/s,7.61 VRx,0.000 km,4 m,175.8 °,1:-- (  0.0 km/h)*D4
$SMGPS2,-0.22 X,+0.12 Y,+0.94 Z,0 ENL,0 us*43
$GNRMC,160642.60,A,4816.48376,N,01139.86796,E,0.14,,080522,,,A*5E
$GNGGA,160642.60,4816.48376,N,01139.86796,E,1,12,0.65,473.6,M,46.2,M,,*4C
$GNGSA,A,3,32,10,01,21,08,27,22,23,14,,,,1.15,0.65,0.95*1D
$GNVTG,,T,,M,0.143,N,0.265,K,A*3A
$SMGPS,0.0 m,-0.00 m/s,7.58 VRx,0.000 km,4 m,175.8 °,1:-- (  0.0 km/h)*DE
$SMGPS2,-0.22 X,+0.12 Y,+0.94 Z,0 ENL,0 us*43
$GNRMC,160642.70,A,4816.48376,N,01139.86796,E,0.23,,080522,,,A*5B
$GNGGA,160642.70,4816.48376,N,01139.86796,E,1,12,0.65,473.6,M,46.2,M,,*4D
$GNGSA,A,3,32,10,01,21,08,27,22,23,14,,,,1.15,0.65,0.95*1D
$GNVTG,,T,,M,0.234,N,0.433,K,A*3C
$SMGPS,0.0 m,+0.00 m/s,7.61 VRx,0.000 km,4 m,175.8 °,1:-- (  0.0 km/h)*D2
$SMGPS2,-0.21 X,+0.12 Y,+0.94 Z,0 ENL,0 us*40
$GNRMC,160642.80,A,4816.48376,N,01139.86796,E,0.22,,080522,,,A*55
$GNGGA,160642.80,4816.48376,N,01139.86796,E,1,12,0.65,473.6,M,46.2,M,,*42
$GNGSA,A,3,32,10,01,21,08,27,22,23,14,,,,1.15,0.65,0.95*1D
$GNVTG,,T,,M,0.218,N,0.403,K,A*31
$SMGPS,-0.0 m,-0.01 m/s,7.59 VRx,0.000 km,4 m,175.8 °,1:-- (  0.0 km/h)*F3
$SMGPS2,-0.22 X,+0.12 Y,+0.93 Z,0 ENL,0 us*44
$GNRMC,160642.90,A,4816.48376,N,01139.86796,E,0.01,,080522,,,A*55
$GNGGA,160642.90,4816.48376,N,01139.86796,E,1,12,0.65,473.6,M,46.2,M,,*43
$GNGSA,A,3,32,10,01,21,08,27,22,23,14,,,,1.15,0.65,0.95*1D
$GNVTG,,T,,M,0.004,N,0.007,K,A*3E
$SMGPS,-0.0 m,-0.01 m/s,7.62 VRx,0.000 km,4 m,175.8 °,1:-- (  0.0 km/h)*FB
$SMGPS2,-0.22 X,+0.12 Y,+0.93 Z,0 ENL,0 us*44
$GNRMC,160643.00,A,4816.48376,N,01139.86797,E,0.15,,080522,,,A*59
$GNGGA,160643.00,4816.48376,N,01139.86797,E,1,12,0.65,473.5,M,46.2,M,,*49
$GNGSA,A,3,32,10,01,21,08,27,22,23,14,,,,1.15,0.65,0.95*1D
$GNVTG,,T,,M,0.147,N,0.271,K,A*3B
$SMGPS,-0.1 m,-0.01 m/s,7.58 VRx,0.000 km,4 m,175.8 °,1:-- (  0.0 km/h)*F3
$SMGPS2,-0.22 X,+0.12 Y,+0.94 Z,0 ENL,0 us*43
$GNRMC,160643.10,A,4816.48376,N,01139.86797,E,0.16,,080522,,,A*5B
$GNGGA,160643.10,4816.48376,N,01139.86797,E,1,12,0.65,473.6,M,46.2,M,,*4B
$GNGSA,A,3,32,10,01,21,08,27,22,23,14,,,,1.15,0.65,0.95*1D
$GNVTG,,T,,M,0.159,N,0.294,K,A*3F
$SMGPS,-0.0 m,-0.01 m/s,7.61 VRx,0.000 km,4 m,175.8 °,1:-- (  0.0 km/h)*F8
$SMGPS2,-0.22 X,+0.11 Y,+0.94 Z,0 ENL,0 us*40
$GNRMC,160643.20,A,4816.48375,N,01139.86797,E,0.15,,080522,,,A*58
$GNGGA,160643.20,4816.48375,N,01139.86797,E,1,12,0.65,473.6,M,46.2,M,,*4B
$GNGSA,A,3,32,10,01,21,08,27,22,23,14,,,,1.15,0.65,0.95*1D
$GNVTG,,T,,M,0.150,N,0.279,K,A*35
$SMGPS,-0.0 m,-0.01 m/s,7.60 VRx,0.000 km,4 m,175.8 °,1:-- (  0.0 km/h)*F9
$SMGPS2,-0.21 X,+0.12 Y,+0.94 Z,0 ENL,0 us*40
$GNRMC,160643.30,A,4816.48375,N,01139.86797,E,0.14,,080522,,,A*58
$GNGGA,160643.30,4816.48375,N,01139.86797,E,1,12,0.65,473.6,M,46.2,M,,*4A
$GNGSA,A,3,32,10,01,21,08,27,22,23,14,,,,1.15,0.65,0.95*1D
$GNVTG,,T,,M,0.139,N,0.257,K,A*36
$SMGPS,-0.0 m,-0.01 m/s,7.60 VRx,0.000 km,4 m,175.8 °,1:-- (  0.0 km/h)*F9
$SMGPS2,-0.22 X,+0.12 Y,+0.94 Z,0 ENL,0 us*43
$GNRMC,160643.40,A,4816.48375,N,01139.86797,E,0.08,,080522,,,A*52
$GNGGA,160643.40,4816.48375,N,01139.86797,E,1,12,0.65,473.6,M,46.2,M,,*4D
$GNGSA,A,3,32,10,01,21,08,27,22,23,14,,,,1.15,0.65,0.95*1D
$GNVTG,,T,,M,0.078,N,0.144,K,A*33
$SMGPS,-0.0 m,-0.01 m/s,7.60 VRx,0.000 km,4 m,175.8 °,1:-- (  0.0 km/h)*F9
$SMGPS2,-0.21 X,+0.12 Y,+0.93 Z,0 ENL,0 us*47
$GNRMC,160643.50,A,4816.48375,N,01139.86798,E,0.08,,080522,,,A*5C
$GNGGA,160643.50,4816.48375,N,01139.86798,E,1,12,0.65,473.6,M,46.2,M,,*43
$GNGSA,A,3,32,10,01,21,08,27,22,23,14,,,,1.15,0.65,0.95*1D
$GNVTG,,T,,M,0.075,N,0.138,K,A*35
$SMGPS,-0.0 m,-0.01 m/s,7.61 VRx,0.000 km,4 m,175.8 °,1:-- (  0.0 km/h)*F8
$SMGPS2,-0.21 X,+0.12 Y,+0.93 Z,0 ENL,0 us*47
$GNRMC,160643.60,A,4816.48375,N,01139.86798,E,0.24,,080522,,,A*51
$GNGGA,160643.60,4816.48375,N,01139.86798,E,1,12,0.65,473.6,M,46.2,M,,*40
$GNGSA,A,3,32,10,01,21,08,27,22,23,14,,,,1.15,0.65,0.95*1D
$GNVTG,,T,,M,0.235,N,0.435,K,A*3B
$SMGPS,0.0 m,-0.00 m/s,7.59 VRx,0.000 km,4 m,175.8 °,1:-- (  0.0 km/h)*DF
$SMGPS2,-0.21 X,+0.12 Y,+0.94 Z,0 ENL,0 us*40
$GNRMC,160643.70,A,4816.48375,N,01139.86798,E,0.08,,080522,,,A*5E
$GNGGA,160643.70,4816.48375,N,01139.86798,E,1,12,0.65,473.6,M,46.2,M,,*41
$GNGSA,A,3,32,10,01,21,08,27,22,23,14,,,,1.15,0.65,0.95*1D
$GNVTG,,T,,M,0.070,N,0.129,K,A*30
$SMGPS,-0.0 m,+0.00 m/s,7.62 VRx,0.000 km,4 m,175.8 °,1:-- (  0.0 km/h)*FC
$SMGPS2,-0.22 X,+0.11 Y,+0.93 Z,0 ENL,0 us*47
$GNRMC,160643.80,A,4816.48375,N,01139.86798,E,0.08,,080522,,,A*51
$GNGGA,160643.80,4816.48375,N,01139.86798,E,1,12,0.65,473.6,M,46.2,M,,*4E
$GNGSA,A,3,32,10,01,21,08,27,22,23,14,,,,1.15,0.65,0.95*1D
$GNVTG,,T,,M,0.068,N,0.126,K,A*36
$SMGPS,-0.0 m,-0.00 m/s,7.58 VRx,0.000 km,4 m,175.8 °,1:-- (  0.0 km/h)*F3
$SMGPS2,-0.21 X,+0.12 Y,+0.94 Z,0 ENL,0 us*40
$GNRMC,160643.90,A,4816.48374,N,01139.86799,E,0.16,,080522,,,A*5F
$GNGGA,160643.90,4816.48374,N,01139.86799,E,1,12,0.65,473.6,M,46.2,M,,*4F
$GNGSA,A,3,32,10,01,21,08,27,22,23,14,,,,1.15,0.65,0.95*1D
$GNVTG,,T,,M,0.151,N,0.279,K,A*34
$SMGPS,-0.0 m,+0.00 m/s,7.62 VRx,0.000 km,4 m,175.8 °,1:-- (  0.0 km/h)*FC
$SMGPS2,-0.22 X,+0.12 Y,+0.94 Z,0 ENL,0 us*43
$GNRMC,160644.00,A,4816.48375,N,01139.86799,E,0.07,,080522,,,A*50
$GNGGA,160644.00,4816.48375,N,01139.86799,E,1,12,0.65,473.6,M,46.2,M,,*40
$GNGSA,A,3,32,10,01,21,08,27,22,23,14,,,,1.15,0.65,0.95*1D
$GNVTG,,T,,M,0.044,N,0.081,K,A*34
$SMGPS,-0.0 m,-0.00 m/s,7.58 VRx,0.000 km,4 m,172.6 °,1:-- (  0.0 km/h)*FA
$SMGPS2,-0.21 X,+0.12 Y,+0.94 Z,0 ENL,0 us*40
$GNRMC,160644.10,A,4816.48375,N,01139.86799,E,0.10,,080522,,,A*57
$GNGGA,160644.10,4816.48375,N,01139.86799,E,1,12,0.65,473.6,M,46.2,M,,*41
$GNGSA,A,3,32,10,01,21,08,27,22,23,14,,,,1.15,0.65,0.95*1D
$GNVTG,,T,,M,0.087,N,0.161,K,A*34
$SMGPS,0.0 m,+0.00 m/s,7.62 VRx,0.000 km,4 m,172.6 °,1:-- (  0.0 km/h)*D8
$SMGPS2,-0.21 X,+0.12 Y,+0.93 Z,0 ENL,0 us*47
$GNRMC,160644.20,A,4816.48375,N,01139.86799,E,0.14,,080522,,,A*50
$GNGGA,160644.20,4816.48375,N,01139.86799,E,1,12,0.65,473.6,M,46.2,M,,*42
$GNGSA,A,3,32,10,01,21,08,27,22,23,14,,,,1.15,0.65,0.95*1D
$GNVTG,,T,,M,0.135,N,0.250,K,A*3D
$SMGPS,-0.0 m,-0.00 m/s,7.59 VRx,0.000 km,4 m,172.6 °,1:-- (  0.0 km/h)*FB
$SMGPS2,-0.21 X,+0.12 Y,+0.94 Z,0 ENL,0 us*40
$GNRMC,160644.30,A,4816.48375,N,01139.86800,E,0.07,,080522,,,A*5C
$GNGGA,160644.30,4816.48375,N,01139.86800,E,1,12,0.65,473.6,M,46.2,M,,*4C
$GNGSA,A,3,32,10,01,21,08,27,22,23,14,,,,1.15,0.65,0.95*1D
$GNVTG,,T,,M,0.049,N,0.091,K,A*38
$SMGPS,-0.0 m,-0.00 m/s,7.61 VRx,0.000 km,4 m,172.6 °,1:-- (  0.0 km/h)*F0
$SMGPS2,-0.21 X,+0.12 Y,+0.93 Z,0 ENL,0 us*47
$GNRMC,160644.40,A,4816.48374,N,01139.86800,E,0.06,,080522,,,A*5B
$GNGGA,160644.40,4816.48374,N,01139.86800,E,1,12,0.65,473.6,M,46.2,M,,*4A
$GNGSA,A,3,32,10,01,21,08,27,22,23,14,,,,1.15,0.65,0.95*1D
$GNVTG,,T,,M,0.019,N,0.034,K,A*32
$SMGPS,-0.0 m,-0.00 m/s,7.59 VRx,0.000 km,4 m,172.6 °,1:-- (  0.0 km/h)*FB
$SMGPS2,-0.21 X,+0.12 Y,+0.94 Z,0 ENL,0 us*40
$GNRMC,160644.50,A,4816.48374,N,01139.86800,E,0.07,,080522,,,A*5B
$GNGGA,160644.50,4816.48374,N,01139.86800,E,1,12,0.65,473.6,M,46.2,M,,*4B
$GNGSA,A,3,32,10,01,21,08,27,22,23,14,,,,1.15,0.65,0.95*1D
$GNVTG,,T,,M,0.055,N,0.101,K,A*3D
$SMGPS,0.0 m,-0.00 m/s,7.60 VRx,0.000 km,4 m,172.6 °,1:-- (  0.0 km/h)*DC
$SMGPS2,-0.21 X,+0.12 Y,+0.94 Z,0 ENL,0 us*40
$GNRMC,160644.60,A,4816.48374,N,01139.86800,E,0.04,,080522,,,A*5B
$GNGGA,160644.60,4816.48374,N,01139.86800,E,1,12,0.65,473.6,M,46.2,M,,*48
$GNGSA,A,3,32,10,01,21,08,27,22,23,14,,,,1.15,0.65,0.95*1D
$GNVTG,,T,,M,0.018,N,0.033,K,A*34
$SMGPS,0.0 m,-0.00 m/s,7.59 VRx,0.000 km,4 m,172.6 °,1:-- (  0.0 km/h)*D6
$SMGPS2,-0.21 X,+0.12 Y,+0.94 Z,0 ENL,0 us*40
$GNRMC,160644.70,A,4816.48374,N,01139.86800,E,0.05,,080522,,,A*5B
$GNGGA,160644.70,4816.48374,N,01139.86800,E,1,12,0.65,473.6,M,46.2,M,,*49
$GNGSA,A,3,32,10,01,21,08,27,22,23,14,,,,1.15,0.65,0.95*1D
$GNVTG,,T,,M,0.046,N,0.085,K,A*32
$SMGPS,-0.0 m,-0.00 m/s,7.61 VRx,0.000 km,4 m,172.6 °,1:-- (  0.0 km/h)*F0
$SMGPS2,-0.21 X,+0.12 Y,+0.94 Z,1 ENL,0 us*41
$GNRMC,160644.80,A,4816.48373,N,01139.86800,E,0.05,,080522,,,A*53
$GNGGA,160644.80,4816.48373,N,01139.86800,E,1,12,0.65,473.6,M,46.2,M,,*41
$GNGSA,A,3,32,10,01,21,08,27,22,23,14,,,,1.15,0.65,0.95*1D
$GNVTG,,T,,M,0.050,N,0.093,K,A*32
$SMGPS,0.0 m,-0.01 m/s,7.59 VRx,0.000 km,4 m,172.6 °,1:-- (  0.0 km/h)*D7
$SMGPS2,-0.22 X,+0.11 Y,+0.93 Z,0 ENL,0 us*47
$GNRMC,160644.90,A,4816.48373,N,01139.86800,E,0.15,,080522,,,A*53
$GNGGA,160644.90,4816.48373,N,01139.86800,E,1,12,0.65,473.6,M,46.2,M,,*40
$GNGSA,A,3,32,10,01,21,08,27,22,23,14,,,,1.15,0.65,0.95*1D
$GNVTG,,T,,M,0.151,N,0.280,K,A*32
$SMGPS,0.0 m,-0.01 m/s,7.61 VRx,0.000 km,4 m,172.6 °,1:-- (  0.0 km/h)*DC
$SMGPS2,-0.21 X,+0.12 Y,+0.94 Z,0 ENL,0 us*40
$GNRMC,160645.00,A,4816.48373,N,01139.86800,E,0.03,,080522,,,A*5C
$GNGGA,160645.00,4816.48373,N,01139.86800,E,1,12,0.65,473.6,M,46.2,M,,*48
$GNGSA,A,3,32,10,01,21,08,27,22,23,14,,,,1.15,0.65,0.95*1D
$GNVTG,,T,,M,0.034,N,0.063,K,A*3F
$SMGPS,-0.0 m,-0.01 m/s,7.59 VRx,0.000 km,4 m,172.6 °,1:-- (  0.0 km/h)*FA
$SMGPS2,-0.21 X,+0.12 Y,+0.93 Z,0 ENL,0 us*47
$GNRMC,160645.10,A,4816.48373,N,01139.86800,E,0.20,,080522,,,A*5C
$GNGGA,160645.10,4816.48373,N,01139.86800,E,1,12,0.65,473.6,M,46.2,M,,*49
$GNGSA,A,3,32,10,01,21,08,27,22,23,14,,,,1.15,0.65,0.95*1D
$GNVTG,,T,,M,0.199,N,0.369,K,A*30
$SMGPS,-0.0 m,-0.01 m/s,7.62 VRx,0.000 km,4 m,172.6 °,1:-- (  0.0 km/h)*F2
$SMGPS2,-0.22 X,+0.11 Y,+0.94 Z,0 ENL,0 us*40
$GNRMC,160645.20,A,4816.48373,N,01139.86801,E,0.09,,080522,,,A*55
$GNGGA,160645.20,4816.48373,N,01139.86801,E,1,12,0.65,473.6,M,46.2,M,,*4B
$GNGSA,A,3,32,10,01,21,08,27,22,23,14,,,,1.15,0.65,0.95*1D
$GNVTG,,T,,M,0.085,N,0.157,K,A*33
$SMGPS,-0.0 m,-0.01 m/s,7.58 VRx,0.000 km,4 m,172.6 °,1:-- (  0.0 km/h)*FB
$SMGPS2,-0.21 X,+0.11 Y,+0.94 Z,1 ENL,0 us*42
$GNRMC,160645.30,A,4816.48373,N,01139.86801,E,0.26,,080522,,,A*59
$GNGGA,160645.30,4816.48373,N,01139.86801,E,1,12,0.65,473.6,M,46.2,M,,*4A
$GNGSA,A,3,32,10,01,21,08,27,22,23,14,,,,1.15,0.65,0.95*1D
$GNVTG,,T,,M,0.255,N,0.472,K,A*3E
$SMGPS,-0.0 m,-0.01 m/s,7.62 VRx,0.000 km,4 m,172.6 °,1:-- (  0.0 km/h)*F2
$SMGPS2,-0.21 X,+0.12 Y,+0.93 Z,0 ENL,0 us*47
$GNRMC,160645.40,A,4816.48373,N,01139.86801,E,0.03,,080522,,,A*59
$GNGGA,160645.40,4816.48373,N,01139.86801,E,1,12,0.65,473.6,M,46.2,M,,*4D
$GNGSA,A,3,32,10,01,21,08,27,22,23,14,,,,1.15,0.65,0.95*1D
$GNVTG,,T,,M,0.015,N,0.028,K,A*33
$SMGPS,-0.0 m,-0.01 m/s,7.59 VRx,0.000 km,4 m,172.6 °,1:-- (  0.0 km/h)*FA
$SMGPS2,-0.21 X,+0.12 Y,+0.93 Z,0 ENL,0 us*47
$GNRMC,160645.50,A,4816.48373,N,01139.86802,E,0.17,,080522,,,A*5E
$GNGGA,160645.50,4816.48373,N,01139.86802,E,1,12,0.65,473.6,M,46.2,M,,*4F
$GNGSA,A,3,32,10,01,21,08,27,22,23,14,,,,1.15,0.65,0.95*1D
$GNVTG,,T,,M,0.166,N,0.307,K,A*38
$SMGPS,-0.0 m,-0.01 m/s,7.61 VRx,0.000 km,4 m,172.6 °,1:-- (  0.0 km/h)*F1
$SMGPS2,-0.21 X,+0.12 Y,+0.94 Z,1 ENL,0 us*41
$GNRMC,160645.60,A,4816.48373,N,01139.86802,E,0.10,,080522,,,A*5A
$GNGGA,160645.60,4816.48373,N,01139.86802,E,1,12,0.65,473.6,M,46.2,M,,*4C
$GNGSA,A,3,32,10,01,21,08,27,22,23,14,,,,1.15,0.65,0.95*1D
$GNVTG,,T,,M,0.090,N,0.166,K,A*35
$SMGPS,-0.0 m,-0.01 m/s,7.58 VRx,0.000 km,4 m,172.6 °,1:-- (  0.0 km/h)*FB
$SMGPS2,-0.21 X,+0.12 Y,+0.94 Z,0 ENL,0 us*40
$GNRMC,160645.70,A,4816.48374,N,01139.86802,E,0.20,,080522,,,A*5F
$GNGGA,160645.70,4816.48374,N,01139.86802,E,1,12,0.65,473.6,M,46.2,M,,*4A
$GNGSA,A,3,32,10,01,21,08,27,22,23,14,,,,1.15,0.65,0.95*1D
$GNVTG,,T,,M,0.194,N,0.359,K,A*3E
$SMGPS,-0.0 m,-0.01 m/s,7.68 VRx,0.000 km,4 m,172.6 °,1:-- (  0.0 km/h)*F8
$SMGPS2,-0.22 X,+0.12 Y,+0.94 Z,0 ENL,0 us*43
$GNRMC,160645.80,A,4816.48374,N,01139.86803,E,0.08,,080522,,,A*5B
$GNGGA,160645.80,4816.48374,N,01139.86803,E,1,12,0.65,473.6,M,46.2,M,,*44
$GNGSA,A,3,32,10,01,21,08,27,22,23,14,,,,1.15,0.65,0.95*1D
$GNVTG,,T,,M,0.061,N,0.114,K,A*3E
$SMGPS,-0.0 m,-0.01 m/s,7.68 VRx,0.000 km,4 m,172.6 °,1:-- (  0.0 km/h)*F8
$SMGPS2,-0.21 X,+0.12 Y,+0.94 Z,0 ENL,0 us*40
$GNRMC,160645.90,A,4816.48374,N,01139.86803,E,0.09,,080522,,,A*5B
$GNGGA,160645.90,4816.48374,N,01139.86803,E,1,12,0.65,473.6,M,46.2,M,,*45
$GNGSA,A,3,32,10,01,21,08,27,22,23,14,,,,1.15,0.65,0.95*1D
$GNVTG,,T,,M,0.084,N,0.155,K,A*30
$SMGPS,-0.0 m,-0.01 m/s,7.61 VRx,0.000 km,4 m,172.6 °,1:-- (  0.0 km/h)*F1
$SMGPS2,-0.21 X,+0.12 Y,+0.93 Z,1 ENL,0 us*46
$GNRMC,160646.00,A,4816.48373,N,01139.86803,E,0.12,,080522,,,A*5C
$GNGGA,160646.00,4816.48373,N,01139.86803,E,1,12,0.65,473.6,M,46.2,M,,*48
$GNGSA,A,3,32,10,01,21,08,27,22,23,14,,,,1.15,0.65,0.95*1D
$GNVTG,,T,,M,0.111,N,0.206,K,A*38
$SMGPS,0.0 m,-0.01 m/s,7.59 VRx,0.000 km,4 m,172.6 °,1:-- (  0.0 km/h)*D7
$SMGPS2,-0.22 X,+0.12 Y,+0.94 Z,0 ENL,0 us*43
$GNRMC,160646.10,A,4816.48373,N,01139.86803,E,0.28,,080522,,,A*54
$GNGGA,160646.10,4816.48373,N,01139.86803,E,1,12,0.65,473.6,M,46.2,M,,*49
$GNGSA,A,3,32,10,01,21,08,27,22,23,14,,,,1.15,0.65,0.95*1D
$GNVTG,,T,,M,0.273,N,0.505,K,A*3B
$SMGPS,0.0 m,-0.01 m/s,7.61 VRx,0.000 km,4 m,172.6 °,1:-- (  0.0 km/h)*DC
$SMGPS2,-0.21 X,+0.12 Y,+0.94 Z,0 ENL,0 us*40
$GNRMC,160646.20,A,4816.48373,N,01139.86804,E,0.07,,080522,,,A*5D
$GNGGA,160646.20,4816.48373,N,01139.86804,E,1,12,0.65,473.6,M,46.2,M,,*4D
$GNGSA,A,3,32,10,01,21,08,27,22,23,14,,,,1.15,0.65,0.95*1D
$GNVTG,,T,,M,0.062,N,0.115,K,A*3C
$SMGPS,0.0 m,-0.01 m/s,7.58 VRx,0.000 km,4 m,172.6 °,1:-- (  0.0 km/h)*D6
$SMGPS2,-0.22 X,+0.11 Y,+0.93 Z,0 ENL,0 us*47
$GNRMC,160646.30,A,4816.48373,N,01139.86804,E,0.05,,080522,,,A*5E
$GNGGA,160646.30,4816.48373,N,01139.86804,E,1,12,0.65,473.6,M,46.2,M,,*4C
$GNGSA,A,3,32,10,01,21,08,27,22,23,14,,,,1.15,0.65,0.95*1D
$GNVTG,,T,,M,0.029,N,0.053,K,A*30
$SMGPS,-0.0 m,-0.01 m/s,7.61 VRx,0.000 km,4 m,172.6 °,1:-- (  0.0 km/h)*F1
$SMGPS2,-0.22 X,+0.11 Y,+0.94 Z,0 ENL,0 us*40
$GNRMC,160646.40,A,4816.48373,N,01139.86804,E,0.10,,080522,,,A*5D
$GNGGA,160646.40,4816.48373,N,01139.86804,E,1,12,0.65,473.6,M,46.2,M,,*4B
$GNGSA,A,3,32,10,01,21,08,27,22,23,14,,,,1.15,0.65,0.95*1D
$GNVTG,,T,,M,0.096,N,0.177,K,A*33
$SMGPS,0.0 m,-0.01 m/s,7.58 VRx,0.000 km,4 m,172.6 °,1:-- (  0.0 km/h)*D6
$SMGPS2,-0.21 X,+0.12 Y,+0.94 Z,0 ENL,0 us*40
$GNRMC,160646.50,A,4816.48373,N,01139.86804,E,0.28,,080522,,,A*57
$GNGGA,160646.50,4816.48373,N,01139.86804,E,1,12,0.65,473.6,M,46.2,M,,*4A
$GNGSA,A,3,32,10,01,21,08,27,22,23,14,,,,1.15,0.65,0.95*1D
$GNVTG,,T,,M,0.273,N,0.506,K,A*38
$SMGPS,0.0 m,-0.01 m/s,7.61 VRx,0.000 km,4 m,172.6 °,1:-- (  0.0 km/h)*DC
$SMGPS2,-0.21 X,+0.12 Y,+0.94 Z,0 ENL,0 us*40
$GNRMC,160646.60,A,4816.48373,N,01139.86804,E,0.07,,080522,,,A*59
$GNGGA,160646.60,4816.48373,N,01139.86804,E,1,12,0.65,473.6,M,46.2,M,,*49
$GNGSA,A,3,32,10,01,21,08,27,22,23,14,,,,1.15,0.65,0.95*1D
$GNVTG,,T,,M,0.068,N,0.126,K,A*36
$SMGPS,0.0 m,-0.01 m/s,7.57 VRx,0.000 km,4 m,172.6 °,1:-- (  0.0 km/h)*D9
$SMGPS2,-0.22 X,+0.12 Y,+0.93 Z,0 ENL,0 us*44
$GNRMC,160646.70,A,4816.48373,N,01139.86804,E,0.14,,080522,,,A*5A
$GNGGA,160646.70,4816.48373,N,01139.86804,E,1,12,0.65,473.6,M,46.2,M,,*48
$GNGSA,A,3,32,10,01,21,08,27,22,23,14,,,,1.15,0.65,0.95*1D
$GNVTG,,T,,M,0.143,N,0.264,K,A*3B
$SMGPS,0.0 m,-0.01 m/s,7.61 VRx,0.000 km,4 m,172.6 °,1:-- (  0.0 km/h)*DC
$SMGPS2,-0.21 X,+0.12 Y,+0.94 Z,0 ENL,0 us*40
$GNRMC,160646.80,A,4816.48373,N,01139.86805,E,0.10,,080522,,,A*50
$GNGGA,160646.80,4816.48373,N,01139.86805,E,1,12,0.65,473.6,M,46.2,M,,*46
$GNGSA,A,3,32,10,01,21,08,27,22,23,14,,,,1.15,0.65,0.95*1D
$GNVTG,,T,,M,0.100,N,0.185,K,A*30
$SMGPS,0.0 m,-0.01 m/s,7.58 VRx,0.000 km,4 m,172.6 °,1:-- (  0.0 km/h)*D6
$SMGPS2,-0.22 X,+0.12 Y,+0.93 Z,0 ENL,0 us*44
$GNRMC,160646.90,A,4816.48373,N,01139.86805,E,0.07,,080522,,,A*57
$GNGGA,160646.90,4816.48373,N,01139.86805,E,1,12,0.65,473.6,M,46.2,M,,*47
$GNGSA,A,3,32,10,01,21,08,27,22,23,14,,,,1.15,0.65,0.95*1D
$GNVTG,,T,,M,0.064,N,0.119,K,A*36
$SMGPS,0.0 m,-0.01 m/s,7.60 VRx,0.000 km,4 m,172.6 °,1:-- (  0.0 km/h)*DD
$SMGPS2,-0.21 X,+0.11 Y,+0.94 Z,0 ENL,0 us*43
$GNRMC,160647.00,A,4816.48373,N,01139.86805,E,0.04,,080522,,,A*5C
$GNGGA,160647.00,4816.48373,N,01139.86805,E,1,12,0.65,473.6,M,46.2,M,,*4F
$GNGSA,A,3,32,10,01,21,08,27,22,23,14,,,,1.15,0.65,0.95*1D
$GNVTG,,T,,M,0.037,N,0.069,K,A*36
$SMGPS,-0.0 m,-0.01 m/s,7.59 VRx,0.000 km,4 m,172.6 °,1:-- (  0.0 km/h)*FA
$SMGPS2,-0.21 X,+0.12 Y,+0.94 Z,0 ENL,0 us*40
$GNRMC,160647.10,A,4816.48373,N,01139.86805,E,0.21,,080522,,,A*5A
$GNGGA,160647.10,4816.48373,N,01139.86805,E,1,12,0.65,473.6,M,46.2,M,,*4E
$GNGSA,A,3,32,10,01,21,08,27,22,23,14,,,,1.15,0.65,0.95*1D
$GNVTG,,T,,M,0.212,N,0.392,K,A*34
$SMGPS,-0.0 m,-0.01 m/s,7.60 VRx,0.000 km,4 m,172.6 °,1:-- (  0.0 km/h)*F0
$SMGPS2,-0.21 X,+0.12 Y,+0.93 Z,1 ENL,0 us*46
$GNRMC,160647.20,A,4816.48372,N,01139.86806,E,0.05,,080522,,,A*5D
$GNGGA,160647.20,4816.48372,N,01139.86806,E,1,12,0.65,473.6,M,46.2,M,,*4F
$GNGSA,A,3,32,10,01,21,08,27,22,23,14,,,,1.15,0.65,0.95*1D
$GNVTG,,T,,M,0.054,N,0.101,K,A*3C
$SMGPS,0.0 m,-0.01 m/s,7.59 VRx,0.000 km,4 m,172.6 °,1:-- (  0.0 km/h)*D7
$SMGPS2,-0.22 X,+0.12 Y,+0.94 Z,0 ENL,0 us*43
$GNRMC,160647.30,A,4816.48372,N,01139.86806,E,0.06,,080522,,,A*5F
$GNGGA,160647.30,4816.48372,N,01139.86806,E,1,12,0.65,473.6,M,46.2,M,,*4E
$GNGSA,A,3,32,10,01,21,08,27,22,23,14,,,,1.15,0.65,0.95*1D
$GNVTG,,T,,M,0.064,N,0.119,K,A*36
$SMGPS,-0.0 m,-0.00 m/s,7.60 VRx,0.000 km,4 m,172.6 °,1:-- (  0.0 km/h)*F1
$SMGPS2,-0.22 X,+0.12 Y,+0.94 Z,0 ENL,0 us*43
