$GPSSETUP,8AE8,0,1,1,0,0,1,0,0,0,1,3,0,0,0,0,6,0,C8,C8,1F4,1C2,32,64,7C,64,7D0,5,1,1,1E,0,0,0,0,0,0,1003,4,10,5,6,10,10,10,10,10,10,10,10,10,BC10,0,7C,0,108,302,604,0,20F,0,0,0,0,0,0,0,0,0,0,0,0,0,0,0,0,0,0,0,0,0,0,0,0,0,0,0,0,0,0,0,0,0,20,12C,877D*47
$GNRMC,155814.70,A,4816.48244,N,01139.86121,E,0.30,,080522,,,A*58
$GNGGA,155814.70,4816.48244,N,01139.86121,E,1,11,1.14,482.5,M,46.2,M,,*45
$GNGSA,A,3,21,01,08,27,10,22,16,,,,,,1.81,1.14,1.41*1D
$GNVTG,,T,,M,0.303,N,0.562,K,A*3C
$SMGPS,0.0 m,+0.00 m/s,7.20 VRx,0.000 km,0 m,90.0 °,1:-- (  0.0 km/h)*E1
$SMGPS2,-0.24 X,+0.13 Y,+0.93 Z,0 ENL,0 us*43
$GNRMC,155814.80,A,4816.48308,N,01139.86273,E,0.78,,080522,,,A*56
$GNGGA,155814.80,4816.48308,N,01139.86273,E,1,11,1.14,482.5,M,46.2,M,,*47
$GNGSA,A,3,21,01,08,27,10,22,16,,,,,,1.81,1.14,1.41*1D
$GNVTG,,T,,M,0.784,N,1.451,K,A*37
$SMGPS,-0.0 m,-0.00 m/s,7.13 VRx,0.000 km,3 m,73.3 °,1:-- (  0.0 km/h)*C7
$SMGPS2,-0.24 X,+0.13 Y,+0.93 Z,1 ENL,0 us*42
$GNRMC,155814.90,A,4816.48344,N,01139.86297,E,0.56,,080522,,,A*59
$GNGGA,155814.90,4816.48344,N,01139.86297,E,1,12,1.12,482.5,M,46.2,M,,*41
$GNGSA,A,3,21,01,08,27,10,22,16,,,,,,1.76,1.12,1.35*10
$GNVTG,,T,,M,0.559,N,1.035,K,A*33
$SMGPS,0.0 m,+0.00 m/s,7.14 VRx,0.000 km,5 m,70.0 °,1:-- (  0.0 km/h)*ED
$SMGPS2,-0.24 X,+0.13 Y,+0.92 Z,0 ENL,0 us*42
$GNRMC,155815.00,A,4816.48379,N,01139.86293,E,0.76,,080522,,,A*59
$GNGGA,155815.00,4816.48379,N,01139.86293,E,1,11,1.14,482.5,M,46.2,M,,*46
$GNGSA,A,3,21,01,08,27,10,22,16,,,,,,1.81,1.14,1.41*1D
$GNVTG,,T,,M,0.755,N,1.399,K,A*38
$SMGPS,0.0 m,+0.00 m/s,7.12 VRx,0.000 km,6 m,62.7 °,1:-- (  0.0 km/h)*EC
$SMGPS2,-0.25 X,+0.12 Y,+0.93 Z,0 ENL,0 us*43
$GNRMC,155815.10,A,4816.48419,N,01139.86319,E,0.30,,080522,,,A*58
$GNGGA,155815.10,4816.48419,N,01139.86319,E,1,11,1.14,482.5,M,46.2,M,,*45
$GNGSA,A,3,21,01,08,27,10,22,16,,,,,,1.81,1.14,1.41*1D
$GNVTG,,T,,M,0.294,N,0.545,K,A*36
$SMGPS,-0.0 m,-0.00 m/s,7.14 VRx,0.000 km,6 m,55.5 °,1:-- (  0.0 km/h)*C7
$SMGPS2,-0.24 X,+0.13 Y,+0.93 Z,0 ENL,0 us*43
$GNRMC,155815.20,A,4816.48450,N,01139.86317,E,0.36,,080522,,,A*5E
$GNGGA,155815.20,4816.48450,N,01139.86317,E,1,12,0.75,482.5,M,46.2,M,,*40
$GNGSA,A,3,21,01,08,27,10,22,23,16,,,,,1.27,0.75,1.02*11
$GNVTG,,T,,M,0.359,N,0.664,K,A*36
$SMGPS,-0.0 m,-0.01 m/s,7.11 VRx,0.000 km,7 m,50.9 °,1:-- (  0.0 km/h)*CB
$SMGPS2,-0.24 X,+0.13 Y,+0.92 Z,0 ENL,0 us*42
$GNRMC,155815.30,A,4816.48466,N,01139.86330,E,0.52,,080522,,,A*5D
$GNGGA,155815.30,4816.48466,N,01139.86330,E,1,12,0.75,482.5,M,46.2,M,,*41
$GNGSA,A,3,21,01,08,27,10,22,23,16,,,,,1.27,0.75,1.02*11
$GNVTG,,T,,M,0.524,N,0.970,K,A*30
$SMGPS,-0.0 m,-0.01 m/s,7.15 VRx,0.000 km,7 m,50.9 °,1:-- (  0.0 km/h)*CF
$SMGPS2,-0.23 X,+0.12 Y,+0.92 Z,1 ENL,0 us*45
$GNRMC,155815.40,A,4816.48460,N,01139.86348,E,0.19,,080522,,,A*5C
$GNGGA,155815.40,4816.48460,N,01139.86348,E,1,12,0.75,482.5,M,46.2,M,,*4F
$GNGSA,A,3,21,01,08,27,10,22,23,16,,,,,1.27,0.75,1.02*11
$GNVTG,,T,,M,0.189,N,0.350,K,A*3B
$SMGPS,-0.0 m,-0.01 m/s,7.11 VRx,0.000 km,7 m,46.5 °,1:-- (  0.0 km/h)*C0
$SMGPS2,-0.24 X,+0.13 Y,+0.93 Z,0 ENL,0 us*43
$GNRMC,155815.50,A,4816.48426,N,01139.86350,E,0.13,,080522,,,A*5C
$GNGGA,155815.50,4816.48426,N,01139.86350,E,1,12,0.75,482.5,M,46.2,M,,*45
$GNGSA,A,3,21,01,08,27,10,22,23,16,,,,,1.27,0.75,1.02*11
$GNVTG,,T,,M,0.130,N,0.240,K,A*39
$SMGPS,0.0 m,-0.01 m/s,7.14 VRx,0.000 km,7 m,53.4 °,1:-- (  0.0 km/h)*ED
$SMGPS2,-0.24 X,+0.12 Y,+0.93 Z,4 ENL,0 us*46
$GNRMC,155815.60,A,4816.48401,N,01139.86350,E,0.11,,080522,,,A*58
$GNGGA,155815.60,4816.48401,N,01139.86350,E,1,12,0.75,482.5,M,46.2,M,,*43
$GNGSA,A,3,21,01,08,27,10,22,23,16,,,,,1.27,0.75,1.02*11
$GNVTG,,T,,M,0.110,N,0.203,K,A*3C
$SMGPS,0.0 m,-0.01 m/s,7.12 VRx,0.000 km,7 m,53.4 °,1:-- (  0.0 km/h)*EB
$SMGPS2,-0.24 X,+0.12 Y,+0.93 Z,0 ENL,0 us*42
$GNRMC,155815.70,A,4816.48382,N,01139.86356,E,0.05,,080522,,,A*56
$GNGGA,155815.70,4816.48382,N,01139.86356,E,1,12,0.75,482.5,M,46.2,M,,*48
$GNGSA,A,3,21,01,08,27,10,22,23,16,,,,,1.27,0.75,1.02*11
$GNVTG,,T,,M,0.048,N,0.089,K,A*30
$SMGPS,-0.0 m,-0.01 m/s,7.14 VRx,0.000 km,7 m,59.3 °,1:-- (  0.0 km/h)*CD
$SMGPS2,-0.24 X,+0.12 Y,+0.92 Z,0 ENL,0 us*43
$GNRMC,155815.80,A,4816.48389,N,01139.86378,E,0.04,,080522,,,A*5F
$GNGGA,155815.80,4816.48389,N,01139.86378,E,1,12,0.75,482.5,M,46.2,M,,*40
$GNGSA,A,3,21,01,08,27,10,22,23,16,,,,,1.27,0.75,1.02*11
$GNVTG,,T,,M,0.042,N,0.077,K,A*3B
$SMGPS,0.0 m,-0.01 m/s,7.11 VRx,0.000 km,7 m,59.3 °,1:-- (  0.0 km/h)*E5
$SMGPS2,-0.25 X,+0.13 Y,+0.93 Z,0 ENL,0 us*42
$GNRMC,155815.90,A,4816.48405,N,01139.86399,E,0.23,,080522,,,A*57
$GNGGA,155815.90,4816.48405,N,01139.86399,E,1,12,0.75,482.5,M,46.2,M,,*4D
$GNGSA,A,3,21,01,08,27,10,22,23,16,,,,,1.27,0.75,1.02*11
$GNVTG,,T,,M,0.229,N,0.424,K,A*36
$SMGPS,-0.0 m,-0.01 m/s,7.14 VRx,0.000 km,7 m,60.5 °,1:-- (  0.0 km/h)*C1
$SMGPS2,-0.24 X,+0.12 Y,+0.92 Z,2 ENL,0 us*41
$GNRMC,155816.00,A,4816.48410,N,01139.86422,E,0.25,,080522,,,A*58
$GNGGA,155816.00,4816.48410,N,01139.86422,E,1,12,0.72,482.5,M,46.2,M,,*43
$GNGSA,A,3,21,01,08,27,10,22,23,16,,,,,1.23,0.72,1.00*10
$GNVTG,,T,,M,0.254,N,0.470,K,A*3D
$SMGPS,-0.0 m,-0.01 m/s,7.12 VRx,0.000 km,7 m,61.6 °,1:-- (  0.0 km/h)*C5
$SMGPS2,-0.24 X,+0.13 Y,+0.93 Z,8 ENL,0 us*4B
$GNRMC,155816.10,A,4816.48402,N,01139.86444,E,0.27,,080522,,,A*58
$GNGGA,155816.10,4816.48402,N,01139.86444,E,1,12,0.72,482.5,M,46.2,M,,*41
$GNGSA,A,3,21,01,08,27,10,22,23,16,,,,,1.23,0.72,1.00*10
$GNVTG,,T,,M,0.267,N,0.495,K,A*36
$SMGPS,-0.0 m,-0.01 m/s,7.13 VRx,0.000 km,7 m,62.7 °,1:-- (  0.0 km/h)*C6
$SMGPS2,-0.24 X,+0.13 Y,+0.93 Z,5 ENL,0 us*46
$GNRMC,155816.20,A,4816.48386,N,01139.86454,E,0.06,,080522,,,A*52
$GNGGA,155816.20,4816.48386,N,01139.86454,E,1,12,0.72,482.5,M,46.2,M,,*48
$GNGSA,A,3,21,01,08,27,10,22,23,16,,,,,1.23,0.72,1.00*10
$GNVTG,,T,,M,0.064,N,0.118,K,A*37
$SMGPS,0.0 m,-0.01 m/s,7.11 VRx,0.000 km,8 m,63.4 °,1:-- (  0.0 km/h)*E4
$SMGPS2,-0.24 X,+0.13 Y,+0.92 Z,4 ENL,0 us*46
$GNRMC,155816.30,A,4816.48382,N,01139.86471,E,0.16,,080522,,,A*51
$GNGGA,155816.30,4816.48382,N,01139.86471,E,1,12,0.69,482.5,M,46.2,M,,*40
$GNGSA,A,3,21,01,08,27,10,22,23,16,,,,,1.21,0.69,0.99*19
$GNVTG,,T,,M,0.155,N,0.286,K,A*30
$SMGPS,-0.0 m,-0.01 m/s,7.15 VRx,0.000 km,8 m,63.9 °,1:-- (  0.0 km/h)*C0
$SMGPS2,-0.24 X,+0.12 Y,+0.93 Z,0 ENL,0 us*42
$GNRMC,155816.40,A,4816.48380,N,01139.86487,E,0.43,,080522,,,A*5D
$GNGGA,155816.40,4816.48380,N,01139.86487,E,1,12,0.69,482.5,M,46.2,M,,*4C
$GNGSA,A,3,21,01,08,27,10,22,23,16,,,,,1.21,0.69,0.99*19
$GNVTG,,T,,M,0.427,N,0.791,K,A*33
$SMGPS,-0.0 m,-0.00 m/s,7.13 VRx,0.000 km,8 m,64.8 °,1:-- (  0.0 km/h)*C1
$SMGPS2,-0.25 X,+0.13 Y,+0.92 Z,0 ENL,0 us*43
$GNRMC,155816.50,A,4816.48369,N,01139.86491,E,0.28,,080522,,,A*51
$GNGGA,155816.50,4816.48369,N,01139.86491,E,1,12,0.75,482.5,M,46.2,M,,*40
$GNGSA,A,3,21,01,08,27,10,22,23,16,,,,,1.27,0.75,1.02*11
$GNVTG,,T,,M,0.280,N,0.519,K,A*3A
$SMGPS,0.0 m,-0.00 m/s,7.15 VRx,0.000 km,8 m,65.2 °,1:-- (  0.0 km/h)*E1
$SMGPS2,-0.24 X,+0.12 Y,+0.93 Z,0 ENL,0 us*42
$GNRMC,155816.60,A,4816.48361,N,01139.86503,E,0.05,,080522,,,A*5F
$GNGGA,155816.60,4816.48361,N,01139.86503,E,1,12,0.67,482.5,M,46.2,M,,*42
$GNGSA,A,3,21,01,08,27,10,22,23,14,16,,,,1.14,0.67,0.93*1E
$GNVTG,,T,,M,0.051,N,0.094,K,A*34
$SMGPS,0.0 m,-0.00 m/s,7.12 VRx,0.000 km,8 m,65.2 °,1:-- (  0.0 km/h)*E6
$SMGPS2,-0.24 X,+0.13 Y,+0.93 Z,3 ENL,0 us*40
$GNRMC,155816.70,A,4816.48355,N,01139.86506,E,0.20,,080522,,,A*5B
$GNGGA,155816.70,4816.48355,N,01139.86506,E,1,12,0.67,482.5,M,46.2,M,,*41
$GNGSA,A,3,21,01,08,27,10,22,23,14,16,,,,1.14,0.67,0.93*1E
$GNVTG,,T,,M,0.199,N,0.368,K,A*31
$SMGPS,0.0 m,-0.00 m/s,7.14 VRx,0.000 km,8 m,71.2 °,1:-- (  0.0 km/h)*E5
$SMGPS2,-0.25 X,+0.13 Y,+0.92 Z,2 ENL,0 us*41
$GNRMC,155816.80,A,4816.48345,N,01139.86516,E,0.23,,080522,,,A*57
$GNGGA,155816.80,4816.48345,N,01139.86516,E,1,12,0.67,482.5,M,46.2,M,,*4E
$GNGSA,A,3,21,01,08,27,10,22,23,14,16,,,,1.14,0.67,0.93*1E
$GNVTG,,T,,M,0.234,N,0.434,K,A*3B
$SMGPS,-0.0 m,-0.01 m/s,7.11 VRx,0.000 km,8 m,71.5 °,1:-- (  0.0 km/h)*CB
$SMGPS2,-0.23 X,+0.13 Y,+0.92 Z,5 ENL,0 us*40
$GNRMC,155816.90,A,4816.48336,N,01139.86526,E,0.13,,080522,,,A*52
$GNGGA,155816.90,4816.48336,N,01139.86526,E,1,12,0.67,482.5,M,46.2,M,,*48
$GNGSA,A,3,21,01,08,27,10,22,23,14,16,,,,1.14,0.67,0.93*1E
$GNVTG,,T,,M,0.133,N,0.247,K,A*3D
$SMGPS,-0.0 m,-0.01 m/s,7.15 VRx,0.000 km,8 m,71.5 °,1:-- (  0.0 km/h)*CF
$SMGPS2,-0.24 X,+0.13 Y,+0.92 Z,5 ENL,0 us*47
$GNRMC,155817.00,A,4816.48328,N,01139.86534,E,0.18,,080522,,,A*5D
$GNGGA,155817.00,4816.48328,N,01139.86534,E,1,12,0.67,482.5,M,46.2,M,,*4C
$GNGSA,A,3,21,01,08,27,10,22,23,14,16,,,,1.14,0.67,0.93*1E
$GNVTG,,T,,M,0.184,N,0.340,K,A*37
$SMGPS,0.0 m,-0.00 m/s,7.12 VRx,0.000 km,8 m,71.8 °,1:-- (  0.0 km/h)*E9
$SMGPS2,-0.24 X,+0.13 Y,+0.93 Z,1 ENL,0 us*42
$GNRMC,155817.10,A,4816.48326,N,01139.86544,E,0.09,,080522,,,A*55
$GNGGA,155817.10,4816.48326,N,01139.86544,E,1,12,0.67,482.5,M,46.2,M,,*44
$GNGSA,A,3,21,01,08,27,10,22,23,14,16,,,,1.14,0.67,0.93*1E
$GNVTG,,T,,M,0.087,N,0.160,K,A*35
$SMGPS,0.0 m,-0.00 m/s,7.13 VRx,0.000 km,8 m,72.3 °,1:-- (  0.0 km/h)*E0
$SMGPS2,-0.24 X,+0.13 Y,+0.93 Z,0 ENL,0 us*43
$GNRMC,155817.20,A,4816.48320,N,01139.86550,E,0.03,,080522,,,A*5F
$GNGGA,155817.20,4816.48320,N,01139.86550,E,1,12,0.67,482.5,M,46.2,M,,*44
$GNGSA,A,3,21,01,08,27,10,22,23,14,16,,,,1.14,0.67,0.93*1E
$GNVTG,,T,,M,0.033,N,0.062,K,A*39
$SMGPS,-0.0 m,-0.01 m/s,7.12 VRx,0.000 km,9 m,72.6 °,1:-- (  0.0 km/h)*C9
$SMGPS2,-0.24 X,+0.13 Y,+0.93 Z,0 ENL,0 us*43
$GNRMC,155817.30,A,4816.48320,N,01139.86561,E,0.23,,080522,,,A*5E
$GNGGA,155817.30,4816.48320,N,01139.86561,E,1,12,0.63,482.5,M,46.2,M,,*43
$GNGSA,A,3,21,01,08,27,10,32,22,23,14,16,,,1.10,0.63,0.91*1D
$GNVTG,,T,,M,0.234,N,0.434,K,A*3B
$SMGPS,0.0 m,-0.01 m/s,7.12 VRx,0.000 km,9 m,72.6 °,1:-- (  0.0 km/h)*E4
$SMGPS2,-0.24 X,+0.13 Y,+0.92 Z,4 ENL,0 us*46
$GNRMC,155817.40,A,4816.48323,N,01139.86572,E,0.03,,080522,,,A*5A
$GNGGA,155817.40,4816.48323,N,01139.86572,E,1,12,0.65,482.5,M,46.2,M,,*43
$GNGSA,A,3,21,01,08,27,10,32,22,23,14,16,,,1.13,0.65,0.92*1B
$GNVTG,,T,,M,0.025,N,0.046,K,A*38
$SMGPS,0.0 m,-0.01 m/s,7.12 VRx,0.000 km,9 m,72.9 °,1:-- (  0.0 km/h)*EB
$SMGPS2,-0.24 X,+0.13 Y,+0.93 Z,4 ENL,0 us*47
$GNRMC,155817.50,A,4816.48326,N,01139.86584,E,0.19,,080522,,,A*5C
$GNGGA,155817.50,4816.48326,N,01139.86584,E,1,12,0.63,482.5,M,46.2,M,,*48
$GNGSA,A,3,21,01,08,27,10,32,22,23,14,16,,,1.10,0.63,0.91*1D
$GNVTG,,T,,M,0.189,N,0.350,K,A*3B
$SMGPS,-0.0 m,+0.00 m/s,7.14 VRx,0.000 km,9 m,73.1 °,1:-- (  0.0 km/h)*CE
$SMGPS2,-0.24 X,+0.13 Y,+0.93 Z,0 ENL,0 us*43
$GNRMC,155817.60,A,4816.48331,N,01139.86594,E,0.24,,080522,,,A*56
$GNGGA,155817.60,4816.48331,N,01139.86594,E,1,12,0.63,482.5,M,46.2,M,,*4C
$GNGSA,A,3,21,01,08,27,10,32,22,23,14,16,,,1.10,0.63,0.91*1D
$GNVTG,,T,,M,0.235,N,0.436,K,A*38
$SMGPS,-0.0 m,+0.00 m/s,7.12 VRx,0.000 km,9 m,73.4 °,1:-- (  0.0 km/h)*CD
$SMGPS2,-0.24 X,+0.13 Y,+0.93 Z,0 ENL,0 us*43
