$GPSSETUP,8AE8,0,1,1,0,0,1,0,0,0,1,3,0,0,0,0,6,0,C8,C8,1F4,1C2,32,64,7C,64,7D0,5,1,1,1E,0,0,0,0,0,0,1003,4,10,5,6,10,10,10,10,10,10,10,10,10,BC10,0,7C,0,108,302,604,0,20F,0,0,0,0,0,0,0,0,0,0,0,0,0,0,0,0,0,0,0,0,0,0,0,0,0,0,0,0,0,0,0,0,0,20,12C,877D*47
$GNRMC,161220.10,A,4816.47852,N,01139.86425,E,0.33,,080522,,,A*54
$GNGGA,161220.10,4816.47852,N,01139.86425,E,1,11,1.38,467.0,M,46.2,M,,*4A
$GNGSA,A,3,32,01,08,21,27,22,14,,,,,,1.88,1.38,1.27*18
$GNVTG,,T,,M,0.331,N,0.613,K,A*38
$SMGPS,-0.0 m,-0.01 m/s,7.31 VRx,0.000 km,1 m,0.0 °,1:-- (  0.0 km/h)*F3
$SMGPS2,-0.24 X,+0.06 Y,+0.94 Z,5 ENL,0 us*45
$GNRMC,161220.20,A,4816.47903,N,01139.86433,E,0.57,,080522,,,A*57
$GNGGA,161220.20,4816.47903,N,01139.86433,E,1,11,1.38,467.0,M,46.2,M,,*4B
$GNGSA,A,3,32,01,08,21,27,22,14,,,,,,1.88,1.38,1.27*18
$GNVTG,,T,,M,0.571,N,1.058,K,A*32
$SMGPS,-0.0 m,-0.01 m/s,7.27 VRx,0.000 km,1 m,346.0 °,1:-- (  0.0 km/h)*F5
$SMGPS2,-0.24 X,+0.06 Y,+0.93 Z,4 ENL,0 us*43
$GNRMC,161220.30,A,4816.47944,N,01139.86441,E,1.09,213.44,080522,,,A*44
$GNGGA,161220.30,4816.47944,N,01139.86441,E,1,11,1.38,467.0,M,46.2,M,,*4C
$GNGSA,A,3,32,01,08,21,27,22,14,,,,,,1.88,1.38,1.27*18
$GNVTG,213.44,T,,M,1.088,N,2.015,K,A*24
$SMGPS,0.0 m,-0.00 m/s,7.29 VRx,0.000 km,2 m,0.0 °,1:-- (  0.0 km/h)*D5
$SMGPS2,-0.23 X,+0.06 Y,+0.94 Z,4 ENL,0 us*43
$GNRMC,161220.40,A,4816.47958,N,01139.86444,E,0.49,,080522,,,A*50
$GNGGA,161220.40,4816.47958,N,01139.86444,E,1,11,1.38,467.0,M,46.2,M,,*43
$GNGSA,A,3,32,01,08,21,27,22,14,,,,,,1.88,1.38,1.27*18
$GNVTG,,T,,M,0.485,N,0.898,K,A*3D
$SMGPS,0.0 m,-0.01 m/s,7.25 VRx,0.001 km,3 m,0.0 °,1:-- (  0.0 km/h)*D8
$SMGPS2,-0.24 X,+0.06 Y,+0.94 Z,5 ENL,0 us*45
$GNRMC,161220.50,A,4816.48036,N,01139.86481,E,0.20,,080522,,,A*59
$GNGGA,161220.50,4816.48036,N,01139.86481,E,1,11,1.38,467.0,M,46.2,M,,*45
$GNGSA,A,3,32,01,08,21,27,22,14,,,,,,1.88,1.38,1.27*18
$GNVTG,,T,,M,0.197,N,0.366,K,A*31
$SMGPS,0.0 m,-0.00 m/s,7.28 VRx,0.001 km,3 m,0.0 °,1:-- (  0.0 km/h)*D4
$SMGPS2,-0.23 X,+0.07 Y,+0.94 Z,5 ENL,0 us*43
$GNRMC,161220.60,A,4816.48076,N,01139.86499,E,0.05,,080522,,,A*50
$GNGGA,161220.60,4816.48076,N,01139.86499,E,1,11,1.38,467.0,M,46.2,M,,*4B
$GNGSA,A,3,32,01,08,21,27,22,14,,,,,,1.88,1.38,1.27*18
$GNVTG,,T,,M,0.043,N,0.079,K,A*34
$SMGPS,0.0 m,-0.00 m/s,7.25 VRx,0.001 km,4 m,7.6 °,1:-- (  0.0 km/h)*DF
$SMGPS2,-0.24 X,+0.06 Y,+0.94 Z,4 ENL,0 us*44
$GNRMC,161220.70,A,4816.48158,N,01139.86542,E,0.20,,080522,,,A*5C
$GNGGA,161220.70,4816.48158,N,01139.86542,E,1,12,1.07,467.0,M,46.2,M,,*4F
$GNGSA,A,3,32,01,08,21,27,10,22,14,,,,,1.66,1.07,1.27*15
$GNVTG,,T,,M,0.202,N,0.373,K,A*3A
$SMGPS,0.0 m,+0.00 m/s,7.28 VRx,0.001 km,5 m,7.9 °,1:-- (  0.0 km/h)*DA
$SMGPS2,-0.23 X,+0.06 Y,+0.93 Z,4 ENL,0 us*44
$GNRMC,161220.80,A,4816.48248,N,01139.86588,E,0.26,,080522,,,A*51
$GNGGA,161220.80,4816.48248,N,01139.86588,E,1,12,1.03,467.0,M,46.2,M,,*40
$GNGSA,A,3,32,01,08,21,27,10,22,14,,,,,1.61,1.03,1.24*15
$GNVTG,,T,,M,0.259,N,0.480,K,A*3F
$SMGPS,0.0 m,+0.00 m/s,7.25 VRx,0.001 km,7 m,11.9 °,1:-- (  0.0 km/h)*E2
$SMGPS2,-0.23 X,+0.06 Y,+0.93 Z,4 ENL,0 us*44
$GNRMC,161220.90,A,4816.48310,N,01139.86624,E,0.37,,080522,,,A*59
$GNGGA,161220.90,4816.48310,N,01139.86624,E,1,12,1.03,467.0,M,46.2,M,,*48
$GNGSA,A,3,32,01,08,21,27,10,22,14,,,,,1.61,1.03,1.24*15
$GNVTG,,T,,M,0.371,N,0.687,K,A*31
$SMGPS,0.0 m,+0.00 m/s,7.27 VRx,0.001 km,8 m,12.3 °,1:-- (  0.0 km/h)*E6
$SMGPS2,-0.23 X,+0.06 Y,+0.94 Z,4 ENL,0 us*43
$GNRMC,161221.00,A,4816.48371,N,01139.86662,E,0.08,,080522,,,A*58
$GNGGA,161221.00,4816.48371,N,01139.86662,E,1,12,1.03,467.0,M,46.2,M,,*45
$GNGSA,A,3,32,01,08,21,27,10,22,14,,,,,1.61,1.03,1.24*15
$GNVTG,,T,,M,0.081,N,0.151,K,A*31
$SMGPS,-0.0 m,+0.01 m/s,7.25 VRx,0.001 km,9 m,14.2 °,1:-- (  0.0 km/h)*CE
$SMGPS2,-0.23 X,+0.06 Y,+0.94 Z,4 ENL,0 us*43
$GNRMC,161221.10,A,4816.48405,N,01139.86683,E,0.18,,080522,,,A*53
$GNGGA,161221.10,4816.48405,N,01139.86683,E,1,12,1.03,467.0,M,46.2,M,,*4F
$GNGSA,A,3,32,01,08,21,27,10,22,14,,,,,1.61,1.03,1.24*15
$GNVTG,,T,,M,0.182,N,0.336,K,A*30
$SMGPS,-0.0 m,+0.01 m/s,7.27 VRx,0.001 km,11 m,14.2 °,1:-- (  0.0 km/h)*F5
$SMGPS2,-0.24 X,+0.06 Y,+0.94 Z,5 ENL,0 us*45
$GNRMC,161221.20,A,4816.48414,N,01139.86695,E,0.13,,080522,,,A*5C
$GNGGA,161221.20,4816.48414,N,01139.86695,E,1,12,1.03,467.0,M,46.2,M,,*4B
$GNGSA,A,3,32,01,08,21,27,10,22,14,,,,,1.61,1.03,1.24*15
$GNVTG,,T,,M,0.129,N,0.239,K,A*3F
$SMGPS,-0.0 m,+0.01 m/s,7.25 VRx,0.001 km,11 m,15.6 °,1:-- (  0.0 km/h)*F2
$SMGPS2,-0.23 X,+0.06 Y,+0.93 Z,5 ENL,0 us*45
$GNRMC,161221.30,A,4816.48415,N,01139.86696,E,0.04,,080522,,,A*59
$GNGGA,161221.30,4816.48415,N,01139.86696,E,1,12,1.03,467.0,M,46.2,M,,*48
$GNGSA,A,3,32,01,08,21,27,10,22,14,,,,,1.61,1.03,1.24*15
$GNVTG,,T,,M,0.029,N,0.054,K,A*37
$SMGPS,0.0 m,+0.01 m/s,7.27 VRx,0.001 km,12 m,15.2 °,1:-- (  0.0 km/h)*DA
$SMGPS2,-0.24 X,+0.05 Y,+0.94 Z,5 ENL,0 us*46
$GNRMC,161221.40,A,4816.48414,N,01139.86695,E,0.15,,080522,,,A*5C
$GNGGA,161221.40,4816.48414,N,01139.86695,E,1,12,1.03,467.0,M,46.2,M,,*4D
$GNGSA,A,3,32,01,08,21,27,10,22,14,,,,,1.61,1.03,1.24*15
$GNVTG,,T,,M,0.146,N,0.269,K,A*33
$SMGPS,0.0 m,+0.01 m/s,7.26 VRx,0.001 km,12 m,15.2 °,1:-- (  0.0 km/h)*DB
$SMGPS2,-0.23 X,+0.06 Y,+0.93 Z,5 ENL,0 us*45
$GNRMC,161221.50,A,4816.48420,N,01139.86695,E,0.43,,080522,,,A*59
$GNGGA,161221.50,4816.48420,N,01139.86695,E,1,12,1.03,467.0,M,46.2,M,,*4B
$GNGSA,A,3,32,01,08,21,27,10,22,14,,,,,1.61,1.03,1.24*15
$GNVTG,,T,,M,0.432,N,0.801,K,A*31
$SMGPS,0.0 m,+0.01 m/s,7.27 VRx,0.001 km,12 m,15.2 °,1:-- (  0.0 km/h)*DA
$SMGPS2,-0.24 X,+0.06 Y,+0.94 Z,4 ENL,0 us*44
$GNRMC,161221.60,A,4816.48418,N,01139.86695,E,0.18,,080522,,,A*5F
$GNGGA,161221.60,4816.48418,N,01139.86695,E,1,12,1.03,467.0,M,46.2,M,,*43
$GNGSA,A,3,32,01,08,21,27,10,22,14,,,,,1.61,1.03,1.24*15
$GNVTG,,T,,M,0.179,N,0.331,K,A*33
$SMGPS,0.0 m,+0.01 m/s,7.25 VRx,0.001 km,12 m,15.2 °,1:-- (  0.0 km/h)*D8
$SMGPS2,-0.23 X,+0.06 Y,+0.93 Z,5 ENL,0 us*45
$GNRMC,161221.70,A,4816.48427,N,01139.86702,E,0.08,,080522,,,A*5C
$GNGGA,161221.70,4816.48427,N,01139.86702,E,1,12,1.03,467.0,M,46.2,M,,*41
$GNGSA,A,3,32,01,08,21,27,10,22,14,,,,,1.62,1.03,1.24*16
$GNVTG,,T,,M,0.081,N,0.150,K,A*30
$SMGPS,0.0 m,+0.02 m/s,7.28 VRx,0.001 km,12 m,15.2 °,1:-- (  0.0 km/h)*D6
$SMGPS2,-0.23 X,+0.06 Y,+0.94 Z,4 ENL,0 us*43
$GNRMC,161221.80,A,4816.48425,N,01139.86699,E,0.17,,080522,,,A*5C
$GNGGA,161221.80,4816.48425,N,01139.86699,E,1,12,1.26,467.0,M,46.2,M,,*48
$GNGSA,A,3,32,01,08,21,27,22,14,,,,,,1.77,1.26,1.24*14
$GNVTG,,T,,M,0.168,N,0.311,K,A*31
$SMGPS,0.0 m,+0.02 m/s,7.24 VRx,0.001 km,12 m,15.8 °,1:-- (  0.0 km/h)*D0
$SMGPS2,-0.23 X,+0.06 Y,+0.94 Z,4 ENL,0 us*43
$GNRMC,161221.90,A,4816.48436,N,01139.86705,E,0.13,,080522,,,A*5F
$GNGGA,161221.90,4816.48436,N,01139.86705,E,1,12,0.89,467.0,M,46.2,M,,*4B
$GNGSA,A,3,32,01,08,21,27,10,22,14,23,,,,1.45,0.89,1.15*13
$GNVTG,,T,,M,0.132,N,0.245,K,A*3E
$SMGPS,0.0 m,+0.02 m/s,7.28 VRx,0.001 km,12 m,15.2 °,1:-- (  0.0 km/h)*D6
$SMGPS2,-0.23 X,+0.06 Y,+0.94 Z,4 ENL,0 us*43
$GNRMC,161222.00,A,4816.48437,N,01139.86706,E,0.24,,080522,,,A*53
$GNGGA,161222.00,4816.48437,N,01139.86706,E,1,12,0.89,467.0,M,46.2,M,,*43
$GNGSA,A,3,32,01,08,21,27,10,22,14,23,,,,1.45,0.89,1.15*13
$GNVTG,,T,,M,0.237,N,0.439,K,A*35
$SMGPS,0.0 m,+0.03 m/s,7.24 VRx,0.001 km,12 m,15.8 °,1:-- (  0.0 km/h)*D1
$SMGPS2,-0.25 X,+0.06 Y,+0.95 Z,4 ENL,0 us*44
$GNRMC,161222.10,A,4816.48440,N,01139.86708,E,0.06,,080522,,,A*5C
$GNGGA,161222.10,4816.48440,N,01139.86708,E,1,12,0.89,467.0,M,46.2,M,,*4C
$GNGSA,A,3,32,01,08,21,27,10,22,14,23,,,,1.45,0.89,1.15*13
$GNVTG,,T,,M,0.056,N,0.104,K,A*3B
$SMGPS,-0.0 m,+0.02 m/s,7.28 VRx,0.001 km,12 m,15.8 °,1:-- (  0.0 km/h)*F1
$SMGPS2,-0.24 X,+0.06 Y,+0.92 Z,5 ENL,0 us*43
$GNRMC,161222.20,A,4816.48440,N,01139.86712,E,0.10,,080522,,,A*53
$GNGGA,161222.20,4816.48440,N,01139.86712,E,1,12,0.89,467.0,M,46.2,M,,*44
$GNGSA,A,3,32,01,08,21,27,10,22,14,23,,,,1.45,0.89,1.15*13
$GNVTG,,T,,M,0.093,N,0.172,K,A*33
$SMGPS,-0.0 m,+0.02 m/s,7.25 VRx,0.001 km,12 m,15.8 °,1:-- (  0.0 km/h)*FC
$SMGPS2,-0.23 X,+0.04 Y,+0.96 Z,8 ENL,0 us*4F
$GNRMC,161222.30,A,4816.48441,N,01139.86716,E,0.08,,080522,,,A*5E
$GNGGA,161222.30,4816.48441,N,01139.86716,E,1,12,0.89,467.0,M,46.2,M,,*40
$GNGSA,A,3,32,01,08,21,27,10,22,14,23,,,,1.45,0.89,1.15*13
$GNVTG,,T,,M,0.075,N,0.139,K,A*34
$SMGPS,-0.0 m,+0.01 m/s,7.27 VRx,0.001 km,12 m,15.8 °,1:-- (  0.0 km/h)*FD
$SMGPS2,-0.24 X,+0.05 Y,+0.93 Z,5 ENL,0 us*41
$GNRMC,161222.40,A,4816.48442,N,01139.86723,E,0.17,,080522,,,A*52
$GNGGA,161222.40,4816.48442,N,01139.86723,E,1,12,0.89,467.0,M,46.2,M,,*42
$GNGSA,A,3,32,01,08,21,27,10,22,14,23,,,,1.45,0.89,1.15*13
$GNVTG,,T,,M,0.169,N,0.312,K,A*33
$SMGPS,-0.0 m,+0.01 m/s,7.26 VRx,0.001 km,12 m,16.8 °,1:-- (  0.0 km/h)*FF
$SMGPS2,-0.23 X,+0.07 Y,+0.95 Z,5 ENL,0 us*42
$GNRMC,161222.50,A,4816.48445,N,01139.86731,E,0.04,,080522,,,A*55
$GNGGA,161222.50,4816.48445,N,01139.86731,E,1,12,0.89,467.0,M,46.2,M,,*47
$GNGSA,A,3,32,01,08,21,27,10,22,14,23,,,,1.45,0.89,1.15*13
$GNVTG,,T,,M,0.042,N,0.078,K,A*34
$SMGPS,-0.0 m,+0.00 m/s,7.27 VRx,0.001 km,12 m,16.8 °,1:-- (  0.0 km/h)*FF
$SMGPS2,-0.23 X,+0.06 Y,+0.94 Z,5 ENL,0 us*42
$GNRMC,161222.60,A,4816.48446,N,01139.86739,E,0.07,,080522,,,A*5E
$GNGGA,161222.60,4816.48446,N,01139.86739,E,1,12,0.89,467.0,M,46.2,M,,*4F
$GNGSA,A,3,32,01,08,21,27,10,22,14,23,,,,1.45,0.89,1.15*13
$GNVTG,,T,,M,0.066,N,0.122,K,A*3C
$SMGPS,-0.0 m,+0.00 m/s,7.26 VRx,0.001 km,12 m,17.4 °,1:-- (  0.0 km/h)*F3
$SMGPS2,-0.24 X,+0.06 Y,+0.94 Z,4 ENL,0 us*44
$GNRMC,161222.70,A,4816.48443,N,01139.86742,E,0.11,,080522,,,A*51
$GNGGA,161222.70,4816.48443,N,01139.86742,E,1,12,0.90,467.0,M,46.2,M,,*4F
$GNGSA,A,3,32,01,08,21,27,10,22,14,23,,,,1.46,0.90,1.16*1B
$GNVTG,,T,,M,0.104,N,0.193,K,A*33
$SMGPS,-0.0 m,-0.00 m/s,7.27 VRx,0.001 km,12 m,18.1 °,1:-- (  0.0 km/h)*FE
$SMGPS2,-0.23 X,+0.06 Y,+0.94 Z,3 ENL,0 us*44
$GNRMC,161222.80,A,4816.48448,N,01139.86749,E,0.09,,080522,,,A*57
$GNGGA,161222.80,4816.48448,N,01139.86749,E,1,12,0.75,467.0,M,46.2,M,,*4B
$GNGSA,A,3,32,01,08,21,27,10,22,14,23,,,,1.28,0.75,1.04*1B
$GNVTG,,T,,M,0.090,N,0.167,K,A*34
$SMGPS,-0.0 m,+0.00 m/s,7.25 VRx,0.001 km,12 m,18.1 °,1:-- (  0.0 km/h)*FA
$SMGPS2,-0.24 X,+0.06 Y,+0.93 Z,0 ENL,0 us*47
$GNRMC,161222.90,A,4816.48456,N,01139.86755,E,0.14,,080522,,,A*58
$GNGGA,161222.90,4816.48456,N,01139.86755,E,1,12,0.75,467.0,M,46.2,M,,*48
$GNGSA,A,3,32,01,08,21,27,10,22,14,23,,,,1.28,0.75,1.04*1B
$GNVTG,,T,,M,0.140,N,0.258,K,A*37
$SMGPS,0.0 m,-0.00 m/s,7.28 VRx,0.001 km,12 m,18.1 °,1:-- (  0.0 km/h)*DC
$SMGPS2,-0.23 X,+0.06 Y,+0.93 Z,3 ENL,0 us*43
$GNRMC,161223.00,A,4816.48466,N,01139.86766,E,0.22,,080522,,,A*56
$GNGGA,161223.00,4816.48466,N,01139.86766,E,1,12,0.73,467.0,M,46.2,M,,*45
$GNGSA,A,3,32,01,08,21,27,10,22,14,23,,,,1.27,0.73,1.04*12
$GNVTG,,T,,M,0.214,N,0.395,K,A*35
$SMGPS,-0.0 m,-0.01 m/s,7.25 VRx,0.001 km,12 m,18.7 °,1:-- (  0.0 km/h)*FB
$SMGPS2,-0.23 X,+0.06 Y,+0.94 Z,4 ENL,0 us*43
$GNRMC,161223.10,A,4816.48476,N,01139.86774,E,0.14,,080522,,,A*50
$GNGGA,161223.10,4816.48476,N,01139.86774,E,1,12,0.73,467.0,M,46.2,M,,*46
$GNGSA,A,3,32,01,08,21,27,10,22,14,23,,,,1.27,0.73,1.04*12
$GNVTG,,T,,M,0.130,N,0.241,K,A*38
$SMGPS,-0.0 m,-0.01 m/s,7.28 VRx,0.001 km,13 m,18.1 °,1:-- (  0.0 km/h)*F1
$SMGPS2,-0.23 X,+0.06 Y,+0.93 Z,4 ENL,0 us*44
$GNRMC,161223.20,A,4816.48482,N,01139.86781,E,0.44,,080522,,,A*57
$GNGGA,161223.20,4816.48482,N,01139.86781,E,1,12,0.73,467.0,M,46.2,M,,*44
$GNGSA,A,3,32,01,08,21,27,10,22,14,23,,,,1.27,0.73,1.04*12
$GNVTG,,T,,M,0.439,N,0.813,K,A*39
$SMGPS,0.0 m,-0.01 m/s,7.25 VRx,0.001 km,13 m,18.7 °,1:-- (  0.0 km/h)*D7
$SMGPS2,-0.24 X,+0.06 Y,+0.94 Z,5 ENL,0 us*45
$GNRMC,161223.30,A,4816.48486,N,01139.86787,E,0.04,,080522,,,A*50
$GNGGA,161223.30,4816.48486,N,01139.86787,E,1,12,0.73,467.0,M,46.2,M,,*47
$GNGSA,A,3,32,01,08,21,27,10,22,14,23,,,,1.27,0.73,1.04*12
$GNVTG,,T,,M,0.027,N,0.051,K,A*3C
$SMGPS,0.0 m,-0.01 m/s,7.29 VRx,0.001 km,13 m,18.7 °,1:-- (  0.0 km/h)*DB
$SMGPS2,-0.23 X,+0.06 Y,+0.94 Z,4 ENL,0 us*43
$GNRMC,161223.40,A,4816.48493,N,01139.86794,E,0.06,,080522,,,A*53
$GNGGA,161223.40,4816.48493,N,01139.86794,E,1,12,0.73,467.0,M,46.2,M,,*46
$GNGSA,A,3,32,01,08,21,27,10,22,14,23,,,,1.27,0.73,1.04*12
$GNVTG,,T,,M,0.058,N,0.107,K,A*36
$SMGPS,0.0 m,-0.00 m/s,7.25 VRx,0.001 km,13 m,19.3 °,1:-- (  0.0 km/h)*D3
$SMGPS2,-0.23 X,+0.06 Y,+0.94 Z,4 ENL,0 us*43
$GNRMC,161223.50,A,4816.48494,N,01139.86799,E,0.23,,080522,,,A*5F
$GNGGA,161223.50,4816.48494,N,01139.86799,E,1,12,0.73,467.0,M,46.2,M,,*4D
$GNGSA,A,3,32,01,08,21,27,10,22,14,23,,,,1.27,0.73,1.04*12
$GNVTG,,T,,M,0.225,N,0.417,K,A*3A
$SMGPS,0.0 m,+0.01 m/s,7.27 VRx,0.001 km,13 m,19.3 °,1:-- (  0.0 km/h)*D6
$SMGPS2,-0.24 X,+0.06 Y,+0.94 Z,5 ENL,0 us*45
$GNRMC,161223.60,A,4816.48499,N,01139.86806,E,0.20,,080522,,,A*5B
$GNGGA,161223.60,4816.48499,N,01139.86806,E,1,12,0.73,467.1,M,46.2,M,,*4B
$GNGSA,A,3,32,01,08,21,27,10,22,14,23,,,,1.27,0.73,1.04*12
$GNVTG,,T,,M,0.200,N,0.370,K,A*3B
$SMGPS,0.1 m,+0.02 m/s,7.24 VRx,0.001 km,13 m,20.2 °,1:-- (  0.0 km/h)*DC
$SMGPS2,-0.23 X,+0.06 Y,+0.93 Z,5 ENL,0 us*45
$GNRMC,161223.70,A,4816.48501,N,01139.86810,E,0.11,,080522,,,A*5F
$GNGGA,161223.70,4816.48501,N,01139.86810,E,1,12,0.73,467.0,M,46.2,M,,*4C
$GNGSA,A,3,32,01,08,21,27,10,22,14,23,,,,1.27,0.73,1.04*12
$GNVTG,,T,,M,0.109,N,0.202,K,A*35
$SMGPS,-0.0 m,+0.03 m/s,7.29 VRx,0.001 km,13 m,20.2 °,1:-- (  0.0 km/h)*FC
$SMGPS2,-0.23 X,+0.06 Y,+0.93 Z,4 ENL,0 us*44
$GNRMC,161223.80,A,4816.48504,N,01139.86814,E,0.07,,080522,,,A*56
$GNGGA,161223.80,4816.48504,N,01139.86814,E,1,12,0.73,467.0,M,46.2,M,,*42
$GNGSA,A,3,32,01,08,21,27,10,22,14,23,,,,1.27,0.73,1.04*12
$GNVTG,,T,,M,0.066,N,0.122,K,A*3C
$SMGPS,0.0 m,+0.03 m/s,7.25 VRx,0.001 km,13 m,20.2 °,1:-- (  0.0 km/h)*DD
$SMGPS2,-0.24 X,+0.06 Y,+0.94 Z,4 ENL,0 us*44
$GNRMC,161223.90,A,4816.48506,N,01139.86815,E,0.21,,080522,,,A*50
$GNGGA,161223.90,4816.48506,N,01139.86815,E,1,12,0.73,467.0,M,46.2,M,,*40
$GNGSA,A,3,32,01,08,21,27,10,22,14,23,,,,1.27,0.73,1.04*12
$GNVTG,,T,,M,0.203,N,0.376,K,A*3E
$SMGPS,0.0 m,+0.03 m/s,7.27 VRx,0.001 km,13 m,20.7 °,1:-- (  0.0 km/h)*DA
$SMGPS2,-0.24 X,+0.06 Y,+0.93 Z,3 ENL,0 us*44
$GNRMC,161224.00,A,4816.48508,N,01139.86817,E,0.18,,080522,,,A*58
$GNGGA,161224.00,4816.48508,N,01139.86817,E,1,12,0.73,467.0,M,46.2,M,,*42
$GNGSA,A,3,32,01,08,21,27,10,22,14,23,,,,1.27,0.73,1.04*12
$GNVTG,,T,,M,0.175,N,0.324,K,A*3B
$SMGPS,-0.0 m,+0.03 m/s,7.26 VRx,0.001 km,13 m,20.7 °,1:-- (  0.0 km/h)*F6
$SMGPS2,-0.23 X,+0.06 Y,+0.94 Z,3 ENL,0 us*44
$GNRMC,161224.10,A,4816.48508,N,01139.86816,E,0.20,,080522,,,A*53
$GNGGA,161224.10,4816.48508,N,01139.86816,E,1,12,0.73,467.0,M,46.2,M,,*42
$GNGSA,A,3,32,01,08,21,27,10,22,14,23,,,,1.27,0.73,1.04*12
$GNVTG,,T,,M,0.201,N,0.373,K,A*39
$SMGPS,-0.0 m,+0.02 m/s,7.28 VRx,0.001 km,13 m,20.7 °,1:-- (  0.0 km/h)*F9
$SMGPS2,-0.23 X,+0.06 Y,+0.93 Z,4 ENL,0 us*44
$GNRMC,161224.20,A,4816.48505,N,01139.86815,E,0.22,,080522,,,A*5C
$GNGGA,161224.20,4816.48505,N,01139.86815,E,1,12,0.73,467.0,M,46.2,M,,*4F
$GNGSA,A,3,32,01,08,21,27,10,22,14,23,,,,1.27,0.73,1.04*12
$GNVTG,,T,,M,0.214,N,0.397,K,A*37
$SMGPS,0.0 m,+0.02 m/s,7.25 VRx,0.001 km,13 m,20.7 °,1:-- (  0.0 km/h)*D9
$SMGPS2,-0.24 X,+0.06 Y,+0.93 Z,1 ENL,0 us*46
$GNRMC,161224.30,A,4816.48503,N,01139.86815,E,0.05,,080522,,,A*5E
$GNGGA,161224.30,4816.48503,N,01139.86815,E,1,12,0.73,467.0,M,46.2,M,,*48
$GNGSA,A,3,32,01,08,21,27,10,22,14,23,,,,1.27,0.73,1.04*12
$GNVTG,,T,,M,0.041,N,0.075,K,A*3A
$SMGPS,0.0 m,+0.01 m/s,7.28 VRx,0.001 km,13 m,20.7 °,1:-- (  0.0 km/h)*D7
$SMGPS2,-0.23 X,+0.06 Y,+0.93 Z,5 ENL,0 us*45
$GNRMC,161224.40,A,4816.48503,N,01139.86816,E,0.16,,080522,,,A*58
$GNGGA,161224.40,4816.48503,N,01139.86816,E,1,12,0.73,467.0,M,46.2,M,,*4C
$GNGSA,A,3,32,01,08,21,27,10,22,14,23,,,,1.27,0.73,1.04*12
$GNVTG,,T,,M,0.157,N,0.290,K,A*35
$SMGPS,-0.0 m,+0.00 m/s,7.26 VRx,0.001 km,13 m,20.7 °,1:-- (  0.0 km/h)*F5
$SMGPS2,-0.23 X,+0.06 Y,+0.93 Z,4 ENL,0 us*44
$GNRMC,161224.50,A,4816.48503,N,01139.86817,E,0.23,,080522,,,A*5E
$GNGGA,161224.50,4816.48503,N,01139.86817,E,1,12,0.73,467.0,M,46.2,M,,*4C
$GNGSA,A,3,32,01,08,21,27,10,22,14,23,,,,1.27,0.73,1.04*12
$GNVTG,,T,,M,0.228,N,0.422,K,A*31
$SMGPS,0.0 m,+0.00 m/s,7.29 VRx,0.001 km,13 m,20.7 °,1:-- (  0.0 km/h)*D7
$SMGPS2,-0.24 X,+0.06 Y,+0.93 Z,1 ENL,0 us*46
$GNRMC,161224.60,A,4816.48497,N,01139.86814,E,0.17,,080522,,,A*55
$GNGGA,161224.60,4816.48497,N,01139.86814,E,1,12,0.69,467.0,M,46.2,M,,*4B
$GNGSA,A,3,32,01,08,21,27,10,22,14,23,,,,1.25,0.69,1.04*1B
$GNVTG,,T,,M,0.165,N,0.305,K,A*39
$SMGPS,0.0 m,+0.00 m/s,7.27 VRx,0.001 km,13 m,20.7 °,1:-- (  0.0 km/h)*D9
$SMGPS2,-0.24 X,+0.06 Y,+0.93 Z,1 ENL,0 us*46
$GNRMC,161224.70,A,4816.48493,N,01139.86811,E,0.15,,080522,,,A*57
$GNGGA,161224.70,4816.48493,N,01139.86811,E,1,12,0.69,467.0,M,46.2,M,,*4B
$GNGSA,A,3,32,01,08,21,27,10,22,14,23,,,,1.25,0.69,1.04*1B
$GNVTG,,T,,M,0.145,N,0.268,K,A*31
$SMGPS,-0.0 m,+0.00 m/s,7.29 VRx,0.001 km,13 m,20.7 °,1:-- (  0.0 km/h)*FA
$SMGPS2,-0.23 X,+0.06 Y,+0.94 Z,3 ENL,0 us*44
$GNRMC,161224.80,A,4816.48491,N,01139.86810,E,0.28,,080522,,,A*55
$GNGGA,161224.80,4816.48491,N,01139.86810,E,1,12,0.69,467.0,M,46.2,M,,*47
$GNGSA,A,3,32,01,08,21,27,10,22,14,23,,,,1.25,0.69,1.04*1B
$GNVTG,,T,,M,0.275,N,0.510,K,A*39
$SMGPS,0.0 m,+0.01 m/s,7.26 VRx,0.001 km,13 m,20.7 °,1:-- (  0.0 km/h)*D9
$SMGPS2,-0.24 X,+0.06 Y,+0.94 Z,1 ENL,0 us*41
$GNRMC,161224.90,A,4816.48488,N,01139.86809,E,0.53,,080522,,,A*58
$GNGGA,161224.90,4816.48488,N,01139.86809,E,1,12,0.69,467.0,M,46.2,M,,*46
$GNGSA,A,3,32,01,08,21,27,10,22,14,23,,,,1.25,0.69,1.04*1B
$GNVTG,,T,,M,0.529,N,0.980,K,A*32
$SMGPS,0.0 m,+0.01 m/s,7.29 VRx,0.001 km,13 m,20.2 °,1:-- (  0.0 km/h)*D3
$SMGPS2,-0.23 X,+0.06 Y,+0.94 Z,0 ENL,0 us*47
$GNRMC,161225.00,A,4816.48484,N,01139.86806,E,0.31,,080522,,,A*57
$GNGGA,161225.00,4816.48484,N,01139.86806,E,1,12,0.69,467.0,M,46.2,M,,*4D
$GNGSA,A,3,32,01,08,21,27,10,22,14,23,,,,1.25,0.69,1.04*1B
$GNVTG,,T,,M,0.305,N,0.565,K,A*3D
$SMGPS,-0.0 m,+0.00 m/s,7.27 VRx,0.001 km,13 m,20.2 °,1:-- (  0.0 km/h)*F1
$SMGPS2,-0.23 X,+0.06 Y,+0.93 Z,3 ENL,0 us*43
$GNRMC,161225.10,A,4816.48483,N,01139.86805,E,0.16,,080522,,,A*57
$GNGGA,161225.10,4816.48483,N,01139.86805,E,1,12,0.69,467.0,M,46.2,M,,*48
$GNGSA,A,3,32,01,08,21,27,10,22,14,23,,,,1.25,0.69,1.04*1B
$GNVTG,,T,,M,0.156,N,0.288,K,A*3D
$SMGPS,0.0 m,+0.00 m/s,7.28 VRx,0.001 km,13 m,20.2 °,1:-- (  0.0 km/h)*D3
$SMGPS2,-0.23 X,+0.06 Y,+0.93 Z,3 ENL,0 us*43
$GNRMC,161225.20,A,4816.48480,N,01139.86802,E,0.06,,080522,,,A*51
$GNGGA,161225.20,4816.48480,N,01139.86802,E,1,12,0.69,467.0,M,46.2,M,,*4F
$GNGSA,A,3,32,01,08,21,27,10,22,14,23,,,,1.25,0.69,1.04*1B
$GNVTG,,T,,M,0.057,N,0.105,K,A*3B
$SMGPS,0.0 m,+0.00 m/s,7.27 VRx,0.001 km,13 m,20.2 °,1:-- (  0.0 km/h)*DC
$SMGPS2,-0.24 X,+0.07 Y,+0.89 Z,1 ENL,0 us*4C
$GNRMC,161225.30,A,4816.48477,N,01139.86801,E,0.17,,080522,,,A*5B
$GNGGA,161225.30,4816.48477,N,01139.86801,E,1,12,0.69,467.0,M,46.2,M,,*45
$GNGSA,A,3,32,01,08,21,27,10,22,14,23,,,,1.25,0.69,1.04*1B
$GNVTG,,T,,M,0.166,N,0.307,K,A*38
$SMGPS,0.0 m,+0.01 m/s,7.28 VRx,0.001 km,13 m,20.2 °,1:-- (  0.0 km/h)*D2
$SMGPS2,-0.24 X,+0.07 Y,+0.95 Z,3 ENL,0 us*43
$GNRMC,161225.40,A,4816.48475,N,01139.86800,E,0.22,,080522,,,A*59
$GNGGA,161225.40,4816.48475,N,01139.86800,E,1,12,0.69,467.0,M,46.2,M,,*41
$GNGSA,A,3,32,01,08,21,27,10,22,14,23,,,,1.25,0.69,1.04*1B
$GNVTG,,T,,M,0.220,N,0.408,K,A*31
$SMGPS,-0.0 m,+0.01 m/s,7.27 VRx,0.001 km,13 m,20.2 °,1:-- (  0.0 km/h)*F0
$SMGPS2,-0.23 X,+0.06 Y,+0.93 Z,5 ENL,0 us*45
$GNRMC,161225.50,A,4816.48473,N,01139.86799,E,0.32,,080522,,,A*50
$GNGGA,161225.50,4816.48473,N,01139.86799,E,1,12,0.69,467.0,M,46.2,M,,*49
$GNGSA,A,3,32,01,08,21,27,10,22,14,23,,,,1.25,0.69,1.04*1B
$GNVTG,,T,,M,0.318,N,0.589,K,A*33
$SMGPS,-0.0 m,+0.01 m/s,7.29 VRx,0.001 km,13 m,20.2 °,1:-- (  0.0 km/h)*FE
$SMGPS2,-0.24 X,+0.06 Y,+0.94 Z,1 ENL,0 us*41
