$GPSSETUP,8AE8,0,1,1,0,0,1,0,0,0,1,3,0,0,0,0,6,0,C8,C8,1F4,1C2,32,64,7C,64,7D0,5,1,1,1E,0,0,0,0,0,0,1003,4,10,5,6,10,10,10,10,10,10,10,10,10,BC10,0,7C,0,108,302,604,0,20F,0,0,0,0,0,0,0,0,0,0,0,0,0,0,0,0,0,0,0,0,0,0,0,0,0,0,0,0,0,0,0,0,0,20,12C,877D*47
$GNRMC,161915.10,A,4816.48031,N,01139.86871,E,1.51,,080522,,,A*53
$GNGGA,161915.10,4816.48031,N,01139.86871,E,1,07,1.66,457.3,M,46.2,M,,*44
$GNGSA,A,3,01,21,27,32,14,,,,,,,,2.67,1.66,2.09*16
$GNVTG,,T,,M,1.512,N,2.800,K,A*30
$SMGPS,-0.0 m,+0.01 m/s,7.64 VRx,0.000 km,1 m,9.4 °,1:-- (  0.0 km/h)*F8
$SMGPS2,-0.19 X,-0.24 Y,+0.92 Z,13 ENL,0 us*7C
$GNRMC,161915.20,A,4816.47919,N,01139.86842,E,1.01,,080522,,,A*59
$GNGGA,161915.20,4816.47919,N,01139.86842,E,1,07,1.66,457.3,M,46.2,M,,*4B
$GNGSA,A,3,01,21,27,32,14,,,,,,,,2.67,1.66,2.09*16
$GNVTG,,T,,M,1.007,N,1.865,K,A*31
$SMGPS,-0.0 m,+0.01 m/s,7.58 VRx,0.001 km,1 m,146.4 °,1:-- (  0.0 km/h)*FC
$SMGPS2,-0.15 X,-0.22 Y,+0.94 Z,213 ENL,0 us*42
$GNRMC,161915.30,A,4816.47832,N,01139.86809,E,1.52,,080522,,,A*59
$GNGGA,161915.30,4816.47832,N,01139.86809,E,1,07,1.66,457.3,M,46.2,M,,*4D
$GNGSA,A,3,01,21,27,32,14,,,,,,,,2.67,1.66,2.09*16
$GNVTG,,T,,M,1.521,N,2.817,K,A*36
$SMGPS,-0.0 m,+0.00 m/s,7.59 VRx,0.001 km,3 m,175.2 °,1:-- (  0.0 km/h)*F8
$SMGPS2,-0.18 X,-0.19 Y,+0.91 Z,237 ENL,0 us*44
$GNRMC,161915.40,A,4816.47902,N,01139.86889,E,1.03,,080522,,,A*50
$GNGGA,161915.40,4816.47902,N,01139.86889,E,1,08,1.22,457.2,M,46.2,M,,*4E
$GNGSA,A,3,01,21,27,10,32,14,,,,,,,2.41,1.22,2.08*12
$GNVTG,,T,,M,1.028,N,1.903,K,A*3D
$SMGPS,-0.1 m,-0.00 m/s,7.63 VRx,0.002 km,4 m,181.9 °,1:-- (  0.0 km/h)*F2
$SMGPS2,-0.18 X,-0.23 Y,+0.93 Z,68 ENL,0 us*77
$GNRMC,161915.50,A,4816.47957,N,01139.86955,E,0.79,,080522,,,A*5D
$GNGGA,161915.50,4816.47957,N,01139.86955,E,1,07,1.30,457.3,M,46.2,M,,*42
$GNGSA,A,3,01,27,10,32,14,,,,,,,,3.61,1.30,3.37*1C
$GNVTG,,T,,M,0.790,N,1.464,K,A*34
$SMGPS,-0.0 m,-0.00 m/s,7.61 VRx,0.002 km,4 m,166.0 °,1:-- (  0.0 km/h)*F1
$SMGPS2,-0.18 X,-0.23 Y,+0.89 Z,8 ENL,0 us*4A
$GNRMC,161915.60,A,4816.48050,N,01139.87019,E,0.19,,080522,,,A*59
$GNGGA,161915.60,4816.48050,N,01139.87019,E,1,09,1.19,457.3,M,46.2,M,,*45
$GNGSA,A,3,01,21,27,10,32,14,,,,,,,2.11,1.19,1.75*16
$GNVTG,,T,,M,0.188,N,0.348,K,A*33
$SMGPS,-0.0 m,-0.00 m/s,7.57 VRx,0.002 km,3 m,147.5 °,1:-- (  0.0 km/h)*F5
$SMGPS2,-0.19 X,-0.22 Y,+0.94 Z,4 ENL,0 us*4A
$GNRMC,161915.70,A,4816.48121,N,01139.87061,E,0.44,,080522,,,A*58
$GNGGA,161915.70,4816.48121,N,01139.87061,E,1,09,1.19,457.3,M,46.2,M,,*4C
$GNGSA,A,3,01,21,27,10,32,14,,,,,,,2.11,1.19,1.75*16
$GNVTG,,T,,M,0.442,N,0.818,K,A*3E
$SMGPS,-0.0 m,+0.00 m/s,7.59 VRx,0.002 km,3 m,108.5 °,1:-- (  0.0 km/h)*F6
$SMGPS2,-0.18 X,-0.22 Y,+0.94 Z,1 ENL,0 us*4E
$GNRMC,161915.80,A,4816.48164,N,01139.87080,E,0.23,,080522,,,A*58
$GNGGA,161915.80,4816.48164,N,01139.87080,E,1,09,1.19,457.3,M,46.2,M,,*4D
$GNGSA,A,3,01,21,27,10,32,14,,,,,,,2.11,1.19,1.75*16
$GNVTG,,T,,M,0.228,N,0.423,K,A*30
$SMGPS,0.0 m,+0.00 m/s,7.57 VRx,0.002 km,3 m,66.8 °,1:-- (  0.0 km/h)*E1
$SMGPS2,-0.18 X,-0.21 Y,+0.92 Z,0 ENL,0 us*4A
$GNRMC,161915.90,A,4816.48206,N,01139.87074,E,0.13,,080522,,,A*56
$GNGGA,161915.90,4816.48206,N,01139.87074,E,1,10,1.14,457.3,M,46.2,M,,*45
$GNGSA,A,3,01,21,27,10,32,14,,,,,,,1.99,1.14,1.63*1F
$GNVTG,,T,,M,0.125,N,0.232,K,A*38
$SMGPS,0.0 m,+0.00 m/s,7.60 VRx,0.002 km,4 m,69.0 °,1:-- (  0.0 km/h)*E5
$SMGPS2,-0.18 X,-0.24 Y,+0.92 Z,0 ENL,0 us*4F
$GNRMC,161916.00,A,4816.48231,N,01139.87055,E,0.09,,080522,,,A*50
$GNGGA,161916.00,4816.48231,N,01139.87055,E,1,10,1.14,457.3,M,46.2,M,,*48
$GNGSA,A,3,01,21,27,10,32,14,,,,,,,1.99,1.14,1.63*1F
$GNVTG,,T,,M,0.090,N,0.167,K,A*34
$SMGPS,-0.0 m,+0.01 m/s,7.58 VRx,0.002 km,4 m,55.7 °,1:-- (  0.0 km/h)*CA
$SMGPS2,-0.20 X,-0.17 Y,+0.94 Z,6 ENL,0 us*44
$GNRMC,161916.10,A,4816.48224,N,01139.87029,E,0.43,,080522,,,A*50
$GNGGA,161916.10,4816.48224,N,01139.87029,E,1,12,1.10,457.3,M,46.2,M,,*40
$GNGSA,A,3,01,08,21,27,10,32,14,,,,,,1.78,1.10,1.40*1D
$GNVTG,,T,,M,0.425,N,0.788,K,A*39
$SMGPS,-0.0 m,+0.01 m/s,7.59 VRx,0.002 km,4 m,45.0 °,1:-- (  0.0 km/h)*CD
$SMGPS2,-0.20 X,-0.21 Y,+0.94 Z,4 ENL,0 us*43
$GNRMC,161916.20,A,4816.48221,N,01139.87006,E,0.08,,080522,,,A*54
$GNGGA,161916.20,4816.48221,N,01139.87006,E,1,12,1.10,457.3,M,46.2,M,,*4B
$GNGSA,A,3,01,08,21,27,10,32,14,,,,,,1.78,1.10,1.40*1D
$GNVTG,,T,,M,0.075,N,0.138,K,A*35
$SMGPS,0.0 m,+0.01 m/s,7.57 VRx,0.002 km,4 m,40.6 °,1:-- (  0.0 km/h)*ED
$SMGPS2,-0.19 X,-0.21 Y,+0.92 Z,1 ENL,0 us*4A
$GNRMC,161916.30,A,4816.48223,N,01139.86990,E,0.12,,080522,,,A*5B
$GNGGA,161916.30,4816.48223,N,01139.86990,E,1,12,1.10,457.3,M,46.2,M,,*4F
$GNGSA,A,3,01,08,21,27,10,32,14,,,,,,1.78,1.10,1.39*13
$GNVTG,,T,,M,0.117,N,0.218,K,A*31
$SMGPS,-0.0 m,+0.02 m/s,7.60 VRx,0.002 km,4 m,38.9 °,1:-- (  0.0 km/h)*C7
$SMGPS2,-0.19 X,-0.22 Y,+0.92 Z,5 ENL,0 us*4D
$GNRMC,161916.40,A,4816.48238,N,01139.86970,E,0.36,,080522,,,A*5E
$GNGGA,161916.40,4816.48238,N,01139.86970,E,1,12,1.10,457.3,M,46.2,M,,*4C
$GNGSA,A,3,01,08,21,27,10,32,14,,,,,,1.78,1.10,1.39*13
$GNVTG,,T,,M,0.361,N,0.668,K,A*31
$SMGPS,0.0 m,+0.02 m/s,7.57 VRx,0.002 km,4 m,35.5 °,1:-- (  0.0 km/h)*EF
$SMGPS2,-0.19 X,-0.20 Y,+0.93 Z,1 ENL,0 us*4A
$GNRMC,161916.50,A,4816.48259,N,01139.86967,E,0.40,,080522,,,A*5F
$GNGGA,161916.50,4816.48259,N,01139.86967,E,1,11,1.10,457.3,M,46.2,M,,*4F
$GNGSA,A,3,01,08,21,27,10,32,14,,,,,,1.82,1.10,1.45*1D
$GNVTG,,T,,M,0.399,N,0.739,K,A*33
$SMGPS,0.0 m,+0.02 m/s,7.61 VRx,0.002 km,4 m,32.7 °,1:-- (  0.0 km/h)*EF
$SMGPS2,-0.20 X,-0.20 Y,+0.93 Z,5 ENL,0 us*44
$GNRMC,161916.60,A,4816.48276,N,01139.86962,E,0.11,,080522,,,A*50
$GNGGA,161916.60,4816.48276,N,01139.86962,E,1,11,1.10,457.3,M,46.2,M,,*44
$GNGSA,A,3,01,08,21,27,10,32,14,,,,,,1.82,1.10,1.45*1D
$GNVTG,,T,,M,0.096,N,0.178,K,A*3C
$SMGPS,0.0 m,+0.02 m/s,7.57 VRx,0.002 km,3 m,30.7 °,1:-- (  0.0 km/h)*EF
$SMGPS2,-0.17 X,-0.21 Y,+0.92 Z,1 ENL,0 us*44
$GNRMC,161916.70,A,4816.48291,N,01139.86966,E,0.35,,080522,,,A*5A
$GNGGA,161916.70,4816.48291,N,01139.86966,E,1,12,0.96,457.3,M,46.2,M,,*44
$GNGSA,A,3,01,08,21,27,10,32,14,,,,,,1.74,0.96,1.45*1B
$GNVTG,,T,,M,0.340,N,0.629,K,A*37
$SMGPS,0.0 m,+0.02 m/s,7.60 VRx,0.002 km,4 m,24.8 °,1:-- (  0.0 km/h)*E6
$SMGPS2,-0.18 X,-0.22 Y,+0.96 Z,1 ENL,0 us*4C
$GNRMC,161916.80,A,4816.48281,N,01139.86955,E,0.13,,080522,,,A*50
$GNGGA,161916.80,4816.48281,N,01139.86955,E,1,10,1.15,457.3,M,46.2,M,,*42
$GNGSA,A,3,01,08,21,27,10,32,14,,,,,,2.02,1.15,1.65*11
$GNVTG,,T,,M,0.103,N,0.191,K,A*36
$SMGPS,0.0 m,+0.03 m/s,7.59 VRx,0.002 km,4 m,24.8 °,1:-- (  0.0 km/h)*ED
$SMGPS2,-0.22 X,-0.21 Y,+0.94 Z,1 ENL,0 us*44
$GNRMC,161916.90,A,4816.48285,N,01139.86965,E,0.22,,080522,,,A*54
$GNGGA,161916.90,4816.48285,N,01139.86965,E,1,11,1.10,457.3,M,46.2,M,,*40
$GNGSA,A,3,01,08,21,27,10,32,14,,,,,,1.82,1.10,1.45*1D
$GNVTG,,T,,M,0.208,N,0.384,K,A*38
$SMGPS,0.0 m,+0.03 m/s,7.60 VRx,0.002 km,4 m,23.0 °,1:-- (  0.0 km/h)*E8
$SMGPS2,-0.17 X,-0.19 Y,+0.95 Z,1 ENL,0 us*48
$GNRMC,161917.00,A,4816.48297,N,01139.86978,E,0.62,,080522,,,A*57
$GNGGA,161917.00,4816.48297,N,01139.86978,E,1,12,0.96,457.3,M,46.2,M,,*4B
$GNGSA,A,3,01,08,21,27,10,32,14,,,,,,1.74,0.96,1.45*1B
$GNVTG,,T,,M,0.620,N,1.149,K,A*34
$SMGPS,0.0 m,+0.02 m/s,7.59 VRx,0.002 km,4 m,24.8 °,1:-- (  0.0 km/h)*EC
$SMGPS2,-0.17 X,-0.16 Y,+0.90 Z,1 ENL,0 us*42
$GNRMC,161917.10,A,4816.48299,N,01139.86982,E,0.58,,080522,,,A*54
$GNGGA,161917.10,4816.48299,N,01139.86982,E,1,12,0.96,457.3,M,46.2,M,,*41
$GNGSA,A,3,01,08,21,27,10,32,14,,,,,,1.74,0.96,1.45*1B
$GNVTG,,T,,M,0.580,N,1.073,K,A*35
$SMGPS,-0.0 m,+0.02 m/s,7.60 VRx,0.002 km,4 m,26.5 °,1:-- (  0.0 km/h)*C4
$SMGPS2,-0.18 X,-0.16 Y,+0.95 Z,1 ENL,0 us*48
$GNRMC,161917.20,A,4816.48299,N,01139.86980,E,0.12,,080522,,,A*5B
$GNGGA,161917.20,4816.48299,N,01139.86980,E,1,12,0.96,457.3,M,46.2,M,,*40
$GNGSA,A,3,01,08,21,27,10,32,14,,,,,,1.74,0.96,1.45*1B
$GNVTG,,T,,M,0.108,N,0.200,K,A*36
$SMGPS,-0.0 m,+0.02 m/s,7.58 VRx,0.002 km,4 m,29.0 °,1:-- (  0.0 km/h)*C5
$SMGPS2,-0.15 X,-0.14 Y,+0.87 Z,1 ENL,0 us*44
$GNRMC,161917.30,A,4816.48296,N,01139.86976,E,0.08,,080522,,,A*57
$GNGGA,161917.30,4816.48296,N,01139.86976,E,1,12,0.96,457.3,M,46.2,M,,*47
$GNGSA,A,3,01,08,21,27,10,32,14,,,,,,1.74,0.96,1.45*1B
$GNVTG,,T,,M,0.062,N,0.115,K,A*3C
$SMGPS,0.0 m,+0.02 m/s,7.61 VRx,0.002 km,4 m,26.5 °,1:-- (  0.0 km/h)*E8
$SMGPS2,-0.21 X,-0.12 Y,+0.98 Z,2 ENL,0 us*48
$GNRMC,161917.40,A,4816.48290,N,01139.86970,E,0.50,,080522,,,A*5D
$GNGGA,161917.40,4816.48290,N,01139.86970,E,1,12,0.96,457.3,M,46.2,M,,*40
$GNGSA,A,3,01,08,21,27,10,32,14,,,,,,1.74,0.96,1.45*1B
$GNVTG,,T,,M,0.497,N,0.920,K,A*3C
$SMGPS,-0.0 m,+0.02 m/s,7.58 VRx,0.002 km,4 m,26.5 °,1:-- (  0.0 km/h)*CF
$SMGPS2,-0.16 X,-0.09 Y,+0.93 Z,1 ENL,0 us*4E
$GNRMC,161917.50,A,4816.48294,N,01139.86958,E,0.37,,080522,,,A*53
$GNGGA,161917.50,4816.48294,N,01139.86958,E,1,12,0.88,457.3,M,46.2,M,,*40
$GNGSA,A,3,01,08,21,27,10,32,22,14,,,,,1.54,0.88,1.26*13
$GNVTG,,T,,M,0.369,N,0.683,K,A*3C
$SMGPS,-0.0 m,+0.01 m/s,7.61 VRx,0.002 km,4 m,26.5 °,1:-- (  0.0 km/h)*C6
$SMGPS2,-0.18 X,-0.07 Y,+1.01 Z,21 ENL,0 us*76
$GNRMC,161917.60,A,4816.48305,N,01139.86957,E,0.23,,080522,,,A*53
$GNGGA,161917.60,4816.48305,N,01139.86957,E,1,12,0.88,457.3,M,46.2,M,,*45
$GNGSA,A,3,01,08,21,27,10,32,22,14,,,,,1.54,0.88,1.26*13
$GNVTG,,T,,M,0.226,N,0.419,K,A*37
$SMGPS,-0.0 m,+0.00 m/s,7.58 VRx,0.002 km,4 m,24.8 °,1:-- (  0.0 km/h)*C2
$SMGPS2,-0.20 X,-0.13 Y,+0.93 Z,2 ENL,0 us*43
$GNRMC,161917.70,A,4816.48306,N,01139.86962,E,0.17,,080522,,,A*50
$GNGGA,161917.70,4816.48306,N,01139.86962,E,1,12,0.88,457.3,M,46.2,M,,*41
$GNGSA,A,3,01,08,21,27,10,32,22,14,,,,,1.54,0.88,1.26*13
$GNVTG,,T,,M,0.167,N,0.309,K,A*37
$SMGPS,-0.0 m,-0.00 m/s,7.61 VRx,0.002 km,4 m,24.8 °,1:-- (  0.0 km/h)*CE
$SMGPS2,-0.16 X,-0.04 Y,+0.93 Z,2 ENL,0 us*40
$GNRMC,161917.80,A,4816.48310,N,01139.86966,E,0.04,,080522,,,A*5E
$GNGGA,161917.80,4816.48310,N,01139.86966,E,1,12,0.88,457.3,M,46.2,M,,*4D
$GNGSA,A,3,01,08,21,27,10,32,22,14,,,,,1.54,0.88,1.26*13
$GNVTG,,T,,M,0.040,N,0.075,K,A*3B
$SMGPS,0.0 m,-0.01 m/s,7.59 VRx,0.002 km,4 m,24.8 °,1:-- (  0.0 km/h)*E9
$SMGPS2,-0.20 X,-0.03 Y,+0.96 Z,55 ENL,0 us*75
$GNRMC,161917.90,A,4816.48317,N,01139.86969,E,0.10,,080522,,,A*52
$GNGGA,161917.90,4816.48317,N,01139.86969,E,1,12,0.76,457.3,M,46.2,M,,*45
$GNGSA,A,3,01,08,21,27,10,32,22,14,,,,,1.41,0.76,1.19*1A
$GNVTG,,T,,M,0.098,N,0.181,K,A*34
$SMGPS,0.0 m,-0.01 m/s,7.60 VRx,0.002 km,4 m,24.8 °,1:-- (  0.0 km/h)*E3
$SMGPS2,-0.25 X,-0.07 Y,+0.97 Z,1 ENL,0 us*44
$GNRMC,161918.00,A,4816.48321,N,01139.86967,E,0.11,,080522,,,A*5E
$GNGGA,161918.00,4816.48321,N,01139.86967,E,1,12,0.76,457.3,M,46.2,M,,*48
$GNGSA,A,3,01,08,21,27,10,32,22,14,,,,,1.41,0.76,1.19*1A
$GNVTG,,T,,M,0.112,N,0.207,K,A*3A
$SMGPS,0.0 m,-0.01 m/s,7.59 VRx,0.002 km,5 m,22.2 °,1:-- (  0.0 km/h)*E4
$SMGPS2,-0.16 X,-0.07 Y,+0.92 Z,5 ENL,0 us*45
$GNRMC,161918.10,A,4816.48333,N,01139.86964,E,0.02,,080522,,,A*5D
$GNGGA,161918.10,4816.48333,N,01139.86964,E,1,12,0.76,457.3,M,46.2,M,,*49
$GNGSA,A,3,01,08,21,27,10,32,22,14,,,,,1.41,0.76,1.19*1A
$GNVTG,,T,,M,0.016,N,0.029,K,A*31
$SMGPS,-0.0 m,-0.01 m/s,7.60 VRx,0.002 km,5 m,20.7 °,1:-- (  0.0 km/h)*C4
$SMGPS2,-0.21 X,-0.06 Y,+0.97 Z,1 ENL,0 us*41
$GNRMC,161918.20,A,4816.48344,N,01139.86966,E,0.11,,080522,,,A*5E
$GNGGA,161918.20,4816.48344,N,01139.86966,E,1,12,0.76,457.3,M,46.2,M,,*48
$GNGSA,A,3,01,08,21,27,10,32,22,14,,,,,1.41,0.76,1.19*1A
$GNVTG,,T,,M,0.108,N,0.201,K,A*37
$SMGPS,0.0 m,-0.01 m/s,7.59 VRx,0.002 km,5 m,20.7 °,1:-- (  0.0 km/h)*E3
$SMGPS2,-0.17 X,-0.06 Y,+0.94 Z,1 ENL,0 us*47
$GNRMC,161918.30,A,4816.48353,N,01139.86970,E,0.08,,080522,,,A*56
$GNGGA,161918.30,4816.48353,N,01139.86970,E,1,12,0.76,457.3,M,46.2,M,,*48
$GNGSA,A,3,01,08,21,27,10,32,22,14,,,,,1.41,0.76,1.19*1A
$GNVTG,,T,,M,0.072,N,0.134,K,A*3E
$SMGPS,0.0 m,-0.01 m/s,7.60 VRx,0.002 km,5 m,20.7 °,1:-- (  0.0 km/h)*E9
$SMGPS2,-0.21 X,-0.07 Y,+0.95 Z,0 ENL,0 us*43
$GNRMC,161918.40,A,4816.48362,N,01139.86971,E,0.20,,080522,,,A*58
$GNGGA,161918.40,4816.48362,N,01139.86971,E,1,12,0.76,457.3,M,46.2,M,,*4C
$GNGSA,A,3,01,08,21,27,10,32,22,14,,,,,1.41,0.76,1.19*1A
$GNVTG,,T,,M,0.203,N,0.375,K,A*3D
$SMGPS,-0.0 m,-0.01 m/s,7.59 VRx,0.002 km,5 m,22.2 °,1:-- (  0.0 km/h)*C9
$SMGPS2,-0.19 X,-0.08 Y,+0.95 Z,1 ENL,0 us*46
$GNRMC,161918.50,A,4816.48364,N,01139.86967,E,0.03,,080522,,,A*59
$GNGGA,161918.50,4816.48364,N,01139.86967,E,1,12,0.76,457.3,M,46.2,M,,*4C
$GNGSA,A,3,01,08,21,27,10,32,22,14,,,,,1.41,0.76,1.19*1A
$GNVTG,,T,,M,0.022,N,0.041,K,A*38
$SMGPS,-0.0 m,-0.01 m/s,7.61 VRx,0.002 km,5 m,22.2 °,1:-- (  0.0 km/h)*C2
$SMGPS2,-0.21 X,-0.09 Y,+0.95 Z,1 ENL,0 us*4C
$GNRMC,161918.60,A,4816.48366,N,01139.86968,E,0.06,,080522,,,A*52
$GNGGA,161918.60,4816.48366,N,01139.86968,E,1,12,0.76,457.3,M,46.2,M,,*42
$GNGSA,A,3,01,08,21,27,10,32,22,14,,,,,1.41,0.76,1.19*1A
$GNVTG,,T,,M,0.059,N,0.109,K,A*39
$SMGPS,-0.0 m,-0.01 m/s,7.58 VRx,0.002 km,5 m,20.7 °,1:-- (  0.0 km/h)*CF
$SMGPS2,-0.20 X,-0.08 Y,+0.95 Z,0 ENL,0 us*4D
$GNRMC,161918.70,A,4816.48368,N,01139.86965,E,0.25,,080522,,,A*51
$GNGGA,161918.70,4816.48368,N,01139.86965,E,1,12,0.76,457.3,M,46.2,M,,*40
$GNGSA,A,3,01,08,21,27,10,32,22,14,,,,,1.41,0.76,1.19*1A
$GNVTG,,T,,M,0.245,N,0.454,K,A*3B
$SMGPS,-0.0 m,-0.01 m/s,7.61 VRx,0.002 km,6 m,17.7 °,1:-- (  0.0 km/h)*C2
$SMGPS2,-0.19 X,-0.08 Y,+0.95 Z,0 ENL,0 us*47
$GNRMC,161918.80,A,4816.48366,N,01139.86961,E,0.23,,080522,,,A*52
$GNGGA,161918.80,4816.48366,N,01139.86961,E,1,12,0.76,457.3,M,46.2,M,,*45
$GNGSA,A,3,01,08,21,27,10,32,22,14,,,,,1.41,0.76,1.19*1A
$GNVTG,,T,,M,0.225,N,0.416,K,A*3B
$SMGPS,0.0 m,-0.01 m/s,7.57 VRx,0.002 km,6 m,17.7 °,1:-- (  0.0 km/h)*EA
$SMGPS2,-0.19 X,-0.06 Y,+0.95 Z,2 ENL,0 us*4B
$GNRMC,161918.90,A,4816.48364,N,01139.86959,E,0.18,,080522,,,A*52
$GNGGA,161918.90,4816.48364,N,01139.86959,E,1,12,0.76,457.3,M,46.2,M,,*4D
$GNGSA,A,3,01,08,21,27,10,32,22,14,,,,,1.41,0.76,1.19*1A
$GNVTG,,T,,M,0.178,N,0.329,K,A*3B
$SMGPS,0.0 m,-0.01 m/s,7.61 VRx,0.002 km,6 m,17.7 °,1:-- (  0.0 km/h)*EF
$SMGPS2,-0.20 X,-0.06 Y,+0.94 Z,6 ENL,0 us*44
$GNRMC,161919.00,A,4816.48361,N,01139.86958,E,0.10,,080522,,,A*56
$GNGGA,161919.00,4816.48361,N,01139.86958,E,1,12,0.76,457.3,M,46.2,M,,*41
$GNGSA,A,3,01,08,21,27,10,32,22,14,,,,,1.41,0.76,1.19*1A
$GNVTG,,T,,M,0.100,N,0.186,K,A*33
$SMGPS,0.0 m,-0.01 m/s,7.58 VRx,0.002 km,5 m,20.7 °,1:-- (  0.0 km/h)*E2
$SMGPS2,-0.20 X,-0.07 Y,+0.97 Z,7 ENL,0 us*47
$GNRMC,161919.10,A,4816.48364,N,01139.86955,E,0.18,,080522,,,A*57
$GNGGA,161919.10,4816.48364,N,01139.86955,E,1,12,0.76,457.3,M,46.2,M,,*48
$GNGSA,A,3,01,08,21,27,10,32,22,14,,,,,1.41,0.76,1.19*1A
$GNVTG,,T,,M,0.176,N,0.325,K,A*39
$SMGPS,0.0 m,-0.00 m/s,7.60 VRx,0.002 km,5 m,20.7 °,1:-- (  0.0 km/h)*E8
$SMGPS2,-0.23 X,-0.07 Y,+0.96 Z,3 ENL,0 us*41
$GNRMC,161919.20,A,4816.48365,N,01139.86952,E,0.07,,080522,,,A*5C
$GNGGA,161919.20,4816.48365,N,01139.86952,E,1,12,0.76,457.3,M,46.2,M,,*4D
$GNGSA,A,3,01,08,21,27,10,32,22,14,,,,,1.41,0.76,1.19*1A
$GNVTG,,T,,M,0.073,N,0.136,K,A*3D
$SMGPS,0.0 m,-0.00 m/s,7.59 VRx,0.002 km,5 m,19.2 °,1:-- (  0.0 km/h)*ED
$SMGPS2,-0.21 X,-0.05 Y,+0.95 Z,21 ENL,0 us*72
$GNRMC,161919.30,A,4816.48363,N,01139.86944,E,0.13,,080522,,,A*59
$GNGGA,161919.30,4816.48363,N,01139.86944,E,1,12,0.76,457.3,M,46.2,M,,*4D
$GNGSA,A,3,01,08,21,27,10,32,22,14,,,,,1.41,0.76,1.19*1A
$GNVTG,,T,,M,0.125,N,0.232,K,A*38
$SMGPS,-0.0 m,-0.00 m/s,7.60 VRx,0.002 km,6 m,16.4 °,1:-- (  0.0 km/h)*C0
$SMGPS2,-0.14 X,-0.05 Y,+0.94 Z,5 ENL,0 us*43
$GNRMC,161919.40,A,4816.48359,N,01139.86937,E,0.12,,080522,,,A*52
$GNGGA,161919.40,4816.48359,N,01139.86937,E,1,12,0.76,457.3,M,46.2,M,,*47
$GNGSA,A,3,01,08,21,27,10,32,22,14,,,,,1.41,0.76,1.19*1A
$GNVTG,,T,,M,0.121,N,0.225,K,A*3A
$SMGPS,-0.0 m,-0.00 m/s,7.59 VRx,0.002 km,5 m,17.6 °,1:-- (  0.0 km/h)*CA
$SMGPS2,-0.21 X,-0.01 Y,+0.95 Z,2 ENL,0 us*47
$GNRMC,161919.50,A,4816.48356,N,01139.86930,E,0.05,,080522,,,A*5D
$GNGGA,161919.50,4816.48356,N,01139.86930,E,1,12,0.76,457.3,M,46.2,M,,*4E
$GNGSA,A,3,01,08,21,27,10,32,22,14,,,,,1.41,0.76,1.19*1A
$GNVTG,,T,,M,0.043,N,0.080,K,A*32
$SMGPS,0.0 m,-0.00 m/s,7.60 VRx,0.002 km,5 m,17.6 °,1:-- (  0.0 km/h)*ED
$SMGPS2,-0.21 X,-0.02 Y,+0.95 Z,3 ENL,0 us*45
$GNRMC,161919.60,A,4816.48352,N,01139.86923,E,0.10,,080522,,,A*5C
$GNGGA,161919.60,4816.48352,N,01139.86923,E,1,12,0.71,457.3,M,46.2,M,,*4C
$GNGSA,A,3,01,03,08,21,27,10,32,22,14,,,,1.30,0.71,1.09*19
$GNVTG,,T,,M,0.101,N,0.187,K,A*33
$SMGPS,-0.0 m,-0.01 m/s,7.58 VRx,0.002 km,5 m,16.0 °,1:-- (  0.0 km/h)*CD
$SMGPS2,-0.13 X,-0.01 Y,+0.93 Z,38 ENL,0 us*79
$GNRMC,161919.70,A,4816.48349,N,01139.86916,E,0.08,,080522,,,A*58
$GNGGA,161919.70,4816.48349,N,01139.86916,E,1,12,0.71,457.3,M,46.2,M,,*41
$GNGSA,A,3,01,03,08,21,27,10,32,22,14,,,,1.30,0.71,1.09*19
$GNVTG,,T,,M,0.075,N,0.139,K,A*34
$SMGPS,-0.0 m,-0.01 m/s,7.61 VRx,0.002 km,5 m,16.0 °,1:-- (  0.0 km/h)*C7
$SMGPS2,-0.24 X,-0.02 Y,+0.97 Z,2 ENL,0 us*43
$GNRMC,161919.80,A,4816.48348,N,01139.86910,E,0.29,,080522,,,A*53
$GNGGA,161919.80,4816.48348,N,01139.86910,E,1,12,0.71,457.3,M,46.2,M,,*49
$GNGSA,A,3,01,03,08,21,27,10,32,22,14,,,,1.30,0.71,1.09*19
$GNVTG,,T,,M,0.289,N,0.536,K,A*3E
$SMGPS,-0.0 m,-0.01 m/s,7.57 VRx,0.002 km,5 m,14.4 °,1:-- (  0.0 km/h)*C4
$SMGPS2,-0.20 X,-0.03 Y,+0.95 Z,9 ENL,0 us*4F
$GNRMC,161919.90,A,4816.48348,N,01139.86904,E,0.11,,080522,,,A*5C
$GNGGA,161919.90,4816.48348,N,01139.86904,E,1,12,0.71,457.3,M,46.2,M,,*4D
$GNGSA,A,3,01,03,08,21,27,10,32,22,14,,,,1.30,0.71,1.09*19
$GNVTG,,T,,M,0.104,N,0.193,K,A*33
$SMGPS,-0.0 m,-0.01 m/s,7.61 VRx,0.002 km,5 m,14.4 °,1:-- (  0.0 km/h)*C1
$SMGPS2,-0.21 X,+0.01 Y,+0.96 Z,80 ENL,0 us*78
$GNRMC,161920.00,A,4816.48346,N,01139.86898,E,0.06,,080522,,,A*53
$GNGGA,161920.00,4816.48346,N,01139.86898,E,1,12,0.71,457.3,M,46.2,M,,*44
$GNGSA,A,3,01,03,08,21,27,10,32,22,14,,,,1.30,0.71,1.09*19
$GNVTG,,T,,M,0.054,N,0.099,K,A*3C
$SMGPS,-0.0 m,-0.01 m/s,7.56 VRx,0.002 km,5 m,12.8 °,1:-- (  0.0 km/h)*CF
$SMGPS2,-0.18 X,+0.04 Y,+0.95 Z,3 ENL,0 us*4F
$GNRMC,161920.10,A,4816.48346,N,01139.86894,E,0.33,,080522,,,A*58
$GNGGA,161920.10,4816.48346,N,01139.86894,E,1,12,0.71,457.3,M,46.2,M,,*49
$GNGSA,A,3,01,03,08,21,27,10,32,22,14,,,,1.30,0.71,1.09*19
$GNVTG,,T,,M,0.327,N,0.605,K,A*38
$SMGPS,0.0 m,-0.01 m/s,7.61 VRx,0.002 km,5 m,12.8 °,1:-- (  0.0 km/h)*E6
$SMGPS2,-0.19 X,+0.04 Y,+0.95 Z,3 ENL,0 us*4E
$GNRMC,161920.20,A,4816.48345,N,01139.86888,E,0.17,,080522,,,A*53
$GNGGA,161920.20,4816.48345,N,01139.86888,E,1,12,0.71,457.3,M,46.2,M,,*44
$GNGSA,A,3,01,03,08,21,27,10,32,22,14,,,,1.30,0.71,1.09*19
$GNVTG,,T,,M,0.168,N,0.311,K,A*31
$SMGPS,0.0 m,-0.01 m/s,7.59 VRx,0.002 km,5 m,10.3 °,1:-- (  0.0 km/h)*E4
$SMGPS2,-0.17 X,+0.02 Y,+0.94 Z,1 ENL,0 us*45
$GNRMC,161920.30,A,4816.48344,N,01139.86884,E,0.31,,080522,,,A*5B
$GNGGA,161920.30,4816.48344,N,01139.86884,E,1,12,0.71,457.3,M,46.2,M,,*48
$GNGSA,A,3,01,03,08,21,27,10,32,22,14,,,,1.30,0.71,1.09*19
$GNVTG,,T,,M,0.308,N,0.570,K,A*34
$SMGPS,-0.0 m,-0.01 m/s,7.60 VRx,0.002 km,5 m,10.3 °,1:-- (  0.0 km/h)*C3
$SMGPS2,-0.16 X,+0.01 Y,+0.94 Z,2 ENL,0 us*44
$GNRMC,161920.40,A,4816.48344,N,01139.86879,E,0.09,,080522,,,A*55
$GNGGA,161920.40,4816.48344,N,01139.86879,E,1,12,0.71,457.3,M,46.2,M,,*4D
$GNGSA,A,3,01,03,08,21,27,10,32,22,14,,,,1.30,0.71,1.09*19
$GNVTG,,T,,M,0.091,N,0.169,K,A*3B
$SMGPS,0.0 m,-0.01 m/s,7.59 VRx,0.002 km,5 m,10.3 °,1:-- (  0.0 km/h)*E4
$SMGPS2,-0.16 X,-0.02 Y,+0.97 Z,2 ENL,0 us*42
$GNRMC,161920.50,A,4816.48343,N,01139.86875,E,0.14,,080522,,,A*53
$GNGGA,161920.50,4816.48343,N,01139.86875,E,1,12,0.71,457.3,M,46.2,M,,*47
$GNGSA,A,3,01,03,08,21,27,10,32,22,14,,,,1.30,0.71,1.09*19
$GNVTG,,T,,M,0.141,N,0.261,K,A*3C
$SMGPS,0.0 m,-0.00 m/s,7.59 VRx,0.002 km,5 m,8.6 °,1:-- (  0.0 km/h)*D9
$SMGPS2,-0.16 X,-0.03 Y,+0.92 Z,22 ENL,0 us*74
$GNRMC,161920.60,A,4816.48341,N,01139.86871,E,0.10,,080522,,,A*52
$GNGGA,161920.60,4816.48341,N,01139.86871,E,1,12,0.71,457.3,M,46.2,M,,*42
$GNGSA,A,3,01,03,08,21,27,10,32,22,14,,,,1.30,0.71,1.09*19
$GNVTG,,T,,M,0.100,N,0.185,K,A*30
$SMGPS,0.0 m,+0.00 m/s,7.58 VRx,0.002 km,5 m,8.6 °,1:-- (  0.0 km/h)*DE
$SMGPS2,-0.20 X,-0.06 Y,+0.96 Z,3 ENL,0 us*43
$GNRMC,161920.70,A,4816.48341,N,01139.86867,E,0.19,,080522,,,A*5D
$GNGGA,161920.70,4816.48341,N,01139.86867,E,1,12,0.71,457.3,M,46.2,M,,*44
$GNGSA,A,3,01,03,08,21,27,10,32,22,14,,,,1.30,0.71,1.09*19
$GNVTG,,T,,M,0.192,N,0.356,K,A*37
$SMGPS,-0.0 m,+0.00 m/s,7.59 VRx,0.002 km,5 m,6.9 °,1:-- (  0.0 km/h)*F3
$SMGPS2,-0.21 X,-0.02 Y,+0.89 Z,8 ENL,0 us*43
$GNRMC,161920.80,A,4816.48342,N,01139.86863,E,0.20,,080522,,,A*5F
$GNGGA,161920.80,4816.48342,N,01139.86863,E,1,12,0.71,457.3,M,46.2,M,,*4C
$GNGSA,A,3,01,03,08,21,27,10,32,22,14,,,,1.30,0.71,1.09*19
$GNVTG,,T,,M,0.197,N,0.364,K,A*33
$SMGPS,0.0 m,+0.00 m/s,7.58 VRx,0.002 km,5 m,6.9 °,1:-- (  0.0 km/h)*DF
$SMGPS2,-0.22 X,-0.03 Y,+1.00 Z,59 ENL,0 us*75
$GNRMC,161920.90,A,4816.48344,N,01139.86859,E,0.63,,080522,,,A*56
$GNGGA,161920.90,4816.48344,N,01139.86859,E,1,12,0.71,457.3,M,46.2,M,,*42
$GNGSA,A,3,01,03,08,21,27,10,32,22,14,,,,1.30,0.71,1.09*19
$GNVTG,,T,,M,0.630,N,1.167,K,A*39
$SMGPS,-0.0 m,-0.00 m/s,7.60 VRx,0.002 km,5 m,6.9 °,1:-- (  0.0 km/h)*FF
$SMGPS2,-0.13 X,-0.01 Y,+0.93 Z,8 ENL,0 us*4A
$GNRMC,161921.00,A,4816.48347,N,01139.86856,E,0.12,,080522,,,A*54
$GNGGA,161921.00,4816.48347,N,01139.86856,E,1,12,0.76,457.3,M,46.2,M,,*41
$GNGSA,A,3,01,08,21,27,10,32,22,14,,,,,1.41,0.76,1.19*1A
$GNVTG,,T,,M,0.122,N,0.226,K,A*3A
$SMGPS,-0.0 m,-0.00 m/s,7.57 VRx,0.002 km,5 m,5.2 °,1:-- (  0.0 km/h)*F3
$SMGPS2,-0.20 X,-0.02 Y,+0.94 Z,2 ENL,0 us*44
$GNRMC,161921.10,A,4816.48346,N,01139.86855,E,0.34,,080522,,,A*53
$GNGGA,161921.10,4816.48346,N,01139.86855,E,1,12,0.76,457.3,M,46.2,M,,*42
$GNGSA,A,3,01,08,21,27,10,32,22,14,,,,,1.41,0.76,1.19*1A
$GNVTG,,T,,M,0.344,N,0.637,K,A*3C
$SMGPS,0.0 m,-0.00 m/s,7.59 VRx,0.002 km,5 m,5.2 °,1:-- (  0.0 km/h)*D0
$SMGPS2,-0.20 X,-0.02 Y,+0.94 Z,1 ENL,0 us*47
$GNRMC,161921.20,A,4816.48348,N,01139.86852,E,0.21,,080522,,,A*5D
$GNGGA,161921.20,4816.48348,N,01139.86852,E,1,12,0.76,457.3,M,46.2,M,,*48
$GNGSA,A,3,01,08,21,27,10,32,22,14,,,,,1.41,0.76,1.19*1A
$GNVTG,,T,,M,0.208,N,0.385,K,A*39
$SMGPS,0.0 m,-0.01 m/s,7.57 VRx,0.002 km,5 m,5.2 °,1:-- (  0.0 km/h)*DF
$SMGPS2,-0.21 X,-0.03 Y,+0.94 Z,1 ENL,0 us*47
$GNRMC,161921.30,A,4816.48350,N,01139.86852,E,0.07,,080522,,,A*51
$GNGGA,161921.30,4816.48350,N,01139.86852,E,1,12,0.76,457.3,M,46.2,M,,*40
$GNGSA,A,3,01,08,21,27,10,32,22,14,,,,,1.41,0.76,1.19*1A
$GNVTG,,T,,M,0.066,N,0.123,K,A*3D
$SMGPS,0.0 m,-0.01 m/s,7.60 VRx,0.002 km,5 m,5.2 °,1:-- (  0.0 km/h)*DB
$SMGPS2,-0.21 X,-0.03 Y,+0.95 Z,1 ENL,0 us*46
$GNRMC,161921.40,A,4816.48350,N,01139.86853,E,0.24,,080522,,,A*56
$GNGGA,161921.40,4816.48350,N,01139.86853,E,1,12,0.76,457.3,M,46.2,M,,*46
$GNGSA,A,3,01,08,21,27,10,32,22,14,,,,,1.41,0.76,1.19*1A
$GNVTG,,T,,M,0.239,N,0.442,K,A*37
$SMGPS,0.0 m,+0.00 m/s,7.57 VRx,0.002 km,5 m,5.2 °,1:-- (  0.0 km/h)*D8
$SMGPS2,-0.20 X,-0.04 Y,+0.95 Z,1 ENL,0 us*40
$GNRMC,161921.50,A,4816.48350,N,01139.86853,E,0.39,,080522,,,A*5B
$GNGGA,161921.50,4816.48350,N,01139.86853,E,1,12,0.76,457.4,M,46.2,M,,*40
$GNGSA,A,3,01,08,21,27,10,32,22,14,,,,,1.41,0.76,1.19*1A
$GNVTG,,T,,M,0.389,N,0.720,K,A*3A
$SMGPS,0.1 m,+0.01 m/s,7.60 VRx,0.002 km,5 m,5.2 °,1:-- (  0.0 km/h)*DC
$SMGPS2,-0.21 X,-0.05 Y,+0.95 Z,1 ENL,0 us*40
$GNRMC,161921.60,A,4816.48350,N,01139.86854,E,0.32,,080522,,,A*54
$GNGGA,161921.60,4816.48350,N,01139.86854,E,1,12,0.76,457.4,M,46.2,M,,*44
$GNGSA,A,3,01,08,21,27,10,32,22,14,,,,,1.41,0.76,1.19*1A
$GNVTG,,T,,M,0.316,N,0.585,K,A*31
$SMGPS,0.1 m,+0.02 m/s,7.57 VRx,0.002 km,5 m,5.2 °,1:-- (  0.0 km/h)*DB
$SMGPS2,-0.20 X,-0.05 Y,+0.95 Z,1 ENL,0 us*41
$GNRMC,161921.70,A,4816.48348,N,01139.86854,E,0.50,,080522,,,A*58
$GNGGA,161921.70,4816.48348,N,01139.86854,E,1,12,0.76,457.3,M,46.2,M,,*4B
$GNGSA,A,3,01,08,21,27,10,32,22,14,,,,,1.41,0.76,1.19*1A
$GNVTG,,T,,M,0.491,N,0.910,K,A*39
$SMGPS,0.0 m,+0.03 m/s,7.59 VRx,0.002 km,5 m,5.2 °,1:-- (  0.0 km/h)*D5
$SMGPS2,-0.20 X,-0.07 Y,+0.95 Z,1 ENL,0 us*43
$GNRMC,161921.80,A,4816.48344,N,01139.86852,E,0.34,,080522,,,A*5F
$GNGGA,161921.80,4816.48344,N,01139.86852,E,1,12,0.71,457.3,M,46.2,M,,*49
$GNGSA,A,3,01,03,08,21,27,10,32,22,14,,,,1.30,0.71,1.09*19
$GNVTG,,T,,M,0.331,N,0.614,K,A*3F
$SMGPS,-0.0 m,+0.03 m/s,7.58 VRx,0.002 km,5 m,5.2 °,1:-- (  0.0 km/h)*F9
$SMGPS2,-0.21 X,-0.09 Y,+0.95 Z,1 ENL,0 us*4C
$GNRMC,161921.90,A,4816.48340,N,01139.86852,E,0.25,,080522,,,A*5A
$GNGGA,161921.90,4816.48340,N,01139.86852,E,1,12,0.71,457.3,M,46.2,M,,*4C
$GNGSA,A,3,01,03,08,21,27,10,32,22,14,,,,1.30,0.71,1.09*19
$GNVTG,,T,,M,0.245,N,0.454,K,A*3B
$SMGPS,-0.0 m,+0.04 m/s,7.60 VRx,0.002 km,5 m,5.2 °,1:-- (  0.0 km/h)*F5
$SMGPS2,-0.20 X,-0.10 Y,+0.94 Z,0 ENL,0 us*45
$GNRMC,161922.00,A,4816.48336,N,01139.86850,E,0.30,,080522,,,A*57
$GNGGA,161922.00,4816.48336,N,01139.86850,E,1,12,0.71,457.3,M,46.2,M,,*45
$GNGSA,A,3,01,03,08,21,27,10,32,22,14,,,,1.30,0.71,1.09*19
$GNVTG,,T,,M,0.290,N,0.538,K,A*38
$SMGPS,0.0 m,+0.04 m/s,7.58 VRx,0.002 km,5 m,5.2 °,1:-- (  0.0 km/h)*D3
$SMGPS2,-0.20 X,-0.11 Y,+0.94 Z,1 ENL,0 us*45
$GNRMC,161922.10,A,4816.48336,N,01139.86847,E,0.30,,080522,,,A*50
$GNGGA,161922.10,4816.48336,N,01139.86847,E,1,12,0.71,457.3,M,46.2,M,,*42
$GNGSA,A,3,01,03,08,21,27,10,32,22,14,,,,1.30,0.71,1.09*19
$GNVTG,,T,,M,0.295,N,0.546,K,A*34
$SMGPS,-0.0 m,+0.03 m/s,7.60 VRx,0.002 km,5 m,5.2 °,1:-- (  0.0 km/h)*F2
$SMGPS2,-0.20 X,-0.12 Y,+0.94 Z,2 ENL,0 us*45
$GNRMC,161922.20,A,4816.48338,N,01139.86846,E,0.18,,080522,,,A*56
$GNGGA,161922.20,4816.48338,N,01139.86846,E,1,12,0.71,457.3,M,46.2,M,,*4E
$GNGSA,A,3,01,03,08,21,27,10,32,22,14,,,,1.30,0.71,1.09*19
$GNVTG,,T,,M,0.166,N,0.308,K,A*37
$SMGPS,-0.0 m,+0.03 m/s,7.57 VRx,0.002 km,5 m,5.2 °,1:-- (  0.0 km/h)*F6
$SMGPS2,-0.20 X,-0.13 Y,+0.95 Z,1 ENL,0 us*46
$GNRMC,161922.30,A,4816.48340,N,01139.86844,E,0.14,,080522,,,A*56
$GNGGA,161922.30,4816.48340,N,01139.86844,E,1,12,0.71,457.3,M,46.2,M,,*42
$GNGSA,A,3,01,03,08,21,27,10,32,22,14,,,,1.30,0.71,1.09*19
$GNVTG,,T,,M,0.136,N,0.251,K,A*3F
$SMGPS,0.0 m,+0.02 m/s,7.60 VRx,0.002 km,5 m,3.5 °,1:-- (  0.0 km/h)*DF
$SMGPS2,-0.19 X,-0.13 Y,+0.94 Z,0 ENL,0 us*4C
$GNRMC,161922.40,A,4816.48340,N,01139.86843,E,0.18,,080522,,,A*5A
$GNGGA,161922.40,4816.48340,N,01139.86843,E,1,12,0.71,457.3,M,46.2,M,,*42
$GNGSA,A,3,01,03,08,21,27,10,32,22,14,,,,1.30,0.71,1.09*19
$GNVTG,,T,,M,0.175,N,0.324,K,A*3B
$SMGPS,-0.0 m,+0.02 m/s,7.57 VRx,0.002 km,5 m,3.5 °,1:-- (  0.0 km/h)*F6
$SMGPS2,-0.20 X,-0.12 Y,+0.94 Z,0 ENL,0 us*47
$GNRMC,161922.50,A,4816.48343,N,01139.86840,E,0.21,,080522,,,A*51
$GNGGA,161922.50,4816.48343,N,01139.86840,E,1,12,0.71,457.3,M,46.2,M,,*43
$GNGSA,A,3,01,03,08,21,27,10,32,22,14,,,,1.30,0.71,1.09*19
$GNVTG,,T,,M,0.206,N,0.381,K,A*33
$SMGPS,-0.0 m,+0.01 m/s,7.61 VRx,0.002 km,5 m,3.5 °,1:-- (  0.0 km/h)*F0
$SMGPS2,-0.20 X,-0.13 Y,+0.95 Z,0 ENL,0 us*47
$GNRMC,161922.60,A,4816.48344,N,01139.86839,E,0.21,,080522,,,A*5B
$GNGGA,161922.60,4816.48344,N,01139.86839,E,1,12,0.71,457.3,M,46.2,M,,*49
$GNGSA,A,3,01,03,08,21,27,10,32,22,14,,,,1.30,0.71,1.09*19
$GNVTG,,T,,M,0.204,N,0.378,K,A*37
$SMGPS,-0.0 m,+0.01 m/s,7.58 VRx,0.002 km,5 m,3.5 °,1:-- (  0.0 km/h)*FA
$SMGPS2,-0.20 X,-0.13 Y,+0.95 Z,1 ENL,0 us*46
$GNRMC,161922.70,A,4816.48346,N,01139.86836,E,0.29,,080522,,,A*5F
$GNGGA,161922.70,4816.48346,N,01139.86836,E,1,12,0.71,457.3,M,46.2,M,,*45
$GNGSA,A,3,01,03,08,21,27,10,32,22,14,,,,1.30,0.71,1.09*19
$GNVTG,,T,,M,0.286,N,0.529,K,A*3F
$SMGPS,-0.0 m,+0.01 m/s,7.61 VRx,0.002 km,5 m,3.5 °,1:-- (  0.0 km/h)*F0
$SMGPS2,-0.20 X,-0.12 Y,+0.94 Z,1 ENL,0 us*46
$GNRMC,161922.80,A,4816.48346,N,01139.86836,E,0.09,,080522,,,A*52
$GNGGA,161922.80,4816.48346,N,01139.86836,E,1,12,0.71,457.3,M,46.2,M,,*4A
$GNGSA,A,3,01,03,08,21,27,10,32,22,14,,,,1.30,0.71,1.09*19
$GNVTG,,T,,M,0.093,N,0.173,K,A*32
$SMGPS,-0.0 m,+0.01 m/s,7.57 VRx,0.002 km,5 m,3.5 °,1:-- (  0.0 km/h)*F5
$SMGPS2,-0.20 X,-0.11 Y,+0.95 Z,1 ENL,0 us*44
$GNRMC,161922.90,A,4816.48343,N,01139.86835,E,0.02,,080522,,,A*5E
$GNGGA,161922.90,4816.48343,N,01139.86835,E,1,12,0.71,457.3,M,46.2,M,,*4D
$GNGSA,A,3,01,03,08,21,27,10,32,22,14,,,,1.30,0.71,1.09*19
$GNVTG,,T,,M,0.014,N,0.026,K,A*3C
$SMGPS,0.0 m,+0.01 m/s,7.60 VRx,0.002 km,5 m,3.5 °,1:-- (  0.0 km/h)*DC
$SMGPS2,-0.20 X,-0.12 Y,+0.95 Z,1 ENL,0 us*47
$GNRMC,161923.00,A,4816.48342,N,01139.86832,E,0.13,,080522,,,A*50
$GNGGA,161923.00,4816.48342,N,01139.86832,E,1,12,0.71,457.3,M,46.2,M,,*43
$GNGSA,A,3,01,03,08,21,27,10,32,22,14,,,,1.30,0.71,1.09*19
$GNVTG,,T,,M,0.127,N,0.236,K,A*3E
$SMGPS,0.0 m,+0.01 m/s,7.59 VRx,0.002 km,5 m,3.5 °,1:-- (  0.0 km/h)*D6
$SMGPS2,-0.20 X,-0.13 Y,+0.94 Z,1 ENL,0 us*47
$GNRMC,161923.10,A,4816.48342,N,01139.86830,E,0.21,,080522,,,A*52
$GNGGA,161923.10,4816.48342,N,01139.86830,E,1,12,0.71,457.3,M,46.2,M,,*40
$GNGSA,A,3,01,03,08,21,27,10,32,22,14,,,,1.30,0.71,1.09*19
$GNVTG,,T,,M,0.213,N,0.394,K,A*33
$SMGPS,0.0 m,+0.01 m/s,7.59 VRx,0.002 km,5 m,1.7 °,1:-- (  0.0 km/h)*D6
$SMGPS2,-0.20 X,-0.12 Y,+0.94 Z,1 ENL,0 us*46
$GNRMC,161923.20,A,4816.48342,N,01139.86828,E,0.12,,080522,,,A*58
$GNGGA,161923.20,4816.48342,N,01139.86828,E,1,12,0.71,457.3,M,46.2,M,,*4A
$GNGSA,A,3,01,03,08,21,27,10,32,22,14,,,,1.30,0.71,1.09*19
$GNVTG,,T,,M,0.121,N,0.225,K,A*3A
$SMGPS,0.0 m,+0.01 m/s,7.58 VRx,0.002 km,5 m,1.7 °,1:-- (  0.0 km/h)*D7
$SMGPS2,-0.20 X,-0.14 Y,+0.94 Z,0 ENL,0 us*41
$GNRMC,161923.30,A,4816.48341,N,01139.86827,E,0.05,,080522,,,A*53
$GNGGA,161923.30,4816.48341,N,01139.86827,E,1,12,0.71,457.2,M,46.2,M,,*46
$GNGSA,A,3,01,03,08,21,27,10,32,22,14,,,,1.30,0.71,1.09*19
$GNVTG,,T,,M,0.047,N,0.086,K,A*30
$SMGPS,-0.1 m,+0.02 m/s,7.59 VRx,0.002 km,5 m,1.7 °,1:-- (  0.0 km/h)*F9
$SMGPS2,-0.20 X,-0.14 Y,+0.94 Z,1 ENL,0 us*40
$GNRMC,161923.40,A,4816.48339,N,01139.86825,E,0.02,,080522,,,A*5E
$GNGGA,161923.40,4816.48339,N,01139.86825,E,1,12,0.71,457.2,M,46.2,M,,*4C
$GNGSA,A,3,01,03,08,21,27,10,32,22,14,,,,1.30,0.71,1.09*19
$GNVTG,,T,,M,0.014,N,0.026,K,A*3C
$SMGPS,-0.1 m,+0.02 m/s,7.57 VRx,0.002 km,5 m,1.7 °,1:-- (  0.0 km/h)*F7
$SMGPS2,-0.20 X,-0.13 Y,+0.94 Z,0 ENL,0 us*46
$GNRMC,161923.50,A,4816.48338,N,01139.86824,E,0.05,,080522,,,A*58
$GNGGA,161923.50,4816.48338,N,01139.86824,E,1,12,0.71,457.3,M,46.2,M,,*4C
$GNGSA,A,3,01,03,08,21,27,10,32,22,14,,,,1.30,0.71,1.09*19
$GNVTG,,T,,M,0.045,N,0.083,K,A*37
$SMGPS,-0.0 m,+0.02 m/s,7.60 VRx,0.002 km,5 m,1.7 °,1:-- (  0.0 km/h)*F2
$SMGPS2,-0.20 X,-0.13 Y,+0.94 Z,1 ENL,0 us*47
$GNRMC,161923.60,A,4816.48338,N,01139.86823,E,0.08,,080522,,,A*51
$GNGGA,161923.60,4816.48338,N,01139.86823,E,1,12,0.64,457.3,M,46.2,M,,*4C
$GNGSA,A,3,01,03,08,21,27,10,32,22,14,23,,,1.13,0.64,0.94*18
$GNVTG,,T,,M,0.077,N,0.142,K,A*3A
$SMGPS,0.0 m,+0.02 m/s,7.56 VRx,0.002 km,5 m,1.7 °,1:-- (  0.0 km/h)*DA
$SMGPS2,-0.20 X,-0.12 Y,+0.95 Z,1 ENL,0 us*47
$GNRMC,161923.70,A,4816.48338,N,01139.86821,E,0.14,,080522,,,A*5F
$GNGGA,161923.70,4816.48338,N,01139.86821,E,1,12,0.64,457.3,M,46.2,M,,*4F
$GNGSA,A,3,01,03,08,21,27,10,32,22,14,23,,,1.13,0.64,0.94*18
$GNVTG,,T,,M,0.139,N,0.257,K,A*36
$SMGPS,-0.0 m,+0.02 m/s,7.61 VRx,0.002 km,5 m,1.7 °,1:-- (  0.0 km/h)*F3
$SMGPS2,-0.20 X,-0.13 Y,+0.94 Z,0 ENL,0 us*46
$GNRMC,161923.80,A,4816.48339,N,01139.86820,E,0.03,,080522,,,A*56
$GNGGA,161923.80,4816.48339,N,01139.86820,E,1,12,0.64,457.3,M,46.2,M,,*40
$GNGSA,A,3,01,03,08,21,27,10,32,22,14,23,,,1.13,0.64,0.94*18
$GNVTG,,T,,M,0.023,N,0.042,K,A*3A
$SMGPS,-0.0 m,+0.02 m/s,7.57 VRx,0.002 km,5 m,0.0 °,1:-- (  0.0 km/h)*F0
$SMGPS2,-0.20 X,-0.13 Y,+0.94 Z,1 ENL,0 us*47
$GNRMC,161923.90,A,4816.48339,N,01139.86818,E,0.16,,080522,,,A*58
$GNGGA,161923.90,4816.48339,N,01139.86818,E,1,12,0.64,457.3,M,46.2,M,,*4A
$GNGSA,A,3,01,03,08,21,27,10,32,22,14,23,,,1.13,0.64,0.94*18
$GNVTG,,T,,M,0.157,N,0.291,K,A*34
$SMGPS,0.0 m,+0.01 m/s,7.61 VRx,0.002 km,5 m,0.0 °,1:-- (  0.0 km/h)*DB
$SMGPS2,-0.20 X,-0.14 Y,+0.95 Z,0 ENL,0 us*40
$GNRMC,161924.00,A,4816.48341,N,01139.86818,E,0.13,,080522,,,A*5C
$GNGGA,161924.00,4816.48341,N,01139.86818,E,1,12,0.64,457.3,M,46.2,M,,*4B
$GNGSA,A,3,01,03,08,21,27,10,32,22,14,23,,,1.13,0.64,0.94*18
$GNVTG,,T,,M,0.126,N,0.234,K,A*3D
$SMGPS,-0.0 m,+0.01 m/s,7.58 VRx,0.002 km,5 m,0.0 °,1:-- (  0.0 km/h)*FC
$SMGPS2,-0.20 X,-0.13 Y,+0.94 Z,0 ENL,0 us*46
$GNRMC,161924.10,A,4816.48342,N,01139.86818,E,0.01,,080522,,,A*5D
$GNGGA,161924.10,4816.48342,N,01139.86818,E,1,12,0.64,457.3,M,46.2,M,,*49
$GNGSA,A,3,01,03,08,21,27,10,32,22,14,23,,,1.13,0.64,0.94*18
$GNVTG,,T,,M,0.014,N,0.027,K,A*3D
$SMGPS,0.0 m,+0.02 m/s,7.59 VRx,0.002 km,5 m,0.0 °,1:-- (  0.0 km/h)*D3
$SMGPS2,-0.20 X,-0.12 Y,+0.95 Z,1 ENL,0 us*47
$GNRMC,161924.20,A,4816.48345,N,01139.86817,E,0.06,,080522,,,A*51
$GNGGA,161924.20,4816.48345,N,01139.86817,E,1,12,0.64,457.3,M,46.2,M,,*42
$GNGSA,A,3,01,03,08,21,27,10,32,22,14,23,,,1.13,0.64,0.94*18
$GNVTG,,T,,M,0.055,N,0.101,K,A*3D
$SMGPS,-0.0 m,+0.02 m/s,7.57 VRx,0.002 km,5 m,0.0 °,1:-- (  0.0 km/h)*F0
$SMGPS2,-0.20 X,-0.11 Y,+0.95 Z,1 ENL,0 us*44
$GNRMC,161924.30,A,4816.48345,N,01139.86816,E,0.12,,080522,,,A*54
$GNGGA,161924.30,4816.48345,N,01139.86816,E,1,12,0.64,457.3,M,46.2,M,,*42
$GNGSA,A,3,01,03,08,21,27,10,32,22,14,23,,,1.13,0.64,0.94*18
$GNVTG,,T,,M,0.118,N,0.219,K,A*3F
$SMGPS,0.0 m,+0.02 m/s,7.59 VRx,0.002 km,5 m,0.0 °,1:-- (  0.0 km/h)*D3
$SMGPS2,-0.20 X,-0.12 Y,+0.95 Z,0 ENL,0 us*46
$GNRMC,161924.40,A,4816.48346,N,01139.86816,E,0.04,,080522,,,A*57
$GNGGA,161924.40,4816.48346,N,01139.86816,E,1,12,0.64,457.3,M,46.2,M,,*46
$GNGSA,A,3,01,03,08,21,27,10,32,22,14,23,,,1.13,0.64,0.94*18
$GNVTG,,T,,M,0.041,N,0.076,K,A*39
$SMGPS,0.0 m,+0.02 m/s,7.59 VRx,0.002 km,5 m,0.0 °,1:-- (  0.0 km/h)*D3
$SMGPS2,-0.19 X,-0.11 Y,+0.94 Z,0 ENL,0 us*4E
$GNRMC,161924.50,A,4816.48345,N,01139.86815,E,0.13,,080522,,,A*50
$GNGGA,161924.50,4816.48345,N,01139.86815,E,1,12,0.64,457.3,M,46.2,M,,*47
$GNGSA,A,3,01,03,08,21,27,10,32,22,14,23,,,1.13,0.64,0.94*18
$GNVTG,,T,,M,0.129,N,0.240,K,A*31
$SMGPS,-0.0 m,+0.02 m/s,7.60 VRx,0.002 km,5 m,0.0 °,1:-- (  0.0 km/h)*F4
$SMGPS2,-0.20 X,-0.13 Y,+0.94 Z,0 ENL,0 us*46
$GNRMC,161924.60,A,4816.48345,N,01139.86814,E,0.22,,080522,,,A*50
$GNGGA,161924.60,4816.48345,N,01139.86814,E,1,12,0.64,457.3,M,46.2,M,,*45
$GNGSA,A,3,01,03,08,21,27,10,32,22,14,23,,,1.13,0.64,0.94*18
$GNVTG,,T,,M,0.219,N,0.405,K,A*36
$SMGPS,0.0 m,+0.03 m/s,7.57 VRx,0.002 km,5 m,0.0 °,1:-- (  0.0 km/h)*DC
$SMGPS2,-0.19 X,-0.13 Y,+0.94 Z,1 ENL,0 us*4D
$GNRMC,161924.70,A,4816.48346,N,01139.86814,E,0.03,,080522,,,A*51
$GNGGA,161924.70,4816.48346,N,01139.86814,E,1,12,0.64,457.3,M,46.2,M,,*47
$GNGSA,A,3,01,03,08,21,27,10,32,22,14,23,,,1.13,0.64,0.94*18
$GNVTG,,T,,M,0.021,N,0.039,K,A*34
$SMGPS,0.0 m,+0.02 m/s,7.60 VRx,0.002 km,5 m,0.0 °,1:-- (  0.0 km/h)*D9
$SMGPS2,-0.20 X,-0.14 Y,+1.00 Z,0 ENL,0 us*4D
$GNRMC,161924.80,A,4816.48346,N,01139.86812,E,0.09,,080522,,,A*52
$GNGGA,161924.80,4816.48346,N,01139.86812,E,1,12,0.64,457.3,M,46.2,M,,*4E
$GNGSA,A,3,01,03,08,21,27,10,32,22,14,23,,,1.13,0.64,0.94*18
$GNVTG,,T,,M,0.088,N,0.163,K,A*39
$SMGPS,-0.0 m,+0.02 m/s,7.57 VRx,0.002 km,5 m,0.0 °,1:-- (  0.0 km/h)*F0
$SMGPS2,-0.19 X,-0.13 Y,+0.94 Z,0 ENL,0 us*4C
$GNRMC,161924.90,A,4816.48346,N,01139.86811,E,0.13,,080522,,,A*5B
$GNGGA,161924.90,4816.48346,N,01139.86811,E,1,12,0.64,457.3,M,46.2,M,,*4C
$GNGSA,A,3,01,03,08,21,27,10,32,22,14,23,,,1.13,0.64,0.94*18
$GNVTG,,T,,M,0.127,N,0.236,K,A*3E
$SMGPS,-0.0 m,+0.01 m/s,7.60 VRx,0.002 km,5 m,0.0 °,1:-- (  0.0 km/h)*F7
$SMGPS2,-0.19 X,-0.13 Y,+0.95 Z,1 ENL,0 us*4C
$GNRMC,161925.00,A,4816.48346,N,01139.86810,E,0.03,,080522,,,A*53
$GNGGA,161925.00,4816.48346,N,01139.86810,E,1,12,0.64,457.3,M,46.2,M,,*45
$GNGSA,A,3,01,03,08,21,27,10,32,22,14,23,,,1.13,0.64,0.94*18
$GNVTG,,T,,M,0.028,N,0.052,K,A*30
$SMGPS,0.0 m,+0.01 m/s,7.58 VRx,0.002 km,5 m,0.0 °,1:-- (  0.0 km/h)*D1
$SMGPS2,-0.19 X,-0.13 Y,+0.94 Z,0 ENL,0 us*4C
$GNRMC,161925.10,A,4816.48347,N,01139.86810,E,0.06,,080522,,,A*56
$GNGGA,161925.10,4816.48347,N,01139.86810,E,1,12,0.64,457.3,M,46.2,M,,*45
$GNGSA,A,3,01,03,08,21,27,10,32,22,14,23,,,1.13,0.64,0.94*18
$GNVTG,,T,,M,0.061,N,0.113,K,A*39
$SMGPS,-0.0 m,+0.00 m/s,7.60 VRx,0.002 km,5 m,358.3 °,1:-- (  0.0 km/h)*FB
$SMGPS2,-0.20 X,-0.12 Y,+0.94 Z,0 ENL,0 us*47
$GNRMC,161925.20,A,4816.48349,N,01139.86809,E,0.07,,080522,,,A*52
$GNGGA,161925.20,4816.48349,N,01139.86809,E,1,12,0.64,457.3,M,46.2,M,,*40
$GNGSA,A,3,01,03,08,21,27,10,32,22,14,23,,,1.13,0.64,0.94*18
$GNVTG,,T,,M,0.073,N,0.135,K,A*3E
$SMGPS,-0.0 m,-0.01 m/s,7.57 VRx,0.002 km,5 m,358.3 °,1:-- (  0.0 km/h)*F8
$SMGPS2,-0.20 X,-0.11 Y,+0.94 Z,1 ENL,0 us*45
$GNRMC,161925.30,A,4816.48350,N,01139.86808,E,0.12,,080522,,,A*5E
$GNGGA,161925.30,4816.48350,N,01139.86808,E,1,12,0.64,457.3,M,46.2,M,,*48
$GNGSA,A,3,01,03,08,21,27,10,32,22,14,23,,,1.13,0.64,0.94*18
$GNVTG,,T,,M,0.119,N,0.221,K,A*35
$SMGPS,0.0 m,-0.01 m/s,7.60 VRx,0.002 km,5 m,358.3 °,1:-- (  0.0 km/h)*D1
$SMGPS2,-0.20 X,-0.10 Y,+0.94 Z,1 ENL,0 us*44
$GNRMC,161925.40,A,4816.48353,N,01139.86806,E,0.24,,080522,,,A*51
$GNGGA,161925.40,4816.48353,N,01139.86806,E,1,12,0.64,457.3,M,46.2,M,,*42
$GNGSA,A,3,01,03,08,21,27,10,32,22,14,23,,,1.13,0.64,0.94*18
$GNVTG,,T,,M,0.237,N,0.439,K,A*35
$SMGPS,0.0 m,-0.01 m/s,7.58 VRx,0.002 km,5 m,358.3 °,1:-- (  0.0 km/h)*DA
$SMGPS2,-0.20 X,-0.11 Y,+0.95 Z,0 ENL,0 us*45
$GNRMC,161925.50,A,4816.48355,N,01139.86805,E,0.18,,080522,,,A*5A
$GNGGA,161925.50,4816.48355,N,01139.86805,E,1,12,0.64,457.3,M,46.2,M,,*46
$GNGSA,A,3,01,03,08,21,27,10,32,22,14,23,,,1.13,0.64,0.94*18
$GNVTG,,T,,M,0.180,N,0.334,K,A*30
$SMGPS,0.0 m,-0.01 m/s,7.59 VRx,0.002 km,5 m,358.3 °,1:-- (  0.0 km/h)*DB
$SMGPS2,-0.19 X,-0.10 Y,+0.95 Z,0 ENL,0 us*4E
$GNRMC,161925.60,A,4816.48355,N,01139.86804,E,0.09,,080522,,,A*58
$GNGGA,161925.60,4816.48355,N,01139.86804,E,1,12,0.64,457.3,M,46.2,M,,*44
$GNGSA,A,3,01,03,08,21,27,10,32,22,14,23,,,1.13,0.64,0.94*18
$GNVTG,,T,,M,0.092,N,0.171,K,A*31
$SMGPS,-0.0 m,-0.01 m/s,7.58 VRx,0.002 km,5 m,358.3 °,1:-- (  0.0 km/h)*F7
$SMGPS2,-0.20 X,-0.09 Y,+0.95 Z,0 ENL,0 us*4C
$GNRMC,161925.70,A,4816.48356,N,01139.86804,E,0.06,,080522,,,A*55
$GNGGA,161925.70,4816.48356,N,01139.86804,E,1,12,0.64,457.3,M,46.2,M,,*46
$GNGSA,A,3,01,03,08,21,27,10,32,22,14,23,,,1.13,0.64,0.94*18
$GNVTG,,T,,M,0.059,N,0.109,K,A*39
$SMGPS,0.0 m,-0.00 m/s,7.59 VRx,0.002 km,5 m,358.3 °,1:-- (  0.0 km/h)*DA
$SMGPS2,-0.21 X,-0.08 Y,+0.95 Z,0 ENL,0 us*4C
$GNRMC,161925.80,A,4816.48357,N,01139.86803,E,0.08,,080522,,,A*52
$GNGGA,161925.80,4816.48357,N,01139.86803,E,1,12,0.64,457.3,M,46.2,M,,*4F
$GNGSA,A,3,01,03,08,21,27,10,32,22,14,23,,,1.13,0.64,0.94*18
$GNVTG,,T,,M,0.078,N,0.145,K,A*32
$SMGPS,-0.0 m,+0.00 m/s,7.57 VRx,0.002 km,5 m,358.3 °,1:-- (  0.0 km/h)*FF
$SMGPS2,-0.20 X,-0.05 Y,+0.95 Z,1 ENL,0 us*41
$GNRMC,161925.90,A,4816.48357,N,01139.86803,E,0.07,,080522,,,A*5C
$GNGGA,161925.90,4816.48357,N,01139.86803,E,1,12,0.64,457.3,M,46.2,M,,*4E
$GNGSA,A,3,01,03,08,21,27,10,32,22,14,23,,,1.13,0.64,0.94*18
$GNVTG,,T,,M,0.065,N,0.121,K,A*3C
$SMGPS,0.0 m,+0.01 m/s,7.60 VRx,0.002 km,5 m,358.3 °,1:-- (  0.0 km/h)*D7
$SMGPS2,-0.21 X,-0.01 Y,+0.95 Z,1 ENL,0 us*44
$GNRMC,161926.00,A,4816.48358,N,01139.86802,E,0.03,,080522,,,A*5C
$GNGGA,161926.00,4816.48358,N,01139.86802,E,1,12,0.64,457.3,M,46.2,M,,*4A
$GNGSA,A,3,01,03,08,21,27,10,32,22,14,23,,,1.13,0.64,0.94*18
$GNVTG,,T,,M,0.024,N,0.045,K,A*3A
$SMGPS,-0.0 m,+0.01 m/s,7.56 VRx,0.002 km,5 m,358.3 °,1:-- (  0.0 km/h)*FF
$SMGPS2,-0.21 X,+0.03 Y,+0.94 Z,1 ENL,0 us*41
$GNRMC,161926.10,A,4816.48359,N,01139.86802,E,0.17,,080522,,,A*59
$GNGGA,161926.10,4816.48359,N,01139.86802,E,1,12,0.64,457.3,M,46.2,M,,*4A
$GNGSA,A,3,01,03,08,21,27,10,32,22,14,23,,,1.13,0.64,0.94*18
$GNVTG,,T,,M,0.165,N,0.306,K,A*3A
$SMGPS,-0.0 m,+0.01 m/s,7.60 VRx,0.002 km,5 m,358.3 °,1:-- (  0.0 km/h)*FA
$SMGPS2,-0.21 X,+0.08 Y,+0.94 Z,1 ENL,0 us*4A
$GNRMC,161926.20,A,4816.48360,N,01139.86800,E,0.05,,080522,,,A*51
$GNGGA,161926.20,4816.48360,N,01139.86800,E,1,12,0.64,457.3,M,46.2,M,,*41
$GNGSA,A,3,01,03,08,21,27,10,32,22,14,23,,,1.13,0.64,0.94*18
$GNVTG,,T,,M,0.052,N,0.097,K,A*34
$SMGPS,-0.0 m,+0.01 m/s,7.57 VRx,0.002 km,5 m,358.3 °,1:-- (  0.0 km/h)*FE
$SMGPS2,-0.21 X,+0.12 Y,+0.93 Z,1 ENL,0 us*46
$GNRMC,161926.30,A,4816.48361,N,01139.86799,E,0.05,,080522,,,A*5E
$GNGGA,161926.30,4816.48361,N,01139.86799,E,1,12,0.64,457.3,M,46.2,M,,*4E
$GNGSA,A,3,01,03,08,21,27,10,32,22,14,23,,,1.13,0.64,0.94*18
$GNVTG,,T,,M,0.048,N,0.089,K,A*30
$SMGPS,0.0 m,+0.01 m/s,7.60 VRx,0.002 km,5 m,358.3 °,1:-- (  0.0 km/h)*D7
$SMGPS2,-0.20 X,+0.17 Y,+0.84 Z,62 ENL,0 us*71
$GNRMC,161926.40,A,4816.48362,N,01139.86797,E,0.28,,080522,,,A*5B
$GNGGA,161926.40,4816.48362,N,01139.86797,E,1,12,0.64,457.3,M,46.2,M,,*44
$GNGSA,A,3,01,03,08,21,27,10,32,22,14,23,,,1.13,0.64,0.94*18
$GNVTG,,T,,M,0.281,N,0.520,K,A*31
$SMGPS,0.0 m,+0.01 m/s,7.57 VRx,0.002 km,5 m,358.3 °,1:-- (  0.0 km/h)*D3
$SMGPS2,-0.22 X,+0.14 Y,+0.98 Z,32 ENL,0 us*78
$GNRMC,161926.50,A,4816.48362,N,01139.86795,E,0.08,,080522,,,A*5A
$GNGGA,161926.50,4816.48362,N,01139.86795,E,1,12,0.64,457.3,M,46.2,M,,*47
$GNGSA,A,3,01,03,08,21,27,10,32,22,14,23,,,1.13,0.64,0.94*18
$GNVTG,,T,,M,0.077,N,0.143,K,A*3B
$SMGPS,0.0 m,+0.01 m/s,7.61 VRx,0.002 km,5 m,355.7 °,1:-- (  0.0 km/h)*DF
$SMGPS2,-0.23 X,+0.16 Y,+0.95 Z,49 ENL,0 us*7A
$GNRMC,161926.60,A,4816.48363,N,01139.86792,E,0.05,,080522,,,A*52
$GNGGA,161926.60,4816.48363,N,01139.86792,E,1,12,0.64,457.3,M,46.2,M,,*42
$GNGSA,A,3,01,03,08,21,27,10,32,22,14,23,,,1.13,0.64,0.94*18
$GNVTG,,T,,M,0.045,N,0.083,K,A*37
$SMGPS,0.0 m,+0.01 m/s,7.58 VRx,0.002 km,5 m,355.7 °,1:-- (  0.0 km/h)*D5
$SMGPS2,-0.23 X,+0.15 Y,+0.94 Z,12 ENL,0 us*76
$GNRMC,161926.70,A,4816.48364,N,01139.86790,E,0.07,,080522,,,A*54
$GNGGA,161926.70,4816.48364,N,01139.86790,E,1,12,0.64,457.3,M,46.2,M,,*46
$GNGSA,A,3,01,03,08,21,27,10,32,22,14,23,,,1.13,0.64,0.94*18
$GNVTG,,T,,M,0.070,N,0.130,K,A*38
$SMGPS,-0.0 m,+0.01 m/s,7.60 VRx,0.002 km,5 m,355.7 °,1:-- (  0.0 km/h)*F3
$SMGPS2,-0.21 X,+0.16 Y,+0.91 Z,1 ENL,0 us*40
$GNRMC,161926.80,A,4816.48365,N,01139.86789,E,0.05,,080522,,,A*50
$GNGGA,161926.80,4816.48365,N,01139.86789,E,1,12,0.64,457.3,M,46.2,M,,*40
$GNGSA,A,3,01,03,08,21,27,10,32,22,14,23,,,1.13,0.64,0.94*18
$GNVTG,,T,,M,0.047,N,0.086,K,A*30
$SMGPS,-0.0 m,+0.01 m/s,7.58 VRx,0.002 km,5 m,355.7 °,1:-- (  0.0 km/h)*F8
$SMGPS2,-0.22 X,+0.16 Y,+0.95 Z,3 ENL,0 us*45
$GNRMC,161926.90,A,4816.48366,N,01139.86787,E,0.24,,080522,,,A*5F
$GNGGA,161926.90,4816.48366,N,01139.86787,E,1,12,0.64,457.3,M,46.2,M,,*4C
$GNGSA,A,3,01,03,08,21,27,10,32,22,14,23,,,1.13,0.64,0.94*18
$GNVTG,,T,,M,0.240,N,0.444,K,A*3F
$SMGPS,-0.0 m,+0.00 m/s,7.59 VRx,0.002 km,6 m,356.3 °,1:-- (  0.0 km/h)*FC
$SMGPS2,-0.22 X,+0.16 Y,+0.93 Z,1 ENL,0 us*41
$GNRMC,161927.00,A,4816.48367,N,01139.86786,E,0.11,,080522,,,A*51
$GNGGA,161927.00,4816.48367,N,01139.86786,E,1,12,0.64,457.3,M,46.2,M,,*44
$GNGSA,A,3,01,03,08,21,27,10,32,22,14,23,,,1.13,0.64,0.94*18
$GNVTG,,T,,M,0.107,N,0.198,K,A*3B
$SMGPS,-0.0 m,+0.00 m/s,7.58 VRx,0.002 km,6 m,356.3 °,1:-- (  0.0 km/h)*FD
$SMGPS2,-0.21 X,+0.16 Y,+0.93 Z,1 ENL,0 us*42
$GNRMC,161927.10,A,4816.48368,N,01139.86785,E,0.12,,080522,,,A*5F
$GNGGA,161927.10,4816.48368,N,01139.86785,E,1,12,0.64,457.3,M,46.2,M,,*49
$GNGSA,A,3,01,03,08,21,27,10,32,22,14,23,,,1.13,0.64,0.94*18
$GNVTG,,T,,M,0.123,N,0.228,K,A*35
$SMGPS,0.0 m,+0.00 m/s,7.59 VRx,0.002 km,6 m,356.3 °,1:-- (  0.0 km/h)*D1
$SMGPS2,-0.21 X,+0.17 Y,+0.93 Z,1 ENL,0 us*43
$GNRMC,161927.20,A,4816.48368,N,01139.86785,E,0.10,,080522,,,A*5E
$GNGGA,161927.20,4816.48368,N,01139.86785,E,1,12,0.64,457.3,M,46.2,M,,*4A
$GNGSA,A,3,01,03,08,21,27,10,32,22,14,23,,,1.13,0.64,0.94*18
$GNVTG,,T,,M,0.096,N,0.178,K,A*3C
$SMGPS,0.0 m,-0.00 m/s,7.58 VRx,0.002 km,6 m,354.9 °,1:-- (  0.0 km/h)*DE
$SMGPS2,-0.21 X,+0.16 Y,+0.93 Z,1 ENL,0 us*42
$GNRMC,161927.30,A,4816.48368,N,01139.86785,E,0.11,,080522,,,A*5E
$GNGGA,161927.30,4816.48368,N,01139.86785,E,1,12,0.64,457.3,M,46.2,M,,*4B
$GNGSA,A,3,01,03,08,21,27,10,32,22,14,23,,,1.13,0.64,0.94*18
$GNVTG,,T,,M,0.106,N,0.197,K,A*35
$SMGPS,0.0 m,+0.00 m/s,7.60 VRx,0.002 km,6 m,354.9 °,1:-- (  0.0 km/h)*D3
$SMGPS2,-0.21 X,+0.16 Y,+0.93 Z,0 ENL,0 us*43
$GNRMC,161927.40,A,4816.48367,N,01139.86785,E,0.08,,080522,,,A*5E
$GNGGA,161927.40,4816.48367,N,01139.86785,E,1,12,0.64,457.3,M,46.2,M,,*43
$GNGSA,A,3,01,03,08,21,27,10,32,22,14,23,,,1.13,0.64,0.94*18
$GNVTG,,T,,M,0.075,N,0.139,K,A*34
$SMGPS,0.0 m,+0.00 m/s,7.57 VRx,0.002 km,6 m,354.9 °,1:-- (  0.0 km/h)*D7
$SMGPS2,-0.21 X,+0.16 Y,+0.93 Z,0 ENL,0 us*43
$GNRMC,161927.50,A,4816.48367,N,01139.86784,E,0.06,,080522,,,A*50
$GNGGA,161927.50,4816.48367,N,01139.86784,E,1,12,0.64,457.3,M,46.2,M,,*43
$GNGSA,A,3,01,03,08,21,27,10,32,22,14,23,,,1.13,0.64,0.94*18
$GNVTG,,T,,M,0.061,N,0.113,K,A*39
$SMGPS,0.0 m,-0.00 m/s,7.61 VRx,0.002 km,6 m,354.9 °,1:-- (  0.0 km/h)*D4
$SMGPS2,-0.21 X,+0.17 Y,+0.93 Z,0 ENL,0 us*42
$GNRMC,161927.60,A,4816.48367,N,01139.86784,E,0.08,,080522,,,A*5D
$GNGGA,161927.60,4816.48367,N,01139.86784,E,1,12,0.64,457.3,M,46.2,M,,*40
$GNGSA,A,3,01,03,08,21,27,10,32,22,14,23,,,1.13,0.64,0.94*18
$GNVTG,,T,,M,0.081,N,0.149,K,A*38
$SMGPS,-0.0 m,+0.00 m/s,7.57 VRx,0.002 km,6 m,354.9 °,1:-- (  0.0 km/h)*FA
$SMGPS2,-0.21 X,+0.16 Y,+0.93 Z,0 ENL,0 us*43
$GNRMC,161927.70,A,4816.48366,N,01139.86783,E,0.14,,080522,,,A*57
$GNGGA,161927.70,4816.48366,N,01139.86783,E,1,12,0.64,457.3,M,46.2,M,,*47
$GNGSA,A,3,01,03,08,21,27,10,32,22,14,23,,,1.13,0.64,0.94*18
$GNVTG,,T,,M,0.142,N,0.263,K,A*3D
$SMGPS,-0.0 m,-0.00 m/s,7.60 VRx,0.002 km,6 m,354.9 °,1:-- (  0.0 km/h)*F8
$SMGPS2,-0.21 X,+0.16 Y,+0.93 Z,0 ENL,0 us*43
$GNRMC,161927.80,A,4816.48366,N,01139.86782,E,0.07,,080522,,,A*5B
$GNGGA,161927.80,4816.48366,N,01139.86782,E,1,12,0.64,457.2,M,46.2,M,,*48
$GNGSA,A,3,01,03,08,21,27,10,32,22,14,23,,,1.13,0.64,0.94*18
$GNVTG,,T,,M,0.064,N,0.118,K,A*37
$SMGPS,-0.1 m,-0.00 m/s,7.57 VRx,0.002 km,6 m,354.9 °,1:-- (  0.0 km/h)*FD
$SMGPS2,-0.21 X,+0.16 Y,+0.93 Z,70 ENL,0 us*74
$GNRMC,161927.90,A,4816.48366,N,01139.86781,E,0.05,,080522,,,A*5B
$GNGGA,161927.90,4816.48366,N,01139.86781,E,1,12,0.64,457.3,M,46.2,M,,*4B
$GNGSA,A,3,01,03,08,21,27,10,32,22,14,23,,,1.13,0.64,0.94*18
$GNVTG,,T,,M,0.044,N,0.082,K,A*37
$SMGPS,-0.0 m,-0.01 m/s,7.59 VRx,0.002 km,6 m,354.9 °,1:-- (  0.0 km/h)*F3
$SMGPS2,-0.21 X,+0.15 Y,+0.93 Z,54 ENL,0 us*71
$GNRMC,161928.00,A,4816.48365,N,01139.86780,E,0.05,,080522,,,A*5F
$GNGGA,161928.00,4816.48365,N,01139.86780,E,1,12,0.64,457.3,M,46.2,M,,*4F
$GNGSA,A,3,01,03,08,21,27,10,32,22,14,23,,,1.13,0.64,0.94*18
$GNVTG,,T,,M,0.047,N,0.086,K,A*30
$SMGPS,0.0 m,-0.01 m/s,7.56 VRx,0.002 km,6 m,354.9 °,1:-- (  0.0 km/h)*D1
$SMGPS2,-0.21 X,+0.17 Y,+0.93 Z,71 ENL,0 us*74
$GNRMC,161928.10,A,4816.48365,N,01139.86780,E,0.06,,080522,,,A*5D
$GNGGA,161928.10,4816.48365,N,01139.86780,E,1,12,0.64,457.3,M,46.2,M,,*4E
$GNGSA,A,3,01,03,08,21,27,10,32,22,14,23,,,1.13,0.64,0.94*18
$GNVTG,,T,,M,0.056,N,0.103,K,A*3C
$SMGPS,0.0 m,-0.02 m/s,7.58 VRx,0.002 km,6 m,354.9 °,1:-- (  0.0 km/h)*DC
$SMGPS2,-0.20 X,+0.18 Y,+0.93 Z,69 ENL,0 us*73
$GNRMC,161928.20,A,4816.48365,N,01139.86780,E,0.17,,080522,,,A*5E
$GNGGA,161928.20,4816.48365,N,01139.86780,E,1,12,0.64,457.3,M,46.2,M,,*4D
$GNGSA,A,3,01,03,08,21,27,10,32,22,14,23,,,1.13,0.64,0.94*18
$GNVTG,,T,,M,0.173,N,0.321,K,A*38
$SMGPS,0.0 m,-0.01 m/s,7.58 VRx,0.002 km,6 m,354.9 °,1:-- (  0.0 km/h)*DF
$SMGPS2,-0.21 X,+0.16 Y,+0.91 Z,43 ENL,0 us*76
$GNRMC,161928.30,A,4816.48366,N,01139.86779,E,0.06,,080522,,,A*5A
$GNGGA,161928.30,4816.48366,N,01139.86779,E,1,12,0.64,457.3,M,46.2,M,,*49
$GNGSA,A,3,01,03,08,21,27,10,32,22,14,23,,,1.13,0.64,0.94*18
$GNVTG,,T,,M,0.061,N,0.114,K,A*3E
$SMGPS,-0.0 m,-0.01 m/s,7.59 VRx,0.002 km,6 m,354.9 °,1:-- (  0.0 km/h)*F3
$SMGPS2,-0.21 X,+0.17 Y,+0.93 Z,4 ENL,0 us*46
$GNRMC,161928.40,A,4816.48365,N,01139.86778,E,0.06,,080522,,,A*5F
$GNGGA,161928.40,4816.48365,N,01139.86778,E,1,12,0.64,457.3,M,46.2,M,,*4C
$GNGSA,A,3,01,03,08,21,27,10,32,22,14,23,,,1.13,0.64,0.94*18
$GNVTG,,T,,M,0.057,N,0.106,K,A*38
$SMGPS,-0.0 m,-0.00 m/s,7.58 VRx,0.002 km,6 m,354.9 °,1:-- (  0.0 km/h)*F3
$SMGPS2,-0.22 X,+0.16 Y,+0.93 Z,2 ENL,0 us*42
$GNRMC,161928.50,A,4816.48365,N,01139.86778,E,0.07,,080522,,,A*5F
$GNGGA,161928.50,4816.48365,N,01139.86778,E,1,12,0.64,457.3,M,46.2,M,,*4D
$GNGSA,A,3,01,03,08,21,27,10,32,22,14,23,,,1.13,0.64,0.94*18
$GNVTG,,T,,M,0.074,N,0.138,K,A*34
$SMGPS,-0.0 m,-0.00 m/s,7.60 VRx,0.002 km,6 m,354.9 °,1:-- (  0.0 km/h)*F8
$SMGPS2,-0.21 X,+0.16 Y,+0.93 Z,0 ENL,0 us*43
$GNRMC,161928.60,A,4816.48365,N,01139.86777,E,0.09,,080522,,,A*5D
$GNGGA,161928.60,4816.48365,N,01139.86777,E,1,12,0.64,457.3,M,46.2,M,,*41
$GNGSA,A,3,01,03,08,21,27,10,32,22,14,23,,,1.13,0.64,0.94*18
$GNVTG,,T,,M,0.087,N,0.162,K,A*37
$SMGPS,0.0 m,+0.00 m/s,7.57 VRx,0.002 km,6 m,354.9 °,1:-- (  0.0 km/h)*D7
$SMGPS2,-0.21 X,+0.16 Y,+0.93 Z,1 ENL,0 us*42
$GNRMC,161928.70,A,4816.48365,N,01139.86777,E,0.06,,080522,,,A*53
$GNGGA,161928.70,4816.48365,N,01139.86777,E,1,12,0.64,457.3,M,46.2,M,,*40
$GNGSA,A,3,01,03,08,21,27,10,32,22,14,23,,,1.13,0.64,0.94*18
$GNVTG,,T,,M,0.064,N,0.119,K,A*36
$SMGPS,-0.0 m,+0.00 m/s,7.60 VRx,0.002 km,6 m,354.9 °,1:-- (  0.0 km/h)*FE
$SMGPS2,-0.21 X,+0.17 Y,+0.93 Z,0 ENL,0 us*42
$GNRMC,161928.80,A,4816.48365,N,01139.86777,E,0.05,,080522,,,A*5F
$GNGGA,161928.80,4816.48365,N,01139.86777,E,1,12,0.64,457.3,M,46.2,M,,*4F
$GNGSA,A,3,01,03,08,21,27,10,32,22,14,23,,,1.13,0.64,0.94*18
$GNVTG,,T,,M,0.046,N,0.086,K,A*31
$SMGPS,0.0 m,+0.01 m/s,7.57 VRx,0.002 km,6 m,354.9 °,1:-- (  0.0 km/h)*D6
$SMGPS2,-0.21 X,+0.16 Y,+0.93 Z,0 ENL,0 us*43
$GNRMC,161928.90,A,4816.48366,N,01139.86777,E,0.04,,080522,,,A*5C
$GNGGA,161928.90,4816.48366,N,01139.86777,E,1,12,0.64,457.3,M,46.2,M,,*4D
$GNGSA,A,3,01,03,08,21,27,10,32,22,14,23,,,1.13,0.64,0.94*18
$GNVTG,,T,,M,0.039,N,0.073,K,A*33
$SMGPS,0.0 m,+0.01 m/s,7.61 VRx,0.002 km,6 m,354.9 °,1:-- (  0.0 km/h)*D3
$SMGPS2,-0.21 X,+0.16 Y,+0.93 Z,1 ENL,0 us*42
$GNRMC,161929.00,A,4816.48366,N,01139.86777,E,0.10,,080522,,,A*51
$GNGGA,161929.00,4816.48366,N,01139.86777,E,1,12,0.64,457.3,M,46.2,M,,*45
$GNGSA,A,3,01,03,08,21,27,10,32,22,14,23,,,1.13,0.64,0.94*18
$GNVTG,,T,,M,0.095,N,0.176,K,A*31
$SMGPS,0.0 m,+0.01 m/s,7.57 VRx,0.002 km,6 m,354.9 °,1:-- (  0.0 km/h)*D6
$SMGPS2,-0.22 X,+0.16 Y,+0.93 Z,1 ENL,0 us*41
$GNRMC,161929.10,A,4816.48366,N,01139.86777,E,0.04,,080522,,,A*55
$GNGGA,161929.10,4816.48366,N,01139.86777,E,1,12,0.64,457.3,M,46.2,M,,*44
$GNGSA,A,3,01,03,08,21,27,10,32,22,14,23,,,1.13,0.64,0.94*18
$GNVTG,,T,,M,0.041,N,0.076,K,A*39
$SMGPS,-0.0 m,+0.01 m/s,7.59 VRx,0.002 km,6 m,354.9 °,1:-- (  0.0 km/h)*F5
$SMGPS2,-0.21 X,+0.16 Y,+0.93 Z,0 ENL,0 us*43
$GNRMC,161929.20,A,4816.48366,N,01139.86777,E,0.04,,080522,,,A*56
$GNGGA,161929.20,4816.48366,N,01139.86777,E,1,12,0.64,457.3,M,46.2,M,,*47
$GNGSA,A,3,01,03,08,21,27,10,32,22,14,23,,,1.13,0.64,0.94*18
$GNVTG,,T,,M,0.041,N,0.075,K,A*3A
$SMGPS,-0.0 m,+0.01 m/s,7.58 VRx,0.002 km,6 m,354.9 °,1:-- (  0.0 km/h)*F4
$SMGPS2,-0.21 X,+0.17 Y,+0.93 Z,1 ENL,0 us*43
$GNRMC,161929.30,A,4816.48366,N,01139.86777,E,0.21,,080522,,,A*50
$GNGGA,161929.30,4816.48366,N,01139.86777,E,1,12,0.64,457.3,M,46.2,M,,*46
$GNGSA,A,3,01,03,08,21,27,10,32,22,14,23,,,1.13,0.64,0.94*18
$GNVTG,,T,,M,0.208,N,0.386,K,A*3A
$SMGPS,-0.0 m,+0.00 m/s,7.59 VRx,0.002 km,6 m,354.9 °,1:-- (  0.0 km/h)*F4
$SMGPS2,-0.22 X,+0.16 Y,+0.92 Z,0 ENL,0 us*41
$GNRMC,161929.40,A,4816.48367,N,01139.86777,E,0.05,,080522,,,A*50
$GNGGA,161929.40,4816.48367,N,01139.86777,E,1,12,0.64,457.3,M,46.2,M,,*40
$GNGSA,A,3,01,03,08,21,27,10,32,22,14,23,,,1.13,0.64,0.94*18
$GNVTG,,T,,M,0.052,N,0.096,K,A*35
$SMGPS,0.0 m,+0.00 m/s,7.58 VRx,0.002 km,6 m,354.9 °,1:-- (  0.0 km/h)*D8
$SMGPS2,-0.22 X,+0.15 Y,+0.93 Z,0 ENL,0 us*43
$GNRMC,161929.50,A,4816.48367,N,01139.86778,E,0.13,,080522,,,A*59
$GNGGA,161929.50,4816.48367,N,01139.86778,E,1,12,0.64,457.3,M,46.2,M,,*4E
$GNGSA,A,3,01,03,08,21,27,10,32,22,14,23,,,1.13,0.64,0.94*18
$GNVTG,,T,,M,0.132,N,0.245,K,A*3E
$SMGPS,-0.0 m,-0.00 m/s,7.59 VRx,0.002 km,6 m,354.9 °,1:-- (  0.0 km/h)*F2
$SMGPS2,-0.21 X,+0.17 Y,+0.93 Z,0 ENL,0 us*42
$GNRMC,161929.60,A,4816.48367,N,01139.86778,E,0.01,,080522,,,A*59
$GNGGA,161929.60,4816.48367,N,01139.86778,E,1,12,0.64,457.3,M,46.2,M,,*4D
$GNGSA,A,3,01,03,08,21,27,10,32,22,14,23,,,1.13,0.64,0.94*18
$GNVTG,,T,,M,0.010,N,0.018,K,A*35
$SMGPS,-0.0 m,-0.01 m/s,7.57 VRx,0.002 km,6 m,354.9 °,1:-- (  0.0 km/h)*FD
$SMGPS2,-0.22 X,+0.16 Y,+0.93 Z,0 ENL,0 us*40
$GNRMC,161929.70,A,4816.48368,N,01139.86779,E,0.09,,080522,,,A*5E
$GNGGA,161929.70,4816.48368,N,01139.86779,E,1,12,0.64,457.3,M,46.2,M,,*42
$GNGSA,A,3,01,03,08,21,27,10,32,22,14,23,,,1.13,0.64,0.94*18
$GNVTG,,T,,M,0.093,N,0.171,K,A*30
$SMGPS,-0.0 m,-0.01 m/s,7.60 VRx,0.002 km,6 m,354.9 °,1:-- (  0.0 km/h)*F9
$SMGPS2,-0.21 X,+0.16 Y,+0.93 Z,0 ENL,0 us*43
$GNRMC,161929.80,A,4816.48368,N,01139.86779,E,0.11,,080522,,,A*58
$GNGGA,161929.80,4816.48368,N,01139.86779,E,1,12,0.64,457.3,M,46.2,M,,*4D
$GNGSA,A,3,01,03,08,21,27,10,32,22,14,23,,,1.13,0.64,0.94*18
$GNVTG,,T,,M,0.112,N,0.207,K,A*3A
$SMGPS,-0.0 m,-0.01 m/s,7.56 VRx,0.002 km,6 m,354.9 °,1:-- (  0.0 km/h)*FC
$SMGPS2,-0.21 X,+0.16 Y,+0.93 Z,0 ENL,0 us*43
$GNRMC,161929.90,A,4816.48368,N,01139.86779,E,0.12,,080522,,,A*5A
$GNGGA,161929.90,4816.48368,N,01139.86779,E,1,12,0.64,457.3,M,46.2,M,,*4C
$GNGSA,A,3,01,03,08,21,27,10,32,22,14,23,,,1.13,0.64,0.94*18
$GNVTG,,T,,M,0.119,N,0.220,K,A*34
$SMGPS,-0.0 m,-0.01 m/s,7.59 VRx,0.002 km,6 m,354.9 °,1:-- (  0.0 km/h)*F3
$SMGPS2,-0.21 X,+0.17 Y,+0.93 Z,1 ENL,0 us*43
$GNRMC,161930.00,A,4816.48368,N,01139.86779,E,0.16,,080522,,,A*5F
$GNGGA,161930.00,4816.48368,N,01139.86779,E,1,12,0.64,457.3,M,46.2,M,,*4D
$GNGSA,A,3,01,03,08,21,27,10,32,22,14,23,,,1.13,0.64,0.94*18
$GNVTG,,T,,M,0.155,N,0.286,K,A*30
$SMGPS,-0.0 m,-0.02 m/s,7.57 VRx,0.002 km,6 m,354.9 °,1:-- (  0.0 km/h)*FE
$SMGPS2,-0.21 X,+0.16 Y,+0.93 Z,0 ENL,0 us*43
$GNRMC,161930.10,A,4816.48368,N,01139.86779,E,0.14,,080522,,,A*5C
$GNGGA,161930.10,4816.48368,N,01139.86779,E,1,12,0.64,457.3,M,46.2,M,,*4C
$GNGSA,A,3,01,03,08,21,27,10,32,22,14,23,,,1.13,0.64,0.94*18
$GNVTG,,T,,M,0.143,N,0.265,K,A*3A
$SMGPS,0.0 m,-0.02 m/s,7.60 VRx,0.002 km,6 m,354.9 °,1:-- (  0.0 km/h)*D7
$SMGPS2,-0.21 X,+0.16 Y,+0.93 Z,0 ENL,0 us*43
$GNRMC,161930.20,A,4816.48368,N,01139.86778,E,0.07,,080522,,,A*5C
$GNGGA,161930.20,4816.48368,N,01139.86778,E,1,12,0.64,457.3,M,46.2,M,,*4E
$GNGSA,A,3,01,03,08,21,27,10,32,22,14,23,,,1.13,0.64,0.94*18
$GNVTG,,T,,M,0.065,N,0.120,K,A*3D
$SMGPS,-0.0 m,-0.01 m/s,7.57 VRx,0.002 km,6 m,354.9 °,1:-- (  0.0 km/h)*FD
$SMGPS2,-0.21 X,+0.16 Y,+0.93 Z,0 ENL,0 us*43
$GNRMC,161930.30,A,4816.48367,N,01139.86777,E,0.08,,080522,,,A*52
$GNGGA,161930.30,4816.48367,N,01139.86777,E,1,12,0.64,457.3,M,46.2,M,,*4F
$GNGSA,A,3,01,03,08,21,27,10,32,22,14,23,,,1.13,0.64,0.94*18
$GNVTG,,T,,M,0.077,N,0.142,K,A*3A
$SMGPS,-0.0 m,-0.01 m/s,7.60 VRx,0.002 km,6 m,354.9 °,1:-- (  0.0 km/h)*F9
$SMGPS2,-0.21 X,+0.16 Y,+0.93 Z,0 ENL,0 us*43
$GNRMC,161930.40,A,4816.48367,N,01139.86777,E,0.11,,080522,,,A*5D
$GNGGA,161930.40,4816.48367,N,01139.86777,E,1,12,0.64,457.3,M,46.2,M,,*48
$GNGSA,A,3,01,03,08,21,27,10,32,22,14,23,,,1.13,0.64,0.94*18
$GNVTG,,T,,M,0.107,N,0.197,K,A*34
$SMGPS,-0.0 m,-0.02 m/s,7.64 VRx,0.002 km,6 m,354.9 °,1:-- (  0.0 km/h)*FE
$SMGPS2,-0.21 X,+0.16 Y,+0.93 Z,1 ENL,0 us*42
$GNRMC,161930.50,A,4816.48367,N,01139.86777,E,0.12,,080522,,,A*5F
$GNGGA,161930.50,4816.48367,N,01139.86777,E,1,12,0.64,457.3,M,46.2,M,,*49
$GNGSA,A,3,01,03,08,21,27,10,32,22,14,23,,,1.13,0.64,0.94*18
$GNVTG,,T,,M,0.115,N,0.212,K,A*39
$SMGPS,-0.0 m,-0.02 m/s,7.60 VRx,0.002 km,6 m,354.9 °,1:-- (  0.0 km/h)*FA
$SMGPS2,-0.22 X,+0.16 Y,+0.93 Z,1 ENL,0 us*41
$GNRMC,161930.60,A,4816.48366,N,01139.86776,E,0.07,,080522,,,A*58
$GNGGA,161930.60,4816.48366,N,01139.86776,E,1,12,0.64,457.3,M,46.2,M,,*4A
$GNGSA,A,3,01,03,08,21,27,10,32,22,14,23,,,1.13,0.64,0.94*18
$GNVTG,,T,,M,0.065,N,0.120,K,A*3D
$SMGPS,0.0 m,-0.02 m/s,7.58 VRx,0.002 km,6 m,354.9 °,1:-- (  0.0 km/h)*DC
$SMGPS2,-0.21 X,+0.16 Y,+0.93 Z,0 ENL,0 us*43
$GNRMC,161930.70,A,4816.48366,N,01139.86776,E,0.11,,080522,,,A*5E
$GNGGA,161930.70,4816.48366,N,01139.86776,E,1,12,0.64,457.3,M,46.2,M,,*4B
$GNGSA,A,3,01,03,08,21,27,10,32,22,14,23,,,1.13,0.64,0.94*18
$GNVTG,,T,,M,0.108,N,0.200,K,A*36
$SMGPS,-0.0 m,-0.02 m/s,7.59 VRx,0.002 km,6 m,354.9 °,1:-- (  0.0 km/h)*F0
$SMGPS2,-0.22 X,+0.16 Y,+0.92 Z,0 ENL,0 us*41
$GNRMC,161930.80,A,4816.48366,N,01139.86776,E,0.12,,080522,,,A*52
$GNGGA,161930.80,4816.48366,N,01139.86776,E,1,12,0.64,457.3,M,46.2,M,,*44
$GNGSA,A,3,01,03,08,21,27,10,32,22,14,23,,,1.13,0.64,0.94*18
$GNVTG,,T,,M,0.119,N,0.221,K,A*35
$SMGPS,0.0 m,-0.02 m/s,7.58 VRx,0.002 km,6 m,354.9 °,1:-- (  0.0 km/h)*DC
$SMGPS2,-0.22 X,+0.16 Y,+0.93 Z,2 ENL,0 us*42
$GNRMC,161930.90,A,4816.48366,N,01139.86776,E,0.07,,080522,,,A*57
$GNGGA,161930.90,4816.48366,N,01139.86776,E,1,12,0.64,457.3,M,46.2,M,,*45
$GNGSA,A,3,01,03,08,21,27,10,32,22,14,23,,,1.13,0.64,0.94*18
$GNVTG,,T,,M,0.057,N,0.105,K,A*3B
$SMGPS,-0.0 m,-0.01 m/s,7.59 VRx,0.002 km,6 m,354.9 °,1:-- (  0.0 km/h)*F3
$SMGPS2,-0.21 X,+0.15 Y,+0.94 Z,0 ENL,0 us*47
$GNRMC,161931.00,A,4816.48366,N,01139.86776,E,0.05,,080522,,,A*5D
$GNGGA,161931.00,4816.48366,N,01139.86776,E,1,12,0.64,457.3,M,46.2,M,,*4D
$GNGSA,A,3,01,03,08,21,27,10,32,22,14,23,,,1.13,0.64,0.94*18
$GNVTG,,T,,M,0.046,N,0.086,K,A*31
$SMGPS,0.0 m,-0.01 m/s,7.58 VRx,0.002 km,6 m,354.9 °,1:-- (  0.0 km/h)*DF
$SMGPS2,-0.21 X,+0.16 Y,+0.93 Z,0 ENL,0 us*43
$GNRMC,161931.10,A,4816.48366,N,01139.86775,E,0.29,,080522,,,A*51
$GNGGA,161931.10,4816.48366,N,01139.86775,E,1,12,0.64,457.3,M,46.2,M,,*4F
$GNGSA,A,3,01,03,08,21,27,10,32,22,14,23,,,1.13,0.64,0.94*18
$GNVTG,,T,,M,0.287,N,0.531,K,A*37
$SMGPS,-0.0 m,-0.01 m/s,7.59 VRx,0.002 km,6 m,354.9 °,1:-- (  0.0 km/h)*F3
$SMGPS2,-0.22 X,+0.16 Y,+0.93 Z,0 ENL,0 us*40
$GNRMC,161931.20,A,4816.48366,N,01139.86774,E,0.14,,080522,,,A*5D
$GNGGA,161931.20,4816.48366,N,01139.86774,E,1,12,0.64,457.3,M,46.2,M,,*4D
$GNGSA,A,3,01,03,08,21,27,10,32,22,14,23,,,1.13,0.64,0.94*18
$GNVTG,,T,,M,0.133,N,0.246,K,A*3C
$SMGPS,-0.0 m,-0.00 m/s,7.56 VRx,0.002 km,6 m,354.9 °,1:-- (  0.0 km/h)*FD
$SMGPS2,-0.22 X,+0.16 Y,+0.93 Z,1 ENL,0 us*41
$GNRMC,161931.30,A,4816.48366,N,01139.86773,E,0.22,,080522,,,A*5E
$GNGGA,161931.30,4816.48366,N,01139.86773,E,1,12,0.64,457.3,M,46.2,M,,*4B
$GNGSA,A,3,01,03,08,21,27,10,32,22,14,23,,,1.13,0.64,0.94*18
$GNVTG,,T,,M,0.215,N,0.398,K,A*39
$SMGPS,0.0 m,+0.01 m/s,7.60 VRx,0.002 km,6 m,354.9 °,1:-- (  0.0 km/h)*D2
$SMGPS2,-0.21 X,+0.16 Y,+0.93 Z,1 ENL,0 us*42
$GNRMC,161931.40,A,4816.48366,N,01139.86773,E,0.13,,080522,,,A*5B
$GNGGA,161931.40,4816.48366,N,01139.86773,E,1,12,0.64,457.3,M,46.2,M,,*4C
$GNGSA,A,3,01,03,08,21,27,10,32,22,14,23,,,1.13,0.64,0.94*18
$GNVTG,,T,,M,0.127,N,0.235,K,A*3D
$SMGPS,-0.0 m,+0.01 m/s,7.55 VRx,0.002 km,6 m,353.4 °,1:-- (  0.0 km/h)*F3
$SMGPS2,-0.21 X,+0.16 Y,+0.93 Z,0 ENL,0 us*43
$GNRMC,161931.50,A,4816.48366,N,01139.86773,E,0.26,,080522,,,A*5C
$GNGGA,161931.50,4816.48366,N,01139.86773,E,1,12,0.64,457.3,M,46.2,M,,*4D
$GNGSA,A,3,01,03,08,21,27,10,32,22,14,23,,,1.13,0.64,0.94*18
$GNVTG,,T,,M,0.255,N,0.472,K,A*3E
$SMGPS,-0.0 m,+0.01 m/s,7.60 VRx,0.002 km,6 m,353.4 °,1:-- (  0.0 km/h)*F5
$SMGPS2,-0.21 X,+0.16 Y,+0.93 Z,0 ENL,0 us*43
$GNRMC,161931.60,A,4816.48366,N,01139.86772,E,0.07,,080522,,,A*5D
$GNGGA,161931.60,4816.48366,N,01139.86772,E,1,12,0.64,457.3,M,46.2,M,,*4F
$GNGSA,A,3,01,03,08,21,27,10,32,22,14,23,,,1.13,0.64,0.94*18
$GNVTG,,T,,M,0.056,N,0.104,K,A*3B
$SMGPS,0.0 m,+0.01 m/s,7.58 VRx,0.002 km,6 m,353.4 °,1:-- (  0.0 km/h)*D3
$SMGPS2,-0.21 X,+0.16 Y,+0.93 Z,0 ENL,0 us*43
$GNRMC,161931.70,A,4816.48366,N,01139.86772,E,0.07,,080522,,,A*5C
$GNGGA,161931.70,4816.48366,N,01139.86772,E,1,12,0.64,457.3,M,46.2,M,,*4E
$GNGSA,A,3,01,03,08,21,27,10,32,22,14,23,,,1.13,0.64,0.94*18
$GNVTG,,T,,M,0.060,N,0.111,K,A*3A
$SMGPS,-0.0 m,+0.01 m/s,7.59 VRx,0.002 km,6 m,353.4 °,1:-- (  0.0 km/h)*FF
$SMGPS2,-0.22 X,+0.16 Y,+0.93 Z,1 ENL,0 us*41
$GNRMC,161931.80,A,4816.48366,N,01139.86771,E,0.06,,080522,,,A*51
$GNGGA,161931.80,4816.48366,N,01139.86771,E,1,12,0.64,457.3,M,46.2,M,,*42
$GNGSA,A,3,01,03,08,21,27,10,32,22,14,23,,,1.13,0.64,0.94*18
$GNVTG,,T,,M,0.058,N,0.107,K,A*36
$SMGPS,0.0 m,+0.01 m/s,7.58 VRx,0.002 km,6 m,353.4 °,1:-- (  0.0 km/h)*D3
$SMGPS2,-0.21 X,+0.17 Y,+0.94 Z,0 ENL,0 us*45
$GNRMC,161931.90,A,4816.48367,N,01139.86771,E,0.06,,080522,,,A*51
$GNGGA,161931.90,4816.48367,N,01139.86771,E,1,12,0.64,457.3,M,46.2,M,,*42
$GNGSA,A,3,01,03,08,21,27,10,32,22,14,23,,,1.13,0.64,0.94*18
$GNVTG,,T,,M,0.051,N,0.094,K,A*34
$SMGPS,-0.0 m,+0.01 m/s,7.59 VRx,0.002 km,6 m,353.4 °,1:-- (  0.0 km/h)*FF
$SMGPS2,-0.22 X,+0.16 Y,+0.92 Z,0 ENL,0 us*41
$GNRMC,161932.00,A,4816.48367,N,01139.86771,E,0.12,,080522,,,A*5E
