$GPSSETUP,8AE8,0,1,1,0,0,1,0,0,0,1,3,0,0,0,0,6,0,C8,C8,1F4,1C2,32,64,7C,64,7D0,5,1,1,1E,0,0,0,0,0,0,1003,4,10,5,6,10,10,10,10,10,10,10,10,10,BC10,0,7C,0,108,302,604,0,20F,0,0,0,0,0,0,0,0,0,0,0,0,0,0,0,0,0,0,0,0,0,0,0,0,0,0,0,0,0,0,0,0,0,20,12C,877D*47
$GNRMC,161244.60,A,4816.48673,N,01139.86848,E,0.24,,080522,,,A*52
$GNGGA,161244.60,4816.48673,N,01139.86848,E,1,09,1.13,471.3,M,46.2,M,,*4E
$GNGSA,A,3,32,01,27,08,21,10,22,,,,,,2.23,1.13,1.92*19
$GNVTG,,T,,M,0.239,N,0.442,K,A*37
$SMGPS,-0.0 m,+0.01 m/s,7.31 VRx,0.000 km,0 m,90.0 °,1:-- (  0.0 km/h)*CD
$SMGPS2,-0.23 X,+0.09 Y,+0.93 Z,1 ENL,0 us*4E
$GNRMC,161244.70,A,4816.48683,N,01139.86850,E,0.79,,080522,,,A*5D
$GNGGA,161244.70,4816.48683,N,01139.86850,E,1,09,1.13,471.3,M,46.2,M,,*49
$GNGSA,A,3,32,01,27,08,21,10,22,,,,,,2.23,1.13,1.92*19
$GNVTG,,T,,M,0.790,N,1.462,K,A*32
$SMGPS,-0.0 m,+0.00 m/s,7.30 VRx,0.000 km,0 m,270.0 °,1:-- (  0.0 km/h)*F1
$SMGPS2,-0.23 X,+0.09 Y,+0.93 Z,1 ENL,0 us*4E
$GNRMC,161244.80,A,4816.48689,N,01139.86853,E,0.14,,080522,,,A*50
$GNGGA,161244.80,4816.48689,N,01139.86853,E,1,09,1.13,471.3,M,46.2,M,,*4F
$GNGSA,A,3,32,01,27,08,21,10,22,,,,,,2.23,1.13,1.92*19
$GNVTG,,T,,M,0.140,N,0.259,K,A*36
$SMGPS,-0.0 m,+0.00 m/s,7.36 VRx,0.000 km,0 m,270.0 °,1:-- (  0.0 km/h)*F7
$SMGPS2,-0.23 X,+0.09 Y,+0.93 Z,1 ENL,0 us*4E
$GNRMC,161244.90,A,4816.48679,N,01139.86853,E,0.13,,080522,,,A*59
$GNGGA,161244.90,4816.48679,N,01139.86853,E,1,09,1.13,471.3,M,46.2,M,,*41
$GNGSA,A,3,32,01,27,08,21,10,22,,,,,,2.23,1.13,1.92*19
$GNVTG,,T,,M,0.131,N,0.243,K,A*3B
$SMGPS,-0.0 m,+0.00 m/s,7.25 VRx,0.000 km,0 m,270.0 °,1:-- (  0.0 km/h)*F5
$SMGPS2,-0.23 X,+0.09 Y,+0.93 Z,1 ENL,0 us*4E
$GNRMC,161245.00,A,4816.48671,N,01139.86853,E,0.14,,080522,,,A*5E
$GNGGA,161245.00,4816.48671,N,01139.86853,E,1,09,1.13,471.3,M,46.2,M,,*41
$GNGSA,A,3,32,01,27,08,21,10,22,,,,,,2.23,1.13,1.92*19
$GNVTG,,T,,M,0.143,N,0.265,K,A*3A
$SMGPS,0.0 m,+0.01 m/s,7.28 VRx,0.000 km,0 m,270.0 °,1:-- (  0.0 km/h)*D4
$SMGPS2,-0.24 X,+0.09 Y,+0.93 Z,1 ENL,0 us*49
$GNRMC,161245.10,A,4816.48657,N,01139.86852,E,0.55,,080522,,,A*5F
$GNGGA,161245.10,4816.48657,N,01139.86852,E,1,10,1.01,471.3,M,46.2,M,,*4E
$GNGSA,A,3,32,01,27,08,21,10,22,,,,,,2.05,1.01,1.78*1A
$GNVTG,,T,,M,0.554,N,1.026,K,A*3C
$SMGPS,0.0 m,+0.00 m/s,7.26 VRx,0.000 km,0 m,270.0 °,1:-- (  0.0 km/h)*DB
$SMGPS2,-0.23 X,+0.09 Y,+0.94 Z,1 ENL,0 us*49
$GNRMC,161245.20,A,4816.48635,N,01139.86847,E,0.19,,080522,,,A*54
$GNGGA,161245.20,4816.48635,N,01139.86847,E,1,10,1.01,471.3,M,46.2,M,,*4D
$GNGSA,A,3,32,01,27,08,21,10,22,,,,,,2.05,1.01,1.78*1A
$GNVTG,,T,,M,0.192,N,0.355,K,A*34
$SMGPS,0.0 m,-0.00 m/s,7.28 VRx,0.000 km,1 m,189.4 °,1:-- (  0.0 km/h)*D3
$SMGPS2,-0.23 X,+0.09 Y,+0.93 Z,1 ENL,0 us*4E
$GNRMC,161245.30,A,4816.48607,N,01139.86842,E,0.07,,080522,,,A*5E
$GNGGA,161245.30,4816.48607,N,01139.86842,E,1,10,1.01,471.3,M,46.2,M,,*48
$GNGSA,A,3,32,01,27,08,21,10,22,,,,,,2.05,1.01,1.78*1A
$GNVTG,,T,,M,0.069,N,0.128,K,A*39
$SMGPS,-0.0 m,+0.00 m/s,7.26 VRx,0.000 km,1 m,189.4 °,1:-- (  0.0 km/h)*F6
$SMGPS2,-0.23 X,+0.09 Y,+0.93 Z,1 ENL,0 us*4E
$GNRMC,161245.40,A,4816.48587,N,01139.86836,E,0.23,,080522,,,A*57
$GNGGA,161245.40,4816.48587,N,01139.86836,E,1,11,0.90,471.3,M,46.2,M,,*4F
$GNGSA,A,3,32,01,27,08,21,10,22,14,,,,,1.67,0.90,1.41*1B
$GNVTG,,T,,M,0.227,N,0.420,K,A*3C
$SMGPS,-0.0 m,+0.01 m/s,7.29 VRx,0.000 km,2 m,189.4 °,1:-- (  0.0 km/h)*FB
$SMGPS2,-0.23 X,+0.08 Y,+0.94 Z,1 ENL,0 us*48
$GNRMC,161245.50,A,4816.48569,N,01139.86830,E,0.04,,080522,,,A*55
$GNGGA,161245.50,4816.48569,N,01139.86830,E,1,12,0.88,471.3,M,46.2,M,,*42
$GNGSA,A,3,32,01,27,08,21,10,22,14,,,,,1.61,0.88,1.35*17
$GNVTG,,T,,M,0.038,N,0.071,K,A*30
$SMGPS,0.0 m,+0.01 m/s,7.26 VRx,0.000 km,2 m,189.4 °,1:-- (  0.0 km/h)*D9
$SMGPS2,-0.23 X,+0.09 Y,+0.93 Z,1 ENL,0 us*4E
$GNRMC,161245.60,A,4816.48543,N,01139.86821,E,0.26,,080522,,,A*5E
$GNGGA,161245.60,4816.48543,N,01139.86821,E,1,12,0.88,471.3,M,46.2,M,,*49
$GNGSA,A,3,32,01,27,08,21,10,22,14,,,,,1.61,0.88,1.35*17
$GNVTG,,T,,M,0.261,N,0.484,K,A*30
$SMGPS,0.0 m,+0.01 m/s,7.28 VRx,0.000 km,2 m,194.0 °,1:-- (  0.0 km/h)*DF
$SMGPS2,-0.23 X,+0.09 Y,+0.93 Z,1 ENL,0 us*4E
$GNRMC,161245.70,A,4816.48533,N,01139.86818,E,0.15,,080522,,,A*52
$GNGGA,161245.70,4816.48533,N,01139.86818,E,1,12,0.86,471.3,M,46.2,M,,*4B
$GNGSA,A,3,32,01,27,08,21,10,22,14,,,,,1.50,0.86,1.23*1C
$GNVTG,,T,,M,0.144,N,0.266,K,A*3E
$SMGPS,0.0 m,+0.01 m/s,7.26 VRx,0.000 km,3 m,192.5 °,1:-- (  0.0 km/h)*D3
$SMGPS2,-0.23 X,+0.09 Y,+0.94 Z,1 ENL,0 us*49
$GNRMC,161245.80,A,4816.48516,N,01139.86813,E,0.15,,080522,,,A*51
$GNGGA,161245.80,4816.48516,N,01139.86813,E,1,12,0.86,471.3,M,46.2,M,,*48
$GNGSA,A,3,32,01,27,08,21,10,22,14,,,,,1.50,0.86,1.23*1C
$GNVTG,,T,,M,0.150,N,0.277,K,A*3B
$SMGPS,0.0 m,+0.01 m/s,7.28 VRx,0.000 km,3 m,192.5 °,1:-- (  0.0 km/h)*DD
$SMGPS2,-0.23 X,+0.09 Y,+0.93 Z,1 ENL,0 us*4E
$GNRMC,161245.90,A,4816.48499,N,01139.86804,E,0.13,,080522,,,A*56
$GNGGA,161245.90,4816.48499,N,01139.86804,E,1,12,0.86,471.3,M,46.2,M,,*49
$GNGSA,A,3,32,01,27,08,21,10,22,14,,,,,1.50,0.86,1.23*1C
$GNVTG,,T,,M,0.127,N,0.235,K,A*3D
$SMGPS,0.0 m,+0.01 m/s,7.26 VRx,0.000 km,3 m,192.5 °,1:-- (  0.0 km/h)*D3
$SMGPS2,-0.23 X,+0.09 Y,+0.94 Z,1 ENL,0 us*49
$GNRMC,161246.00,A,4816.48487,N,01139.86798,E,0.12,,080522,,,A*58
$GNGGA,161246.00,4816.48487,N,01139.86798,E,1,12,0.86,471.3,M,46.2,M,,*46
$GNGSA,A,3,32,01,27,08,21,10,22,14,,,,,1.50,0.86,1.23*1C
$GNVTG,,T,,M,0.113,N,0.210,K,A*3D
$SMGPS,-0.0 m,+0.00 m/s,7.29 VRx,0.000 km,4 m,190.5 °,1:-- (  0.0 km/h)*F5
$SMGPS2,-0.24 X,+0.08 Y,+0.93 Z,1 ENL,0 us*48
$GNRMC,161246.10,A,4816.48485,N,01139.86799,E,0.12,,080522,,,A*5A
$GNGGA,161246.10,4816.48485,N,01139.86799,E,1,12,0.86,471.3,M,46.2,M,,*44
$GNGSA,A,3,32,01,27,08,21,10,22,14,,,,,1.50,0.86,1.23*1C
$GNVTG,,T,,M,0.108,N,0.200,K,A*36
$SMGPS,0.0 m,+0.00 m/s,7.25 VRx,0.000 km,4 m,193.5 °,1:-- (  0.0 km/h)*D7
$SMGPS2,-0.24 X,+0.09 Y,+0.93 Z,1 ENL,0 us*49
$GNRMC,161246.20,A,4816.48485,N,01139.86802,E,0.15,,080522,,,A*53
$GNGGA,161246.20,4816.48485,N,01139.86802,E,1,12,0.86,471.3,M,46.2,M,,*4A
$GNGSA,A,3,32,01,27,08,21,10,22,14,,,,,1.50,0.86,1.23*1C
$GNVTG,,T,,M,0.141,N,0.261,K,A*3C
$SMGPS,-0.0 m,+0.00 m/s,7.29 VRx,0.000 km,4 m,190.5 °,1:-- (  0.0 km/h)*F5
$SMGPS2,-0.23 X,+0.10 Y,+0.93 Z,1 ENL,0 us*46
$GNRMC,161246.30,A,4816.48484,N,01139.86804,E,0.13,,080522,,,A*53
$GNGGA,161246.30,4816.48484,N,01139.86804,E,1,12,0.86,471.3,M,46.2,M,,*4C
$GNGSA,A,3,32,01,27,08,21,10,22,14,,,,,1.50,0.86,1.23*1C
$GNVTG,,T,,M,0.129,N,0.239,K,A*3F
$SMGPS,-0.0 m,-0.00 m/s,7.25 VRx,0.000 km,4 m,190.5 °,1:-- (  0.0 km/h)*FF
$SMGPS2,-0.23 X,+0.09 Y,+0.94 Z,1 ENL,0 us*49
$GNRMC,161246.40,A,4816.48487,N,01139.86807,E,0.08,,080522,,,A*5E
$GNGGA,161246.40,4816.48487,N,01139.86807,E,1,12,0.86,471.3,M,46.2,M,,*4B
$GNGSA,A,3,32,01,27,08,21,10,22,14,,,,,1.50,0.86,1.23*1C
$GNVTG,,T,,M,0.081,N,0.150,K,A*30
$SMGPS,-0.0 m,-0.00 m/s,7.29 VRx,0.000 km,4 m,190.5 °,1:-- (  0.0 km/h)*F3
$SMGPS2,-0.23 X,+0.09 Y,+0.93 Z,1 ENL,0 us*4E
$GNRMC,161246.50,A,4816.48491,N,01139.86812,E,0.10,,080522,,,A*55
$GNGGA,161246.50,4816.48491,N,01139.86812,E,1,12,0.86,471.3,M,46.2,M,,*49
$GNGSA,A,3,32,01,27,08,21,10,22,14,,,,,1.50,0.86,1.23*1C
$GNVTG,,T,,M,0.101,N,0.187,K,A*33
$SMGPS,0.0 m,-0.00 m/s,7.27 VRx,0.000 km,4 m,190.5 °,1:-- (  0.0 km/h)*D0
$SMGPS2,-0.23 X,+0.09 Y,+0.93 Z,1 ENL,0 us*4E
$GNRMC,161246.60,A,4816.48494,N,01139.86816,E,0.14,,080522,,,A*53
$GNGGA,161246.60,4816.48494,N,01139.86816,E,1,12,0.86,471.3,M,46.2,M,,*4B
$GNGSA,A,3,32,01,27,08,21,10,22,14,,,,,1.50,0.86,1.23*1C
$GNVTG,,T,,M,0.139,N,0.257,K,A*36
$SMGPS,0.0 m,-0.01 m/s,7.28 VRx,0.000 km,4 m,188.4 °,1:-- (  0.0 km/h)*D6
$SMGPS2,-0.23 X,+0.10 Y,+0.93 Z,1 ENL,0 us*46
$GNRMC,161246.70,A,4816.48501,N,01139.86822,E,0.11,,080522,,,A*5D
$GNGGA,161246.70,4816.48501,N,01139.86822,E,1,12,0.86,471.3,M,46.2,M,,*40
$GNGSA,A,3,32,01,27,08,21,10,22,14,,,,,1.50,0.86,1.23*1C
$GNVTG,,T,,M,0.114,N,0.211,K,A*3B
$SMGPS,0.0 m,-0.00 m/s,7.27 VRx,0.000 km,4 m,188.4 °,1:-- (  0.0 km/h)*D8
$SMGPS2,-0.23 X,+0.09 Y,+0.93 Z,1 ENL,0 us*4E
$GNRMC,161246.80,A,4816.48507,N,01139.86828,E,0.14,,080522,,,A*5B
$GNGGA,161246.80,4816.48507,N,01139.86828,E,1,12,0.86,471.3,M,46.2,M,,*43
$GNGSA,A,3,32,01,27,08,21,10,22,14,,,,,1.50,0.86,1.23*1C
$GNVTG,,T,,M,0.143,N,0.266,K,A*39
$SMGPS,-0.0 m,-0.00 m/s,7.30 VRx,0.000 km,4 m,188.4 °,1:-- (  0.0 km/h)*F3
$SMGPS2,-0.23 X,+0.09 Y,+0.93 Z,1 ENL,0 us*4E
$GNRMC,161246.90,A,4816.48521,N,01139.86837,E,0.04,,080522,,,A*51
$GNGGA,161246.90,4816.48521,N,01139.86837,E,1,12,0.88,471.3,M,46.2,M,,*46
$GNGSA,A,3,32,01,27,08,21,10,22,14,,,,,1.51,0.88,1.23*13
$GNVTG,,T,,M,0.044,N,0.081,K,A*34
$SMGPS,-0.0 m,+0.00 m/s,7.28 VRx,0.000 km,4 m,186.3 °,1:-- (  0.0 km/h)*F5
$SMGPS2,-0.23 X,+0.09 Y,+0.93 Z,1 ENL,0 us*4E
$GNRMC,161247.00,A,4816.48527,N,01139.86846,E,0.12,,080522,,,A*5E
$GNGGA,161247.00,4816.48527,N,01139.86846,E,1,12,0.86,471.3,M,46.2,M,,*40
$GNGSA,A,3,32,01,27,08,21,10,22,14,,,,,1.46,0.86,1.17*1C
$GNVTG,,T,,M,0.115,N,0.213,K,A*38
$SMGPS,-0.0 m,+0.00 m/s,7.30 VRx,0.000 km,3 m,186.3 °,1:-- (  0.0 km/h)*FB
$SMGPS2,-0.24 X,+0.09 Y,+0.93 Z,1 ENL,0 us*49
$GNRMC,161247.10,A,4816.48531,N,01139.86853,E,0.06,,080522,,,A*59
$GNGGA,161247.10,4816.48531,N,01139.86853,E,1,12,0.86,471.3,M,46.2,M,,*42
$GNGSA,A,3,32,01,27,08,21,10,22,14,,,,,1.46,0.86,1.17*1C
$GNVTG,,T,,M,0.054,N,0.100,K,A*3D
$SMGPS,0.0 m,+0.00 m/s,7.26 VRx,0.000 km,3 m,186.3 °,1:-- (  0.0 km/h)*D1
$SMGPS2,-0.23 X,+0.09 Y,+0.93 Z,1 ENL,0 us*4E
$GNRMC,161247.20,A,4816.48532,N,01139.86857,E,0.06,,080522,,,A*5D
$GNGGA,161247.20,4816.48532,N,01139.86857,E,1,12,0.86,471.4,M,46.2,M,,*41
$GNGSA,A,3,32,01,27,08,21,10,22,14,,,,,1.46,0.86,1.17*1C
$GNVTG,,T,,M,0.056,N,0.103,K,A*3C
$SMGPS,0.1 m,-0.00 m/s,7.28 VRx,0.000 km,3 m,183.2 °,1:-- (  0.0 km/h)*DC
$SMGPS2,-0.24 X,+0.09 Y,+0.94 Z,1 ENL,0 us*4E
$GNRMC,161247.30,A,4816.48532,N,01139.86859,E,0.18,,080522,,,A*5D
$GNGGA,161247.30,4816.48532,N,01139.86859,E,1,12,0.86,471.3,M,46.2,M,,*49
$GNGSA,A,3,32,01,27,08,21,10,22,14,,,,,1.46,0.86,1.17*1C
$GNVTG,,T,,M,0.180,N,0.333,K,A*37
$SMGPS,0.0 m,-0.00 m/s,7.26 VRx,0.000 km,3 m,183.2 °,1:-- (  0.0 km/h)*D3
$SMGPS2,-0.23 X,+0.09 Y,+0.93 Z,1 ENL,0 us*4E
$GNRMC,161247.40,A,4816.48532,N,01139.86859,E,0.12,,080522,,,A*50
$GNGGA,161247.40,4816.48532,N,01139.86859,E,1,12,0.86,471.3,M,46.2,M,,*4E
$GNGSA,A,3,32,01,27,08,21,10,22,14,,,,,1.46,0.86,1.17*1C
$GNVTG,,T,,M,0.122,N,0.227,K,A*3B
$SMGPS,-0.0 m,-0.01 m/s,7.29 VRx,0.000 km,3 m,183.2 °,1:-- (  0.0 km/h)*F0
$SMGPS2,-0.23 X,+0.09 Y,+0.93 Z,1 ENL,0 us*4E
$GNRMC,161247.50,A,4816.48532,N,01139.86863,E,0.08,,080522,,,A*53
$GNGGA,161247.50,4816.48532,N,01139.86863,E,1,12,0.86,471.3,M,46.2,M,,*46
$GNGSA,A,3,32,01,27,08,21,10,22,14,,,,,1.46,0.86,1.17*1C
$GNVTG,,T,,M,0.079,N,0.146,K,A*30
$SMGPS,0.0 m,-0.01 m/s,7.25 VRx,0.000 km,3 m,183.2 °,1:-- (  0.0 km/h)*D1
$SMGPS2,-0.23 X,+0.09 Y,+0.94 Z,1 ENL,0 us*49
$GNRMC,161247.60,A,4816.48535,N,01139.86867,E,0.15,,080522,,,A*5F
$GNGGA,161247.60,4816.48535,N,01139.86867,E,1,12,0.86,471.3,M,46.2,M,,*46
$GNGSA,A,3,32,01,27,08,21,10,22,14,,,,,1.46,0.86,1.17*1C
$GNVTG,,T,,M,0.154,N,0.285,K,A*32
$SMGPS,0.0 m,-0.01 m/s,7.29 VRx,0.000 km,3 m,180.0 °,1:-- (  0.0 km/h)*DC
$SMGPS2,-0.24 X,+0.09 Y,+0.94 Z,1 ENL,0 us*4E
$GNRMC,161247.70,A,4816.48540,N,01139.86873,E,0.08,,080522,,,A*55
$GNGGA,161247.70,4816.48540,N,01139.86873,E,1,12,0.86,471.3,M,46.2,M,,*40
$GNGSA,A,3,32,01,27,08,21,10,22,14,,,,,1.46,0.86,1.17*1C
$GNVTG,,T,,M,0.084,N,0.156,K,A*33
$SMGPS,-0.0 m,-0.01 m/s,7.26 VRx,0.000 km,3 m,180.0 °,1:-- (  0.0 km/h)*FE
$SMGPS2,-0.23 X,+0.09 Y,+0.93 Z,1 ENL,0 us*4E
$GNRMC,161247.80,A,4816.48543,N,01139.86878,E,0.15,,080522,,,A*5E
$GNGGA,161247.80,4816.48543,N,01139.86878,E,1,12,0.86,471.3,M,46.2,M,,*47
$GNGSA,A,3,32,01,27,08,21,10,22,14,,,,,1.46,0.86,1.17*1C
$GNVTG,,T,,M,0.147,N,0.272,K,A*38
$SMGPS,-0.0 m,-0.01 m/s,7.29 VRx,0.000 km,3 m,176.8 °,1:-- (  0.0 km/h)*F0
$SMGPS2,-0.23 X,+0.09 Y,+0.93 Z,1 ENL,0 us*4E
$GNRMC,161247.90,A,4816.48547,N,01139.86883,E,0.09,,080522,,,A*52
$GNGGA,161247.90,4816.48547,N,01139.86883,E,1,12,0.86,471.2,M,46.2,M,,*47
$GNGSA,A,3,32,01,27,08,21,10,22,14,,,,,1.46,0.86,1.17*1C
$GNVTG,,T,,M,0.091,N,0.169,K,A*3B
$SMGPS,-0.1 m,-0.00 m/s,7.27 VRx,0.000 km,3 m,176.8 °,1:-- (  0.0 km/h)*FE
$SMGPS2,-0.23 X,+0.09 Y,+0.93 Z,1 ENL,0 us*4E
$GNRMC,161248.00,A,4816.48550,N,01139.86889,E,0.05,,080522,,,A*54
$GNGGA,161248.00,4816.48550,N,01139.86889,E,1,12,0.86,471.3,M,46.2,M,,*4C
$GNGSA,A,3,32,01,27,08,21,10,22,14,,,,,1.46,0.86,1.17*1C
$GNVTG,,T,,M,0.053,N,0.097,K,A*35
$SMGPS,0.0 m,+0.00 m/s,7.28 VRx,0.000 km,3 m,176.8 °,1:-- (  0.0 km/h)*DB
$SMGPS2,-0.23 X,+0.09 Y,+0.94 Z,1 ENL,0 us*49
$GNRMC,161248.10,A,4816.48550,N,01139.86894,E,0.06,,080522,,,A*5A
$GNGGA,161248.10,4816.48550,N,01139.86894,E,1,12,0.86,471.3,M,46.2,M,,*41
$GNGSA,A,3,32,01,27,08,21,10,22,14,,,,,1.46,0.86,1.17*1C
$GNVTG,,T,,M,0.058,N,0.108,K,A*39
$SMGPS,0.0 m,+0.00 m/s,7.27 VRx,0.000 km,3 m,173.7 °,1:-- (  0.0 km/h)*DE
$SMGPS2,-0.23 X,+0.09 Y,+0.92 Z,1 ENL,0 us*4F
$GNRMC,161248.20,A,4816.48550,N,01139.86898,E,0.12,,080522,,,A*50
$GNGGA,161248.20,4816.48550,N,01139.86898,E,1,12,0.86,471.3,M,46.2,M,,*4E
$GNGSA,A,3,32,01,27,08,21,10,22,14,,,,,1.46,0.86,1.17*1C
$GNVTG,,T,,M,0.117,N,0.217,K,A*3E
$SMGPS,0.0 m,+0.00 m/s,7.28 VRx,0.000 km,3 m,173.7 °,1:-- (  0.0 km/h)*D1
$SMGPS2,-0.23 X,+0.09 Y,+1.00 Z,0 ENL,0 us*44
$GNRMC,161248.30,A,4816.48551,N,01139.86903,E,0.15,,080522,,,A*54
$GNGGA,161248.30,4816.48551,N,01139.86903,E,1,12,0.86,471.3,M,46.2,M,,*4D
$GNGSA,A,3,32,01,27,08,21,10,22,14,,,,,1.46,0.86,1.17*1C
$GNVTG,,T,,M,0.153,N,0.284,K,A*34
$SMGPS,0.0 m,+0.01 m/s,7.27 VRx,0.000 km,3 m,169.0 °,1:-- (  0.0 km/h)*D3
$SMGPS2,-0.23 X,+0.09 Y,+0.93 Z,1 ENL,0 us*4E
$GNRMC,161248.40,A,4816.48552,N,01139.86909,E,0.04,,080522,,,A*5A
$GNGGA,161248.40,4816.48552,N,01139.86909,E,1,12,0.86,471.3,M,46.2,M,,*43
$GNGSA,A,3,32,01,27,08,21,10,22,14,,,,,1.46,0.86,1.17*1C
$GNVTG,,T,,M,0.044,N,0.082,K,A*37
$SMGPS,-0.0 m,+0.01 m/s,7.29 VRx,0.000 km,3 m,169.0 °,1:-- (  0.0 km/h)*F0
$SMGPS2,-0.24 X,+0.09 Y,+0.93 Z,1 ENL,0 us*49
$GNRMC,161248.50,A,4816.48555,N,01139.86916,E,0.04,,080522,,,A*52
$GNGGA,161248.50,4816.48555,N,01139.86916,E,1,12,0.86,471.3,M,46.2,M,,*4B
$GNGSA,A,3,32,01,27,08,21,10,22,14,,,,,1.46,0.86,1.17*1C
$GNVTG,,T,,M,0.044,N,0.081,K,A*34
$SMGPS,-0.0 m,+0.00 m/s,7.26 VRx,0.000 km,3 m,166.0 °,1:-- (  0.0 km/h)*F1
$SMGPS2,-0.23 X,+0.09 Y,+0.93 Z,1 ENL,0 us*4E
$GNRMC,161248.60,A,4816.48559,N,01139.86923,E,0.01,,080522,,,A*5E
$GNGGA,161248.60,4816.48559,N,01139.86923,E,1,12,0.86,471.3,M,46.2,M,,*42
$GNGSA,A,3,32,01,27,08,21,10,22,14,,,,,1.46,0.86,1.17*1C
$GNVTG,,T,,M,0.008,N,0.015,K,A*31
$SMGPS,-0.0 m,+0.01 m/s,7.29 VRx,0.000 km,3 m,166.0 °,1:-- (  0.0 km/h)*FF
$SMGPS2,-0.23 X,+0.09 Y,+0.93 Z,1 ENL,0 us*4E
$GNRMC,161248.70,A,4816.48563,N,01139.86929,E,0.07,,080522,,,A*5A
$GNGGA,161248.70,4816.48563,N,01139.86929,E,1,12,0.86,471.3,M,46.2,M,,*40
$GNGSA,A,3,32,01,27,08,21,10,22,14,,,,,1.46,0.86,1.17*1C
$GNVTG,,T,,M,0.073,N,0.136,K,A*3D
$SMGPS,-0.0 m,+0.01 m/s,7.26 VRx,0.000 km,3 m,163.0 °,1:-- (  0.0 km/h)*F5
$SMGPS2,-0.23 X,+0.09 Y,+0.92 Z,1 ENL,0 us*4F
$GNRMC,161248.80,A,4816.48565,N,01139.86934,E,0.17,,080522,,,A*5E
$GNGGA,161248.80,4816.48565,N,01139.86934,E,1,12,0.86,471.3,M,46.2,M,,*45
$GNGSA,A,3,32,01,27,08,21,10,22,14,,,,,1.46,0.86,1.17*1C
$GNVTG,,T,,M,0.170,N,0.315,K,A*3C
$SMGPS,-0.0 m,+0.01 m/s,7.30 VRx,0.000 km,2 m,155.4 °,1:-- (  0.0 km/h)*F2
$SMGPS2,-0.23 X,+0.09 Y,+0.93 Z,1 ENL,0 us*4E
$GNRMC,161248.90,A,4816.48568,N,01139.86937,E,0.05,,080522,,,A*52
$GNGGA,161248.90,4816.48568,N,01139.86937,E,1,12,0.86,471.3,M,46.2,M,,*4A
$GNGSA,A,3,32,01,27,08,21,10,22,14,,,,,1.46,0.86,1.17*1C
$GNVTG,,T,,M,0.044,N,0.082,K,A*37
$SMGPS,-0.0 m,+0.00 m/s,7.27 VRx,0.000 km,2 m,151.6 °,1:-- (  0.0 km/h)*F3
$SMGPS2,-0.23 X,+0.09 Y,+0.93 Z,1 ENL,0 us*4E
$GNRMC,161249.00,A,4816.48570,N,01139.86940,E,0.09,,080522,,,A*5F
$GNGGA,161249.00,4816.48570,N,01139.86940,E,1,12,0.86,471.3,M,46.2,M,,*4B
$GNGSA,A,3,32,01,27,08,21,10,22,14,,,,,1.46,0.86,1.17*1C
$GNVTG,,T,,M,0.086,N,0.159,K,A*3E
$SMGPS,0.0 m,-0.00 m/s,7.29 VRx,0.000 km,2 m,151.6 °,1:-- (  0.0 km/h)*D6
$SMGPS2,-0.23 X,+0.09 Y,+0.94 Z,1 ENL,0 us*49
$GNRMC,161249.10,A,4816.48574,N,01139.86943,E,0.05,,080522,,,A*55
$GNGGA,161249.10,4816.48574,N,01139.86943,E,1,12,0.86,471.3,M,46.2,M,,*4D
$GNGSA,A,3,32,01,27,08,21,10,22,14,,,,,1.46,0.86,1.17*1C
$GNVTG,,T,,M,0.030,N,0.055,K,A*3E
$SMGPS,-0.0 m,-0.01 m/s,7.26 VRx,0.000 km,2 m,151.6 °,1:-- (  0.0 km/h)*F5
$SMGPS2,-0.24 X,+0.09 Y,+0.93 Z,1 ENL,0 us*49
$GNRMC,161249.20,A,4816.48577,N,01139.86946,E,0.13,,080522,,,A*57
$GNGGA,161249.20,4816.48577,N,01139.86946,E,1,12,0.86,471.3,M,46.2,M,,*48
$GNGSA,A,3,32,01,27,08,21,10,22,14,,,,,1.46,0.86,1.17*1C
$GNVTG,,T,,M,0.125,N,0.232,K,A*38
$SMGPS,-0.0 m,-0.01 m/s,7.28 VRx,0.000 km,2 m,151.6 °,1:-- (  0.0 km/h)*FB
$SMGPS2,-0.23 X,+0.09 Y,+0.93 Z,1 ENL,0 us*4E
$GNRMC,161249.30,A,4816.48580,N,01139.86948,E,0.07,,080522,,,A*55
$GNGGA,161249.30,4816.48580,N,01139.86948,E,1,12,0.86,471.3,M,46.2,M,,*4F
$GNGSA,A,3,32,01,27,08,21,10,22,14,,,,,1.46,0.86,1.17*1C
$GNVTG,,T,,M,0.062,N,0.115,K,A*3C
$SMGPS,0.0 m,-0.02 m/s,7.27 VRx,0.000 km,2 m,148.0 °,1:-- (  0.0 km/h)*D4
$SMGPS2,-0.23 X,+0.09 Y,+0.93 Z,1 ENL,0 us*4E
$GNRMC,161249.40,A,4816.48583,N,01139.86949,E,0.04,,080522,,,A*53
$GNGGA,161249.40,4816.48583,N,01139.86949,E,1,12,0.86,471.3,M,46.2,M,,*4A
$GNGSA,A,3,32,01,27,08,21,10,22,14,,,,,1.46,0.86,1.17*1C
$GNVTG,,T,,M,0.021,N,0.038,K,A*35
$SMGPS,0.0 m,-0.02 m/s,7.28 VRx,0.000 km,2 m,148.0 °,1:-- (  0.0 km/h)*DB
$SMGPS2,-0.24 X,+0.09 Y,+0.93 Z,1 ENL,0 us*49
$GNRMC,161249.50,A,4816.48583,N,01139.86949,E,0.08,,080522,,,A*5E
$GNGGA,161249.50,4816.48583,N,01139.86949,E,1,12,0.86,471.2,M,46.2,M,,*4A
$GNGSA,A,3,32,01,27,08,21,10,22,14,,,,,1.46,0.86,1.17*1C
$GNVTG,,T,,M,0.073,N,0.135,K,A*3E
$SMGPS,-0.1 m,-0.02 m/s,7.27 VRx,0.000 km,2 m,148.0 °,1:-- (  0.0 km/h)*F8
$SMGPS2,-0.23 X,+0.09 Y,+0.94 Z,1 ENL,0 us*49
$GNRMC,161249.60,A,4816.48583,N,01139.86949,E,0.10,,080522,,,A*54
$GNGGA,161249.60,4816.48583,N,01139.86949,E,1,12,0.86,471.3,M,46.2,M,,*48
$GNGSA,A,3,32,01,27,08,21,10,22,14,,,,,1.46,0.86,1.17*1C
$GNVTG,,T,,M,0.098,N,0.182,K,A*37
$SMGPS,0.0 m,-0.02 m/s,7.29 VRx,0.000 km,2 m,148.0 °,1:-- (  0.0 km/h)*DA
$SMGPS2,-0.23 X,+0.09 Y,+0.93 Z,1 ENL,0 us*4E
$GNRMC,161249.70,A,4816.48584,N,01139.86950,E,0.21,,080522,,,A*58
$GNGGA,161249.70,4816.48584,N,01139.86950,E,1,12,0.86,471.3,M,46.2,M,,*46
$GNGSA,A,3,32,01,27,08,21,10,22,14,,,,,1.46,0.86,1.17*1C
$GNVTG,,T,,M,0.205,N,0.380,K,A*31
$SMGPS,0.0 m,-0.02 m/s,7.27 VRx,0.000 km,2 m,148.0 °,1:-- (  0.0 km/h)*D4
$SMGPS2,-0.23 X,+0.09 Y,+0.93 Z,1 ENL,0 us*4E
$GNRMC,161249.80,A,4816.48583,N,01139.86950,E,0.02,,080522,,,A*51
$GNGGA,161249.80,4816.48583,N,01139.86950,E,1,12,0.86,471.3,M,46.2,M,,*4E
$GNGSA,A,3,32,01,27,08,21,10,22,14,,,,,1.46,0.86,1.17*1C
$GNVTG,,T,,M,0.020,N,0.037,K,A*3B
$SMGPS,0.0 m,-0.00 m/s,7.29 VRx,0.000 km,2 m,148.0 °,1:-- (  0.0 km/h)*D8
$SMGPS2,-0.23 X,+0.09 Y,+0.93 Z,1 ENL,0 us*4E
$GNRMC,161249.90,A,4816.48583,N,01139.86951,E,0.10,,080522,,,A*52
$GNGGA,161249.90,4816.48583,N,01139.86951,E,1,12,0.86,471.3,M,46.2,M,,*4E
$GNGSA,A,3,32,01,27,08,21,10,22,14,,,,,1.46,0.86,1.17*1C
$GNVTG,,T,,M,0.100,N,0.186,K,A*33
$SMGPS,-0.0 m,+0.00 m/s,7.26 VRx,0.000 km,2 m,148.0 °,1:-- (  0.0 km/h)*FC
$SMGPS2,-0.23 X,+0.10 Y,+0.93 Z,1 ENL,0 us*46
$GNRMC,161250.00,A,4816.48583,N,01139.86952,E,0.10,,080522,,,A*50
$GNGGA,161250.00,4816.48583,N,01139.86952,E,1,12,0.86,471.3,M,46.2,M,,*4C
$GNGSA,A,3,32,01,27,08,21,10,22,14,,,,,1.46,0.86,1.17*1C
$GNVTG,,T,,M,0.101,N,0.187,K,A*33
$SMGPS,-0.0 m,+0.00 m/s,7.29 VRx,0.000 km,2 m,148.0 °,1:-- (  0.0 km/h)*F3
$SMGPS2,-0.23 X,+0.09 Y,+0.93 Z,1 ENL,0 us*4E
$GNRMC,161250.10,A,4816.48583,N,01139.86952,E,0.10,,080522,,,A*51
$GNGGA,161250.10,4816.48583,N,01139.86952,E,1,12,0.86,471.3,M,46.2,M,,*4D
$GNGSA,A,3,32,01,27,08,21,10,22,14,,,,,1.46,0.86,1.17*1C
$GNVTG,,T,,M,0.099,N,0.183,K,A*37
$SMGPS,0.0 m,+0.00 m/s,7.26 VRx,0.000 km,2 m,148.0 °,1:-- (  0.0 km/h)*D1
$SMGPS2,-0.23 X,+0.09 Y,+0.94 Z,1 ENL,0 us*49
$GNRMC,161250.20,A,4816.48583,N,01139.86953,E,0.14,,080522,,,A*57
$GNGGA,161250.20,4816.48583,N,01139.86953,E,1,12,0.86,471.3,M,46.2,M,,*4F
$GNGSA,A,3,32,01,27,08,21,10,22,14,,,,,1.46,0.86,1.17*1C
$GNVTG,,T,,M,0.135,N,0.249,K,A*35
$SMGPS,0.0 m,+0.01 m/s,7.29 VRx,0.000 km,2 m,148.0 °,1:-- (  0.0 km/h)*DF
$SMGPS2,-0.23 X,+0.09 Y,+0.93 Z,1 ENL,0 us*4E
$GNRMC,161250.30,A,4816.48584,N,01139.86954,E,0.05,,080522,,,A*56
$GNGGA,161250.30,4816.48584,N,01139.86954,E,1,12,0.86,471.3,M,46.2,M,,*4E
$GNGSA,A,3,32,01,27,08,21,10,22,14,,,,,1.46,0.86,1.17*1C
$GNVTG,,T,,M,0.053,N,0.099,K,A*3B
$SMGPS,-0.0 m,+0.02 m/s,7.26 VRx,0.000 km,2 m,148.0 °,1:-- (  0.0 km/h)*FE
$SMGPS2,-0.23 X,+0.08 Y,+0.93 Z,1 ENL,0 us*4F
$GNRMC,161250.40,A,4816.48586,N,01139.86955,E,0.03,,080522,,,A*54
$GNGGA,161250.40,4816.48586,N,01139.86955,E,1,12,0.86,471.3,M,46.2,M,,*4A
$GNGSA,A,3,32,01,27,08,21,10,22,14,,,,,1.46,0.86,1.17*1C
$GNVTG,,T,,M,0.027,N,0.050,K,A*3D
$SMGPS,-0.0 m,+0.02 m/s,7.28 VRx,0.000 km,2 m,148.0 °,1:-- (  0.0 km/h)*F0
$SMGPS2,-0.22 X,+0.08 Y,+0.93 Z,1 ENL,0 us*4E
$GNRMC,161250.50,A,4816.48586,N,01139.86956,E,0.07,,080522,,,A*52
$GNGGA,161250.50,4816.48586,N,01139.86956,E,1,12,0.86,471.4,M,46.2,M,,*4F
$GNGSA,A,3,32,01,27,08,21,10,22,14,,,,,1.46,0.86,1.17*1C
$GNVTG,,T,,M,0.067,N,0.124,K,A*3B
$SMGPS,0.1 m,+0.02 m/s,7.27 VRx,0.000 km,2 m,148.0 °,1:-- (  0.0 km/h)*D3
$SMGPS2,-0.24 X,+0.09 Y,+0.93 Z,1 ENL,0 us*49
$GNRMC,161250.60,A,4816.48587,N,01139.86956,E,0.14,,080522,,,A*52
$GNGGA,161250.60,4816.48587,N,01139.86956,E,1,12,0.86,471.3,M,46.2,M,,*4A
$GNGSA,A,3,32,01,27,08,21,10,22,14,,,,,1.46,0.86,1.17*1C
$GNVTG,,T,,M,0.140,N,0.259,K,A*36
$SMGPS,0.0 m,+0.02 m/s,7.28 VRx,0.000 km,2 m,148.0 °,1:-- (  0.0 km/h)*DD
$SMGPS2,-0.23 X,+0.09 Y,+0.93 Z,1 ENL,0 us*4E
$GNRMC,161250.70,A,4816.48586,N,01139.86956,E,0.26,,080522,,,A*53
$GNGGA,161250.70,4816.48586,N,01139.86956,E,1,12,0.86,471.3,M,46.2,M,,*4A
$GNGSA,A,3,32,01,27,08,21,10,22,14,,,,,1.46,0.86,1.17*1C
$GNVTG,,T,,M,0.262,N,0.486,K,A*31
$SMGPS,-0.0 m,+0.02 m/s,7.27 VRx,0.000 km,2 m,148.0 °,1:-- (  0.0 km/h)*FF
$SMGPS2,-0.23 X,+0.09 Y,+0.93 Z,1 ENL,0 us*4E
$GNRMC,161250.80,A,4816.48585,N,01139.86955,E,0.28,,080522,,,A*52
$GNGGA,161250.80,4816.48585,N,01139.86955,E,1,12,0.86,471.2,M,46.2,M,,*44
$GNGSA,A,3,32,01,27,08,21,10,22,14,,,,,1.46,0.86,1.17*1C
$GNVTG,,T,,M,0.275,N,0.510,K,A*39
$SMGPS,-0.1 m,+0.01 m/s,7.28 VRx,0.000 km,2 m,148.0 °,1:-- (  0.0 km/h)*F2
$SMGPS2,-0.23 X,+0.09 Y,+0.94 Z,1 ENL,0 us*49
$GNRMC,161250.90,A,4816.48584,N,01139.86955,E,0.06,,080522,,,A*5E
$GNGGA,161250.90,4816.48584,N,01139.86955,E,1,12,0.86,471.3,M,46.2,M,,*45
$GNGSA,A,3,32,01,27,08,21,10,22,14,,,,,1.46,0.86,1.17*1C
$GNVTG,,T,,M,0.055,N,0.102,K,A*3E
$SMGPS,0.0 m,+0.01 m/s,7.27 VRx,0.000 km,2 m,148.0 °,1:-- (  0.0 km/h)*D1
$SMGPS2,-0.23 X,+0.09 Y,+0.93 Z,1 ENL,0 us*4E
$GNRMC,161251.00,A,4816.48582,N,01139.86954,E,0.11,,080522,,,A*57
$GNGGA,161251.00,4816.48582,N,01139.86954,E,1,12,0.86,471.3,M,46.2,M,,*4A
$GNGSA,A,3,32,01,27,08,21,10,22,14,,,,,1.46,0.86,1.17*1C
$GNVTG,,T,,M,0.112,N,0.207,K,A*3A
$SMGPS,0.0 m,+0.01 m/s,7.29 VRx,0.000 km,2 m,148.0 °,1:-- (  0.0 km/h)*DF
$SMGPS2,-0.23 X,+0.09 Y,+0.93 Z,1 ENL,0 us*4E
$GNRMC,161251.10,A,4816.48581,N,01139.86954,E,0.12,,080522,,,A*56
$GNGGA,161251.10,4816.48581,N,01139.86954,E,1,12,0.86,471.3,M,46.2,M,,*48
$GNGSA,A,3,32,01,27,08,21,10,22,14,,,,,1.46,0.86,1.17*1C
$GNVTG,,T,,M,0.116,N,0.214,K,A*3C
$SMGPS,0.0 m,+0.01 m/s,7.25 VRx,0.000 km,2 m,148.0 °,1:-- (  0.0 km/h)*D3
$SMGPS2,-0.23 X,+0.09 Y,+0.93 Z,1 ENL,0 us*4E
$GNRMC,161251.20,A,4816.48580,N,01139.86954,E,0.18,,080522,,,A*5E
$GNGGA,161251.20,4816.48580,N,01139.86954,E,1,12,0.86,471.3,M,46.2,M,,*4A
$GNGSA,A,3,32,01,27,08,21,10,22,14,,,,,1.46,0.86,1.17*1C
$GNVTG,,T,,M,0.176,N,0.325,K,A*39
$SMGPS,-0.0 m,-0.00 m/s,7.29 VRx,0.000 km,2 m,148.0 °,1:-- (  0.0 km/h)*F5
$SMGPS2,-0.23 X,+0.09 Y,+0.93 Z,1 ENL,0 us*4E
$GNRMC,161251.30,A,4816.48579,N,01139.86954,E,0.09,,080522,,,A*59
$GNGGA,161251.30,4816.48579,N,01139.86954,E,1,12,0.86,471.3,M,46.2,M,,*4D
$GNGSA,A,3,32,01,27,08,21,10,22,14,,,,,1.46,0.86,1.17*1C
$GNVTG,,T,,M,0.087,N,0.161,K,A*34
$SMGPS,0.0 m,-0.00 m/s,7.26 VRx,0.000 km,2 m,148.0 °,1:-- (  0.0 km/h)*D7
$SMGPS2,-0.23 X,+0.09 Y,+0.94 Z,1 ENL,0 us*49
$GNRMC,161251.40,A,4816.48578,N,01139.86954,E,0.07,,080522,,,A*51
$GNGGA,161251.40,4816.48578,N,01139.86954,E,1,12,0.86,471.3,M,46.2,M,,*4B
$GNGSA,A,3,32,01,27,08,21,10,22,14,,,,,1.46,0.86,1.17*1C
$GNVTG,,T,,M,0.066,N,0.122,K,A*3C
$SMGPS,-0.0 m,+0.01 m/s,7.29 VRx,0.000 km,2 m,148.0 °,1:-- (  0.0 km/h)*F2
$SMGPS2,-0.23 X,+0.09 Y,+0.93 Z,1 ENL,0 us*4E
$GNRMC,161251.50,A,4816.48577,N,01139.86953,E,0.09,,080522,,,A*56
$GNGGA,161251.50,4816.48577,N,01139.86953,E,1,12,0.86,471.4,M,46.2,M,,*45
$GNGSA,A,3,32,01,27,08,21,10,22,14,,,,,1.46,0.86,1.17*1C
$GNVTG,,T,,M,0.090,N,0.166,K,A*35
$SMGPS,0.1 m,+0.01 m/s,7.26 VRx,0.000 km,2 m,148.0 °,1:-- (  0.0 km/h)*D1
$SMGPS2,-0.23 X,+0.09 Y,+0.93 Z,1 ENL,0 us*4E
$GNRMC,161251.60,A,4816.48576,N,01139.86953,E,0.06,,080522,,,A*5B
$GNGGA,161251.60,4816.48576,N,01139.86953,E,1,12,0.86,471.3,M,46.2,M,,*40
$GNGSA,A,3,32,01,27,08,21,10,22,14,,,,,1.46,0.86,1.17*1C
$GNVTG,,T,,M,0.059,N,0.109,K,A*39
$SMGPS,-0.0 m,+0.01 m/s,7.29 VRx,0.000 km,2 m,148.0 °,1:-- (  0.0 km/h)*F2
$SMGPS2,-0.23 X,+0.09 Y,+0.93 Z,1 ENL,0 us*4E
$GNRMC,161251.70,A,4816.48575,N,01139.86953,E,0.10,,080522,,,A*5E
$GNGGA,161251.70,4816.48575,N,01139.86953,E,1,12,0.86,471.3,M,46.2,M,,*42
$GNGSA,A,3,32,01,27,08,21,10,22,14,,,,,1.46,0.86,1.17*1C
$GNVTG,,T,,M,0.098,N,0.181,K,A*34
$SMGPS,-0.0 m,+0.01 m/s,7.27 VRx,0.000 km,2 m,148.0 °,1:-- (  0.0 km/h)*FC
$SMGPS2,-0.23 X,+0.09 Y,+0.93 Z,1 ENL,0 us*4E
$GNRMC,161251.80,A,4816.48574,N,01139.86953,E,0.09,,080522,,,A*58
$GNGGA,161251.80,4816.48574,N,01139.86953,E,1,12,0.86,471.3,M,46.2,M,,*4C
$GNGSA,A,3,32,01,27,08,21,10,22,14,,,,,1.46,0.86,1.17*1C
$GNVTG,,T,,M,0.091,N,0.168,K,A*3A
$SMGPS,-0.0 m,+0.01 m/s,7.28 VRx,0.000 km,2 m,148.0 °,1:-- (  0.0 km/h)*F3
$SMGPS2,-0.23 X,+0.09 Y,+0.93 Z,1 ENL,0 us*4E
$GNRMC,161251.90,A,4816.48573,N,01139.86953,E,0.14,,080522,,,A*52
$GNGGA,161251.90,4816.48573,N,01139.86953,E,1,12,0.86,471.4,M,46.2,M,,*4D
$GNGSA,A,3,32,01,27,08,21,10,22,14,,,,,1.46,0.86,1.17*1C
$GNVTG,,T,,M,0.136,N,0.251,K,A*3F
$SMGPS,0.1 m,+0.02 m/s,7.27 VRx,0.000 km,2 m,148.0 °,1:-- (  0.0 km/h)*D3
$SMGPS2,-0.23 X,+0.09 Y,+0.93 Z,1 ENL,0 us*4E
$GNRMC,161252.00,A,4816.48571,N,01139.86953,E,0.30,,080522,,,A*5C
$GNGGA,161252.00,4816.48571,N,01139.86953,E,1,12,0.86,471.3,M,46.2,M,,*42
$GNGSA,A,3,32,01,27,08,21,10,22,14,,,,,1.46,0.86,1.17*1C
$GNVTG,,T,,M,0.302,N,0.560,K,A*3F
$SMGPS,-0.0 m,+0.01 m/s,7.29 VRx,0.000 km,2 m,148.0 °,1:-- (  0.0 km/h)*F2
$SMGPS2,-0.23 X,+0.09 Y,+0.94 Z,1 ENL,0 us*49
$GNRMC,161252.10,A,4816.48570,N,01139.86953,E,0.07,,080522,,,A*58
$GNGGA,161252.10,4816.48570,N,01139.86953,E,1,12,0.86,471.2,M,46.2,M,,*43
$GNGSA,A,3,32,01,27,08,21,10,22,14,,,,,1.46,0.86,1.17*1C
$GNVTG,,T,,M,0.069,N,0.127,K,A*36
$SMGPS,-0.1 m,+0.00 m/s,7.27 VRx,0.000 km,2 m,148.0 °,1:-- (  0.0 km/h)*FC
$SMGPS2,-0.23 X,+0.09 Y,+0.93 Z,1 ENL,0 us*4E
$GNRMC,161252.20,A,4816.48569,N,01139.86953,E,0.07,,080522,,,A*53
$GNGGA,161252.20,4816.48569,N,01139.86953,E,1,12,0.86,471.3,M,46.2,M,,*49
$GNGSA,A,3,32,01,27,08,21,10,22,14,,,,,1.46,0.86,1.17*1C
$GNVTG,,T,,M,0.071,N,0.131,K,A*38
$SMGPS,-0.0 m,-0.01 m/s,7.29 VRx,0.000 km,2 m,148.0 °,1:-- (  0.0 km/h)*F4
$SMGPS2,-0.23 X,+0.09 Y,+0.93 Z,1 ENL,0 us*4E
$GNRMC,161252.30,A,4816.48568,N,01139.86953,E,0.04,,080522,,,A*50
$GNGGA,161252.30,4816.48568,N,01139.86953,E,1,12,0.86,471.3,M,46.2,M,,*49
$GNGSA,A,3,32,01,27,08,21,10,22,14,,,,,1.46,0.86,1.17*1C
$GNVTG,,T,,M,0.025,N,0.047,K,A*39
$SMGPS,0.0 m,-0.01 m/s,7.26 VRx,0.000 km,2 m,148.0 °,1:-- (  0.0 km/h)*D6
$SMGPS2,-0.22 X,+0.09 Y,+0.94 Z,1 ENL,0 us*48
$GNRMC,161252.40,A,4816.48567,N,01139.86953,E,0.07,,080522,,,A*5B
$GNGGA,161252.40,4816.48567,N,01139.86953,E,1,12,0.86,471.3,M,46.2,M,,*41
$GNGSA,A,3,32,01,27,08,21,10,22,14,,,,,1.46,0.86,1.17*1C
$GNVTG,,T,,M,0.062,N,0.114,K,A*3D
$SMGPS,0.0 m,-0.01 m/s,7.29 VRx,0.000 km,2 m,148.0 °,1:-- (  0.0 km/h)*D9
$SMGPS2,-0.23 X,+0.09 Y,+0.93 Z,1 ENL,0 us*4E
$GNRMC,161252.50,A,4816.48567,N,01139.86953,E,0.11,,080522,,,A*5D
$GNGGA,161252.50,4816.48567,N,01139.86953,E,1,12,0.86,471.3,M,46.2,M,,*40
$GNGSA,A,3,32,01,27,08,21,10,22,14,,,,,1.46,0.86,1.17*1C
$GNVTG,,T,,M,0.110,N,0.204,K,A*3B
$SMGPS,-0.0 m,-0.01 m/s,7.26 VRx,0.000 km,2 m,148.0 °,1:-- (  0.0 km/h)*FB
$SMGPS2,-0.24 X,+0.08 Y,+0.94 Z,1 ENL,0 us*4F
$GNRMC,161252.60,A,4816.48567,N,01139.86953,E,0.04,,080522,,,A*5A
$GNGGA,161252.60,4816.48567,N,01139.86953,E,1,12,0.86,471.3,M,46.2,M,,*43
$GNGSA,A,3,32,01,27,08,21,10,22,14,,,,,1.46,0.86,1.17*1C
$GNVTG,,T,,M,0.027,N,0.050,K,A*3D
$SMGPS,-0.0 m,-0.01 m/s,7.29 VRx,0.000 km,2 m,148.0 °,1:-- (  0.0 km/h)*F4
$SMGPS2,-0.23 X,+0.09 Y,+0.93 Z,1 ENL,0 us*4E
$GNRMC,161252.70,A,4816.48567,N,01139.86954,E,0.05,,080522,,,A*5D
$GNGGA,161252.70,4816.48567,N,01139.86954,E,1,12,0.86,471.3,M,46.2,M,,*45
$GNGSA,A,3,32,01,27,08,21,10,22,14,,,,,1.46,0.86,1.17*1C
$GNVTG,,T,,M,0.037,N,0.069,K,A*36
$SMGPS,-0.0 m,-0.01 m/s,7.26 VRx,0.000 km,2 m,148.0 °,1:-- (  0.0 km/h)*FB
$SMGPS2,-0.23 X,+0.09 Y,+0.92 Z,2 ENL,0 us*4C
$GNRMC,161252.80,A,4816.48567,N,01139.86953,E,0.20,,080522,,,A*52
$GNGGA,161252.80,4816.48567,N,01139.86953,E,1,12,0.86,471.3,M,46.2,M,,*4D
$GNGSA,A,3,32,01,27,08,21,10,22,14,,,,,1.46,0.86,1.17*1C
$GNVTG,,T,,M,0.197,N,0.365,K,A*32
$SMGPS,-0.0 m,-0.01 m/s,7.28 VRx,0.000 km,2 m,148.0 °,1:-- (  0.0 km/h)*F5
$SMGPS2,-0.23 X,+0.08 Y,+0.94 Z,2 ENL,0 us*4B
$GNRMC,161252.90,A,4816.48566,N,01139.86953,E,0.06,,080522,,,A*56
$GNGGA,161252.90,4816.48566,N,01139.86953,E,1,12,0.86,471.3,M,46.2,M,,*4D
$GNGSA,A,3,32,01,27,08,21,10,22,14,,,,,1.46,0.86,1.17*1C
$GNVTG,,T,,M,0.058,N,0.107,K,A*36
$SMGPS,0.0 m,+0.00 m/s,7.27 VRx,0.000 km,2 m,148.0 °,1:-- (  0.0 km/h)*D0
$SMGPS2,-0.23 X,+0.08 Y,+0.93 Z,1 ENL,0 us*4F
$GNRMC,161253.00,A,4816.48566,N,01139.86953,E,0.04,,080522,,,A*5C
$GNGGA,161253.00,4816.48566,N,01139.86953,E,1,12,0.86,471.3,M,46.2,M,,*45
$GNGSA,A,3,32,01,27,08,21,10,22,14,,,,,1.46,0.86,1.17*1C
$GNVTG,,T,,M,0.036,N,0.066,K,A*38
$SMGPS,-0.0 m,-0.00 m/s,7.29 VRx,0.000 km,2 m,148.0 °,1:-- (  0.0 km/h)*F5
$SMGPS2,-0.23 X,+0.09 Y,+0.94 Z,1 ENL,0 us*49
$GNRMC,161253.10,A,4816.48566,N,01139.86952,E,0.03,,080522,,,A*5B
$GNGGA,161253.10,4816.48566,N,01139.86952,E,1,12,0.86,471.3,M,46.2,M,,*45
$GNGSA,A,3,32,01,27,08,21,10,22,14,,,,,1.46,0.86,1.17*1C
$GNVTG,,T,,M,0.033,N,0.061,K,A*3A
$SMGPS,0.0 m,+0.00 m/s,7.27 VRx,0.000 km,2 m,148.0 °,1:-- (  0.0 km/h)*D0
$SMGPS2,-0.23 X,+0.09 Y,+0.94 Z,1 ENL,0 us*49
$GNRMC,161253.20,A,4816.48566,N,01139.86952,E,0.16,,080522,,,A*5C
$GNGGA,161253.20,4816.48566,N,01139.86952,E,1,12,0.86,471.3,M,46.2,M,,*46
$GNGSA,A,3,32,01,27,08,21,10,22,14,,,,,1.46,0.86,1.17*1C
$GNVTG,,T,,M,0.162,N,0.299,K,A*3A
$SMGPS,0.0 m,+0.00 m/s,7.28 VRx,0.000 km,2 m,148.0 °,1:-- (  0.0 km/h)*DF
$SMGPS2,-0.23 X,+0.09 Y,+0.93 Z,1 ENL,0 us*4E
$GNRMC,161253.30,A,4816.48566,N,01139.86952,E,0.17,,080522,,,A*5C
$GNGGA,161253.30,4816.48566,N,01139.86952,E,1,12,0.86,471.3,M,46.2,M,,*47
$GNGSA,A,3,32,01,27,08,21,10,22,14,,,,,1.46,0.86,1.17*1C
$GNVTG,,T,,M,0.168,N,0.311,K,A*31
$SMGPS,-0.0 m,+0.00 m/s,7.27 VRx,0.000 km,2 m,148.0 °,1:-- (  0.0 km/h)*FD
$SMGPS2,-0.23 X,+0.10 Y,+0.93 Z,1 ENL,0 us*46
$GNRMC,161253.40,A,4816.48566,N,01139.86952,E,0.18,,080522,,,A*54
$GNGGA,161253.40,4816.48566,N,01139.86952,E,1,12,0.86,471.3,M,46.2,M,,*40
$GNGSA,A,3,32,01,27,08,21,10,22,14,,,,,1.46,0.86,1.17*1C
$GNVTG,,T,,M,0.182,N,0.336,K,A*30
$SMGPS,-0.0 m,+0.00 m/s,7.29 VRx,0.000 km,2 m,148.0 °,1:-- (  0.0 km/h)*F3
$SMGPS2,-0.23 X,+0.09 Y,+0.93 Z,1 ENL,0 us*4E
$GNRMC,161253.50,A,4816.48566,N,01139.86952,E,0.13,,080522,,,A*5E
$GNGGA,161253.50,4816.48566,N,01139.86952,E,1,12,0.86,471.3,M,46.2,M,,*41
$GNGSA,A,3,32,01,27,08,21,10,22,14,,,,,1.46,0.86,1.17*1C
$GNVTG,,T,,M,0.134,N,0.247,K,A*3A
$SMGPS,-0.0 m,+0.01 m/s,7.27 VRx,0.000 km,2 m,148.0 °,1:-- (  0.0 km/h)*FC
$SMGPS2,-0.23 X,+0.09 Y,+0.93 Z,1 ENL,0 us*4E
$GNRMC,161253.60,A,4816.48565,N,01139.86952,E,0.16,,080522,,,A*5B
$GNGGA,161253.60,4816.48565,N,01139.86952,E,1,12,0.86,471.3,M,46.2,M,,*41
$GNGSA,A,3,32,01,27,08,21,10,22,14,,,,,1.46,0.86,1.17*1C
$GNVTG,,T,,M,0.161,N,0.298,K,A*38
$SMGPS,-0.0 m,+0.00 m/s,7.29 VRx,0.000 km,2 m,148.0 °,1:-- (  0.0 km/h)*F3
$SMGPS2,-0.24 X,+0.09 Y,+0.93 Z,1 ENL,0 us*49
$GNRMC,161253.70,A,4816.48565,N,01139.86952,E,0.02,,080522,,,A*5F
$GNGGA,161253.70,4816.48565,N,01139.86952,E,1,12,0.86,471.3,M,46.2,M,,*40
$GNGSA,A,3,32,01,27,08,21,10,22,14,,,,,1.46,0.86,1.17*1C
$GNVTG,,T,,M,0.022,N,0.040,K,A*39
$SMGPS,-0.0 m,+0.00 m/s,7.26 VRx,0.000 km,2 m,148.0 °,1:-- (  0.0 km/h)*FC
$SMGPS2,-0.23 X,+0.09 Y,+0.93 Z,1 ENL,0 us*4E
$GNRMC,161253.80,A,4816.48564,N,01139.86951,E,0.23,,080522,,,A*51
$GNGGA,161253.80,4816.48564,N,01139.86951,E,1,12,0.86,471.3,M,46.2,M,,*4D
$GNGSA,A,3,32,01,27,08,21,10,22,14,,,,,1.46,0.86,1.17*1C
$GNVTG,,T,,M,0.228,N,0.422,K,A*31
$SMGPS,-0.0 m,-0.00 m/s,7.29 VRx,0.000 km,2 m,148.0 °,1:-- (  0.0 km/h)*F5
$SMGPS2,-0.23 X,+0.09 Y,+0.93 Z,0 ENL,0 us*4F
$GNRMC,161253.90,A,4816.48564,N,01139.86951,E,0.07,,080522,,,A*56
$GNGGA,161253.90,4816.48564,N,01139.86951,E,1,12,0.86,471.3,M,46.2,M,,*4C
$GNGSA,A,3,32,01,27,08,21,10,22,14,,,,,1.46,0.86,1.17*1C
$GNVTG,,T,,M,0.069,N,0.128,K,A*39
$SMGPS,-0.0 m,-0.00 m/s,7.26 VRx,0.000 km,2 m,148.0 °,1:-- (  0.0 km/h)*FA
$SMGPS2,-0.23 X,+0.09 Y,+0.93 Z,1 ENL,0 us*4E
$GNRMC,161254.00,A,4816.48563,N,01139.86950,E,0.09,,080522,,,A*50
$GNGGA,161254.00,4816.48563,N,01139.86950,E,1,12,0.86,471.3,M,46.2,M,,*44
$GNGSA,A,3,32,01,27,08,21,10,22,14,,,,,1.46,0.86,1.17*1C
$GNVTG,,T,,M,0.083,N,0.154,K,A*36
$SMGPS,-0.0 m,-0.00 m/s,7.29 VRx,0.000 km,2 m,148.0 °,1:-- (  0.0 km/h)*F5
$SMGPS2,-0.23 X,+0.09 Y,+0.93 Z,1 ENL,0 us*4E
$GNRMC,161254.10,A,4816.48562,N,01139.86950,E,0.08,,080522,,,A*51
$GNGGA,161254.10,4816.48562,N,01139.86950,E,1,12,0.86,471.3,M,46.2,M,,*44
$GNGSA,A,3,32,01,27,08,21,10,22,14,,,,,1.46,0.86,1.17*1C
$GNVTG,,T,,M,0.079,N,0.147,K,A*31
$SMGPS,-0.0 m,-0.00 m/s,7.27 VRx,0.000 km,2 m,148.0 °,1:-- (  0.0 km/h)*FB
$SMGPS2,-0.23 X,+0.09 Y,+0.94 Z,1 ENL,0 us*49
$GNRMC,161254.20,A,4816.48562,N,01139.86950,E,0.16,,080522,,,A*5D
$GNGGA,161254.20,4816.48562,N,01139.86950,E,1,12,0.86,471.3,M,46.2,M,,*47
$GNGSA,A,3,32,01,27,08,21,10,22,14,,,,,1.46,0.86,1.17*1C
$GNVTG,,T,,M,0.161,N,0.298,K,A*38
$SMGPS,-0.0 m,-0.00 m/s,7.28 VRx,0.000 km,2 m,148.0 °,1:-- (  0.0 km/h)*F4
$SMGPS2,-0.23 X,+0.09 Y,+0.93 Z,1 ENL,0 us*4E
$GNRMC,161254.30,A,4816.48562,N,01139.86949,E,0.15,,080522,,,A*57
$GNGGA,161254.30,4816.48562,N,01139.86949,E,1,12,0.86,471.3,M,46.2,M,,*4E
$GNGSA,A,3,32,01,27,08,21,10,22,14,,,,,1.46,0.86,1.17*1C
$GNVTG,,T,,M,0.144,N,0.266,K,A*3E
$SMGPS,0.0 m,+0.00 m/s,7.27 VRx,0.000 km,2 m,148.0 °,1:-- (  0.0 km/h)*D0
$SMGPS2,-0.23 X,+0.09 Y,+0.93 Z,1 ENL,0 us*4E
$GNRMC,161254.40,A,4816.48561,N,01139.86949,E,0.05,,080522,,,A*52
$GNGGA,161254.40,4816.48561,N,01139.86949,E,1,12,0.86,471.3,M,46.2,M,,*4A
$GNGSA,A,3,32,01,27,08,21,10,22,14,,,,,1.46,0.86,1.17*1C
$GNVTG,,T,,M,0.045,N,0.084,K,A*30
$SMGPS,0.0 m,+0.01 m/s,7.31 VRx,0.000 km,2 m,148.0 °,1:-- (  0.0 km/h)*D6
$SMGPS2,-0.23 X,+0.09 Y,+0.93 Z,1 ENL,0 us*4E
$GNRMC,161254.50,A,4816.48561,N,01139.86949,E,0.07,,080522,,,A*51
$GNGGA,161254.50,4816.48561,N,01139.86949,E,1,12,0.86,471.3,M,46.2,M,,*4B
$GNGSA,A,3,32,01,27,08,21,10,22,14,,,,,1.46,0.86,1.17*1C
$GNVTG,,T,,M,0.069,N,0.128,K,A*39
$SMGPS,0.0 m,+0.01 m/s,7.25 VRx,0.000 km,2 m,148.0 °,1:-- (  0.0 km/h)*D3
$SMGPS2,-0.23 X,+0.09 Y,+0.94 Z,1 ENL,0 us*49
$GNRMC,161254.60,A,4816.48560,N,01139.86949,E,0.06,,080522,,,A*52
$GNGGA,161254.60,4816.48560,N,01139.86949,E,1,12,0.86,471.3,M,46.2,M,,*49
$GNGSA,A,3,32,01,27,08,21,10,22,14,,,,,1.46,0.86,1.17*1C
$GNVTG,,T,,M,0.055,N,0.102,K,A*3E
$SMGPS,-0.0 m,+0.01 m/s,7.28 VRx,0.000 km,2 m,148.0 °,1:-- (  0.0 km/h)*F3
$SMGPS2,-0.23 X,+0.09 Y,+0.93 Z,1 ENL,0 us*4E
$GNRMC,161254.70,A,4816.48560,N,01139.86949,E,0.11,,080522,,,A*55
$GNGGA,161254.70,4816.48560,N,01139.86949,E,1,12,0.86,471.3,M,46.2,M,,*48
$GNGSA,A,3,32,01,27,08,21,10,22,14,,,,,1.46,0.86,1.17*1C
$GNVTG,,T,,M,0.109,N,0.203,K,A*34
$SMGPS,0.0 m,+0.01 m/s,7.26 VRx,0.000 km,2 m,148.0 °,1:-- (  0.0 km/h)*D0
$SMGPS2,-0.23 X,+0.09 Y,+0.93 Z,2 ENL,0 us*4D
$GNRMC,161254.80,A,4816.48561,N,01139.86949,E,0.15,,080522,,,A*5F
$GNGGA,161254.80,4816.48561,N,01139.86949,E,1,12,0.86,471.3,M,46.2,M,,*46
$GNGSA,A,3,32,01,27,08,21,10,22,14,,,,,1.46,0.86,1.17*1C
$GNVTG,,T,,M,0.154,N,0.286,K,A*31
$SMGPS,0.0 m,+0.01 m/s,7.29 VRx,0.000 km,2 m,148.0 °,1:-- (  0.0 km/h)*DF
$SMGPS2,-0.23 X,+0.09 Y,+0.93 Z,1 ENL,0 us*4E
$GNRMC,161254.90,A,4816.48560,N,01139.86949,E,0.07,,080522,,,A*5C
$GNGGA,161254.90,4816.48560,N,01139.86949,E,1,12,0.86,471.3,M,46.2,M,,*46
$GNGSA,A,3,32,01,27,08,21,10,22,14,,,,,1.46,0.86,1.17*1C
$GNVTG,,T,,M,0.064,N,0.118,K,A*37
$SMGPS,0.0 m,+0.02 m/s,7.26 VRx,0.000 km,2 m,148.0 °,1:-- (  0.0 km/h)*D3
$SMGPS2,-0.23 X,+0.09 Y,+0.93 Z,1 ENL,0 us*4E
$GNRMC,161255.00,A,4816.48560,N,01139.86949,E,0.17,,080522,,,A*55
$GNGGA,161255.00,4816.48560,N,01139.86949,E,1,12,0.86,471.3,M,46.2,M,,*4E
$GNGSA,A,3,32,01,27,08,21,10,22,14,,,,,1.46,0.86,1.17*1C
$GNVTG,,T,,M,0.164,N,0.304,K,A*39
$SMGPS,0.0 m,+0.02 m/s,7.30 VRx,0.000 km,2 m,148.0 °,1:-- (  0.0 km/h)*D4
$SMGPS2,-0.23 X,+0.09 Y,+0.93 Z,1 ENL,0 us*4E
$GNRMC,161255.10,A,4816.48560,N,01139.86950,E,0.05,,080522,,,A*5F
$GNGGA,161255.10,4816.48560,N,01139.86950,E,1,12,0.86,471.3,M,46.2,M,,*47
$GNGSA,A,3,32,01,27,08,21,10,22,14,,,,,1.46,0.86,1.17*1C
$GNVTG,,T,,M,0.037,N,0.068,K,A*37
$SMGPS,0.0 m,+0.02 m/s,7.26 VRx,0.000 km,2 m,148.0 °,1:-- (  0.0 km/h)*D3
$SMGPS2,-0.23 X,+0.09 Y,+0.93 Z,1 ENL,0 us*4E
$GNRMC,161255.20,A,4816.48560,N,01139.86950,E,0.05,,080522,,,A*5C
$GNGGA,161255.20,4816.48560,N,01139.86950,E,1,12,0.86,471.3,M,46.2,M,,*44
$GNGSA,A,3,32,01,27,08,21,10,22,14,,,,,1.46,0.86,1.17*1C
$GNVTG,,T,,M,0.048,N,0.089,K,A*30
$SMGPS,-0.0 m,+0.02 m/s,7.29 VRx,0.000 km,2 m,148.0 °,1:-- (  0.0 km/h)*F1
$SMGPS2,-0.23 X,+0.09 Y,+0.93 Z,1 ENL,0 us*4E
$GNRMC,161255.30,A,4816.48560,N,01139.86950,E,0.02,,080522,,,A*5A
$GNGGA,161255.30,4816.48560,N,01139.86950,E,1,12,0.86,471.3,M,46.2,M,,*45
$GNGSA,A,3,32,01,27,08,21,10,22,14,,,,,1.46,0.86,1.17*1C
$GNVTG,,T,,M,0.008,N,0.014,K,A*30
$SMGPS,-0.0 m,+0.01 m/s,7.25 VRx,0.000 km,2 m,148.0 °,1:-- (  0.0 km/h)*FE
$SMGPS2,-0.23 X,+0.09 Y,+0.94 Z,0 ENL,0 us*48
$GNRMC,161255.40,A,4816.48560,N,01139.86950,E,0.10,,080522,,,A*5E
$GNGGA,161255.40,4816.48560,N,01139.86950,E,1,12,0.86,471.3,M,46.2,M,,*42
$GNGSA,A,3,32,01,27,08,21,10,22,14,,,,,1.46,0.86,1.17*1C
$GNVTG,,T,,M,0.094,N,0.174,K,A*32
$SMGPS,-0.0 m,+0.01 m/s,7.29 VRx,0.000 km,2 m,148.0 °,1:-- (  0.0 km/h)*F2
$SMGPS2,-0.23 X,+0.09 Y,+0.93 Z,1 ENL,0 us*4E
$GNRMC,161255.50,A,4816.48559,N,01139.86950,E,0.12,,080522,,,A*57
$GNGGA,161255.50,4816.48559,N,01139.86950,E,1,12,0.86,471.3,M,46.2,M,,*49
$GNGSA,A,3,32,01,27,08,21,10,22,14,,,,,1.46,0.86,1.17*1C
$GNVTG,,T,,M,0.121,N,0.223,K,A*3C
$SMGPS,0.0 m,+0.01 m/s,7.27 VRx,0.000 km,2 m,148.0 °,1:-- (  0.0 km/h)*D1
$SMGPS2,-0.23 X,+0.09 Y,+0.93 Z,1 ENL,0 us*4E
$GNRMC,161255.60,A,4816.48559,N,01139.86950,E,0.20,,080522,,,A*55
$GNGGA,161255.60,4816.48559,N,01139.86950,E,1,12,0.86,471.3,M,46.2,M,,*4A
$GNGSA,A,3,32,01,27,08,21,10,22,14,,,,,1.46,0.86,1.17*1C
$GNVTG,,T,,M,0.202,N,0.375,K,A*3C
$SMGPS,-0.0 m,+0.00 m/s,7.28 VRx,0.000 km,3 m,157.4 °,1:-- (  0.0 km/h)*F9
$SMGPS2,-0.23 X,+0.09 Y,+0.93 Z,1 ENL,0 us*4E
$GNRMC,161255.70,A,4816.48559,N,01139.86950,E,0.12,,080522,,,A*55
$GNGGA,161255.70,4816.48559,N,01139.86950,E,1,12,0.86,471.3,M,46.2,M,,*4B
$GNGSA,A,3,32,01,27,08,21,10,22,14,,,,,1.46,0.86,1.17*1C
$GNVTG,,T,,M,0.120,N,0.223,K,A*3D
$SMGPS,0.0 m,-0.00 m/s,7.27 VRx,0.000 km,3 m,157.4 °,1:-- (  0.0 km/h)*DD
$SMGPS2,-0.23 X,+0.09 Y,+0.93 Z,1 ENL,0 us*4E
$GNRMC,161255.80,A,4816.48559,N,01139.86950,E,0.13,,080522,,,A*5B
$GNGGA,161255.80,4816.48559,N,01139.86950,E,1,12,0.86,471.3,M,46.2,M,,*44
$GNGSA,A,3,32,01,27,08,21,10,22,14,,,,,1.46,0.86,1.17*1C
$GNVTG,,T,,M,0.132,N,0.245,K,A*3E
$SMGPS,0.0 m,-0.01 m/s,7.29 VRx,0.000 km,3 m,157.4 °,1:-- (  0.0 km/h)*D2
$SMGPS2,-0.23 X,+0.09 Y,+0.93 Z,1 ENL,0 us*4E
$GNRMC,161255.90,A,4816.48558,N,01139.86950,E,0.10,,080522,,,A*58
$GNGGA,161255.90,4816.48558,N,01139.86950,E,1,12,0.86,471.3,M,46.2,M,,*44
$GNGSA,A,3,32,01,27,08,21,10,22,14,,,,,1.46,0.86,1.17*1C
$GNVTG,,T,,M,0.103,N,0.192,K,A*35
$SMGPS,0.0 m,-0.01 m/s,7.27 VRx,0.000 km,3 m,157.4 °,1:-- (  0.0 km/h)*DC
$SMGPS2,-0.23 X,+0.09 Y,+0.94 Z,1 ENL,0 us*49
$GNRMC,161256.00,A,4816.48558,N,01139.86950,E,0.14,,080522,,,A*56
$GNGGA,161256.00,4816.48558,N,01139.86950,E,1,12,0.86,471.3,M,46.2,M,,*4E
$GNGSA,A,3,32,01,27,08,21,10,22,14,,,,,1.46,0.86,1.17*1C
$GNVTG,,T,,M,0.142,N,0.263,K,A*3D
$SMGPS,0.0 m,-0.00 m/s,7.29 VRx,0.000 km,3 m,157.4 °,1:-- (  0.0 km/h)*D3
$SMGPS2,-0.23 X,+0.09 Y,+0.93 Z,1 ENL,0 us*4E
$GNRMC,161256.10,A,4816.48558,N,01139.86951,E,0.02,,080522,,,A*51
$GNGGA,161256.10,4816.48558,N,01139.86951,E,1,12,0.86,471.3,M,46.2,M,,*4E
$GNGSA,A,3,32,01,27,08,21,10,22,14,,,,,1.46,0.86,1.17*1C
$GNVTG,,T,,M,0.007,N,0.013,K,A*38
$SMGPS,-0.0 m,+0.00 m/s,7.26 VRx,0.000 km,3 m,157.4 °,1:-- (  0.0 km/h)*F7
$SMGPS2,-0.23 X,+0.09 Y,+0.93 Z,1 ENL,0 us*4E
$GNRMC,161256.20,A,4816.48558,N,01139.86951,E,0.03,,080522,,,A*53
$GNGGA,161256.20,4816.48558,N,01139.86951,E,1,12,0.74,471.3,M,46.2,M,,*40
$GNGSA,A,3,32,01,27,08,21,10,22,14,23,,,,1.27,0.74,1.04*15
$GNVTG,,T,,M,0.021,N,0.038,K,A*35
$SMGPS,-0.0 m,+0.00 m/s,7.29 VRx,0.000 km,3 m,157.4 °,1:-- (  0.0 km/h)*F8
$SMGPS2,-0.23 X,+0.09 Y,+0.94 Z,1 ENL,0 us*49
$GNRMC,161256.30,A,4816.48557,N,01139.86951,E,0.08,,080522,,,A*56
$GNGGA,161256.30,4816.48557,N,01139.86951,E,1,12,0.74,471.3,M,46.2,M,,*4E
$GNGSA,A,3,32,01,27,08,21,10,22,14,23,,,,1.27,0.74,1.04*15
$GNVTG,,T,,M,0.077,N,0.142,K,A*3A
$SMGPS,-0.0 m,+0.00 m/s,7.25 VRx,0.000 km,3 m,157.4 °,1:-- (  0.0 km/h)*F4
$SMGPS2,-0.24 X,+0.08 Y,+0.93 Z,1 ENL,0 us*48
$GNRMC,161256.40,A,4816.48557,N,01139.86951,E,0.10,,080522,,,A*58
$GNGGA,161256.40,4816.48557,N,01139.86951,E,1,12,0.74,471.3,M,46.2,M,,*49
$GNGSA,A,3,32,01,27,08,21,10,22,14,23,,,,1.27,0.74,1.04*15
$GNVTG,,T,,M,0.103,N,0.191,K,A*36
$SMGPS,-0.0 m,-0.00 m/s,7.29 VRx,0.000 km,3 m,157.4 °,1:-- (  0.0 km/h)*FE
$SMGPS2,-0.23 X,+0.08 Y,+0.93 Z,1 ENL,0 us*4F
$GNRMC,161256.50,A,4816.48557,N,01139.86951,E,0.05,,080522,,,A*5D
$GNGGA,161256.50,4816.48557,N,01139.86951,E,1,12,0.74,471.3,M,46.2,M,,*48
$GNGSA,A,3,32,01,27,08,21,10,22,14,23,,,,1.27,0.74,1.04*15
$GNVTG,,T,,M,0.045,N,0.084,K,A*30
$SMGPS,0.0 m,+0.00 m/s,7.26 VRx,0.000 km,3 m,157.4 °,1:-- (  0.0 km/h)*DA
$SMGPS2,-0.23 X,+0.10 Y,+0.92 Z,1 ENL,0 us*47
$GNRMC,161256.60,A,4816.48557,N,01139.86951,E,0.06,,080522,,,A*5D
$GNGGA,161256.60,4816.48557,N,01139.86951,E,1,12,0.74,471.3,M,46.2,M,,*4B
$GNGSA,A,3,32,01,27,08,21,10,22,14,23,,,,1.27,0.74,1.04*15
$GNVTG,,T,,M,0.054,N,0.100,K,A*3D
$SMGPS,0.0 m,+0.01 m/s,7.28 VRx,0.000 km,3 m,157.4 °,1:-- (  0.0 km/h)*D5
$SMGPS2,-0.24 X,+0.09 Y,+0.93 Z,1 ENL,0 us*49
$GNRMC,161256.70,A,4816.48556,N,01139.86952,E,0.10,,080522,,,A*59
$GNGGA,161256.70,4816.48556,N,01139.86952,E,1,12,0.74,471.3,M,46.2,M,,*48
$GNGSA,A,3,32,01,27,08,21,10,22,14,23,,,,1.27,0.74,1.04*15
$GNVTG,,T,,M,0.104,N,0.193,K,A*33
$SMGPS,-0.0 m,-0.00 m/s,7.27 VRx,0.000 km,3 m,157.4 °,1:-- (  0.0 km/h)*F0
$SMGPS2,-0.23 X,+0.09 Y,+0.93 Z,1 ENL,0 us*4E
$GNRMC,161256.80,A,4816.48557,N,01139.86952,E,0.11,,080522,,,A*56
$GNGGA,161256.80,4816.48557,N,01139.86952,E,1,12,0.74,471.3,M,46.2,M,,*46
$GNGSA,A,3,32,01,27,08,21,10,22,14,23,,,,1.27,0.74,1.04*15
$GNVTG,,T,,M,0.110,N,0.205,K,A*3A
$SMGPS,0.0 m,-0.01 m/s,7.28 VRx,0.000 km,3 m,157.4 °,1:-- (  0.0 km/h)*D3
$SMGPS2,-0.24 X,+0.09 Y,+0.94 Z,1 ENL,0 us*4E
$GNRMC,161256.90,A,4816.48557,N,01139.86952,E,0.14,,080522,,,A*52
$GNGGA,161256.90,4816.48557,N,01139.86952,E,1,12,0.74,471.3,M,46.2,M,,*47
$GNGSA,A,3,32,01,27,08,21,10,22,14,23,,,,1.27,0.74,1.04*15
$GNVTG,,T,,M,0.138,N,0.256,K,A*36
$SMGPS,0.0 m,-0.00 m/s,7.27 VRx,0.000 km,3 m,157.4 °,1:-- (  0.0 km/h)*DD
$SMGPS2,-0.23 X,+0.09 Y,+0.94 Z,1 ENL,0 us*49
$GNRMC,161257.00,A,4816.48557,N,01139.86952,E,0.05,,080522,,,A*5A
$GNGGA,161257.00,4816.48557,N,01139.86952,E,1,12,0.86,471.3,M,46.2,M,,*42
$GNGSA,A,3,32,01,27,08,21,10,22,14,,,,,1.46,0.86,1.17*1C
$GNVTG,,T,,M,0.046,N,0.085,K,A*32
$SMGPS,0.0 m,+0.00 m/s,7.28 VRx,0.000 km,3 m,157.4 °,1:-- (  0.0 km/h)*D4
$SMGPS2,-0.23 X,+0.09 Y,+0.93 Z,1 ENL,0 us*4E
$GNRMC,161257.10,A,4816.48558,N,01139.86953,E,0.11,,080522,,,A*50
$GNGGA,161257.10,4816.48558,N,01139.86953,E,1,12,0.86,471.2,M,46.2,M,,*4C
$GNGSA,A,3,32,01,27,08,21,10,22,14,,,,,1.46,0.86,1.17*1C
$GNVTG,,T,,M,0.108,N,0.200,K,A*36
$SMGPS,-0.1 m,+0.00 m/s,7.26 VRx,0.000 km,3 m,157.4 °,1:-- (  0.0 km/h)*F6
$SMGPS2,-0.23 X,+0.09 Y,+0.93 Z,1 ENL,0 us*4E
$GNRMC,161257.20,A,4816.48558,N,01139.86953,E,0.24,,080522,,,A*55
$GNGGA,161257.20,4816.48558,N,01139.86953,E,1,12,0.74,471.3,M,46.2,M,,*43
$GNGSA,A,3,32,01,27,08,21,10,22,14,23,,,,1.27,0.74,1.04*15
$GNVTG,,T,,M,0.238,N,0.440,K,A*34
$SMGPS,-0.0 m,+0.00 m/s,7.29 VRx,0.000 km,3 m,157.4 °,1:-- (  0.0 km/h)*F8
$SMGPS2,-0.23 X,+0.09 Y,+0.93 Z,1 ENL,0 us*4E
$GNRMC,161257.30,A,4816.48558,N,01139.86954,E,0.05,,080522,,,A*50
$GNGGA,161257.30,4816.48558,N,01139.86954,E,1,12,0.86,471.3,M,46.2,M,,*48
$GNGSA,A,3,32,01,27,08,21,10,22,14,,,,,1.46,0.86,1.17*1C
$GNVTG,,T,,M,0.045,N,0.084,K,A*30
$SMGPS,-0.0 m,-0.00 m/s,7.26 VRx,0.000 km,3 m,157.4 °,1:-- (  0.0 km/h)*F1
$SMGPS2,-0.23 X,+0.09 Y,+0.93 Z,1 ENL,0 us*4E
$GNRMC,161257.40,A,4816.48559,N,01139.86954,E,0.03,,080522,,,A*50
$GNGGA,161257.40,4816.48559,N,01139.86954,E,1,12,0.74,471.3,M,46.2,M,,*43
$GNGSA,A,3,32,01,27,08,21,10,22,14,23,,,,1.27,0.74,1.04*15
$GNVTG,,T,,M,0.028,N,0.052,K,A*30
$SMGPS,0.0 m,+0.00 m/s,7.30 VRx,0.000 km,3 m,157.4 °,1:-- (  0.0 km/h)*DD
$SMGPS2,-0.23 X,+0.09 Y,+0.93 Z,1 ENL,0 us*4E
$GNRMC,161257.50,A,4816.48559,N,01139.86954,E,0.16,,080522,,,A*55
$GNGGA,161257.50,4816.48559,N,01139.86954,E,1,12,0.74,471.3,M,46.2,M,,*42
$GNGSA,A,3,32,01,27,08,21,10,22,14,23,,,,1.27,0.74,1.04*15
$GNVTG,,T,,M,0.157,N,0.290,K,A*35
$SMGPS,0.0 m,+0.00 m/s,7.25 VRx,0.000 km,3 m,157.4 °,1:-- (  0.0 km/h)*D9
$SMGPS2,-0.23 X,+0.09 Y,+0.93 Z,1 ENL,0 us*4E
$GNRMC,161257.60,A,4816.48559,N,01139.86954,E,0.12,,080522,,,A*52
$GNGGA,161257.60,4816.48559,N,01139.86954,E,1,12,0.74,471.3,M,46.2,M,,*41
$GNGSA,A,3,32,01,27,08,21,10,22,14,23,,,,1.27,0.74,1.04*15
$GNVTG,,T,,M,0.123,N,0.227,K,A*3A
$SMGPS,0.0 m,+0.00 m/s,7.29 VRx,0.000 km,3 m,157.4 °,1:-- (  0.0 km/h)*D5
$SMGPS2,-0.24 X,+0.09 Y,+0.93 Z,1 ENL,0 us*49
$GNRMC,161257.70,A,4816.48559,N,01139.86955,E,0.11,,080522,,,A*51
$GNGGA,161257.70,4816.48559,N,01139.86955,E,1,12,0.74,471.3,M,46.2,M,,*41
$GNGSA,A,3,32,01,27,08,21,10,22,14,23,,,,1.27,0.74,1.04*15
$GNVTG,,T,,M,0.105,N,0.194,K,A*35
$SMGPS,-0.0 m,-0.00 m/s,7.27 VRx,0.000 km,3 m,157.4 °,1:-- (  0.0 km/h)*F0
$SMGPS2,-0.23 X,+0.09 Y,+0.93 Z,1 ENL,0 us*4E
$GNRMC,161257.80,A,4816.48559,N,01139.86955,E,0.04,,080522,,,A*5A
$GNGGA,161257.80,4816.48559,N,01139.86955,E,1,12,0.74,471.3,M,46.2,M,,*4E
$GNGSA,A,3,32,01,27,08,21,10,22,14,23,,,,1.27,0.74,1.04*15
$GNVTG,,T,,M,0.033,N,0.061,K,A*3A
$SMGPS,0.0 m,-0.00 m/s,7.28 VRx,0.000 km,3 m,157.4 °,1:-- (  0.0 km/h)*D2
$SMGPS2,-0.23 X,+0.09 Y,+0.93 Z,1 ENL,0 us*4E
$GNRMC,161257.90,A,4816.48558,N,01139.86955,E,0.06,,080522,,,A*58
$GNGGA,161257.90,4816.48558,N,01139.86955,E,1,12,0.74,471.3,M,46.2,M,,*4E
$GNGSA,A,3,32,01,27,08,21,10,22,14,23,,,,1.27,0.74,1.04*15
$GNVTG,,T,,M,0.057,N,0.106,K,A*38
$SMGPS,0.0 m,-0.00 m/s,7.27 VRx,0.000 km,3 m,157.4 °,1:-- (  0.0 km/h)*DD
$SMGPS2,-0.23 X,+0.09 Y,+0.94 Z,1 ENL,0 us*49
$GNRMC,161258.00,A,4816.48558,N,01139.86955,E,0.08,,080522,,,A*50
$GNGGA,161258.00,4816.48558,N,01139.86955,E,1,12,0.74,471.3,M,46.2,M,,*48
$GNGSA,A,3,32,01,27,08,21,10,22,14,23,,,,1.27,0.74,1.04*15
$GNVTG,,T,,M,0.078,N,0.144,K,A*33
$SMGPS,0.0 m,-0.00 m/s,7.28 VRx,0.000 km,3 m,157.4 °,1:-- (  0.0 km/h)*D2
$SMGPS2,-0.23 X,+0.09 Y,+0.92 Z,1 ENL,0 us*4F
$GNRMC,161258.10,A,4816.48558,N,01139.86955,E,0.15,,080522,,,A*5D
$GNGGA,161258.10,4816.48558,N,01139.86955,E,1,12,0.74,471.3,M,46.2,M,,*49
$GNGSA,A,3,32,01,27,08,21,10,22,14,23,,,,1.27,0.74,1.04*15
$GNVTG,,T,,M,0.153,N,0.283,K,A*33
$SMGPS,-0.0 m,-0.00 m/s,7.27 VRx,0.000 km,3 m,157.4 °,1:-- (  0.0 km/h)*F0
$SMGPS2,-0.23 X,+0.09 Y,+0.94 Z,1 ENL,0 us*49
$GNRMC,161258.20,A,4816.48557,N,01139.86955,E,0.22,,080522,,,A*55
$GNGGA,161258.20,4816.48557,N,01139.86955,E,1,12,0.74,471.3,M,46.2,M,,*45
$GNGSA,A,3,32,01,27,08,21,10,22,14,23,,,,1.27,0.74,1.04*15
$GNVTG,,T,,M,0.217,N,0.401,K,A*3C
$SMGPS,-0.0 m,-0.01 m/s,7.28 VRx,0.000 km,3 m,157.4 °,1:-- (  0.0 km/h)*FE
$SMGPS2,-0.23 X,+0.09 Y,+0.93 Z,1 ENL,0 us*4E
$GNRMC,161258.30,A,4816.48557,N,01139.86955,E,0.15,,080522,,,A*50
$GNGGA,161258.30,4816.48557,N,01139.86955,E,1,12,0.74,471.3,M,46.2,M,,*44
$GNGSA,A,3,32,01,27,08,21,10,22,14,23,,,,1.27,0.74,1.04*15
$GNVTG,,T,,M,0.149,N,0.276,K,A*32
$SMGPS,-0.0 m,-0.01 m/s,7.27 VRx,0.000 km,3 m,157.4 °,1:-- (  0.0 km/h)*F1
$SMGPS2,-0.23 X,+0.09 Y,+0.93 Z,1 ENL,0 us*4E
$GNRMC,161258.40,A,4816.48557,N,01139.86955,E,0.08,,080522,,,A*5B
$GNGGA,161258.40,4816.48557,N,01139.86955,E,1,12,0.74,471.3,M,46.2,M,,*43
$GNGSA,A,3,32,01,27,08,21,10,22,14,23,,,,1.27,0.74,1.04*15
$GNVTG,,T,,M,0.078,N,0.145,K,A*32
$SMGPS,0.0 m,-0.01 m/s,7.29 VRx,0.000 km,3 m,157.4 °,1:-- (  0.0 km/h)*D2
$SMGPS2,-0.23 X,+0.09 Y,+0.93 Z,1 ENL,0 us*4E
$GNRMC,161258.50,A,4816.48557,N,01139.86955,E,0.11,,080522,,,A*52
$GNGGA,161258.50,4816.48557,N,01139.86955,E,1,12,0.74,471.3,M,46.2,M,,*42
$GNGSA,A,3,32,01,27,08,21,10,22,14,23,,,,1.27,0.74,1.04*15
$GNVTG,,T,,M,0.107,N,0.198,K,A*3B
$SMGPS,0.0 m,-0.00 m/s,7.26 VRx,0.000 km,3 m,157.4 °,1:-- (  0.0 km/h)*DC
$SMGPS2,-0.23 X,+0.09 Y,+0.93 Z,1 ENL,0 us*4E
$GNRMC,161258.60,A,4816.48557,N,01139.86955,E,0.10,,080522,,,A*50
$GNGGA,161258.60,4816.48557,N,01139.86955,E,1,12,0.74,471.3,M,46.2,M,,*41
$GNGSA,A,3,32,01,27,08,21,10,22,14,23,,,,1.27,0.74,1.04*15
$GNVTG,,T,,M,0.096,N,0.177,K,A*33
$SMGPS,-0.0 m,-0.01 m/s,7.30 VRx,0.000 km,3 m,157.4 °,1:-- (  0.0 km/h)*F7
$SMGPS2,-0.23 X,+0.09 Y,+0.94 Z,1 ENL,0 us*49
$GNRMC,161258.70,A,4816.48557,N,01139.86955,E,0.04,,080522,,,A*54
$GNGGA,161258.70,4816.48557,N,01139.86955,E,1,12,0.74,471.3,M,46.2,M,,*40
$GNGSA,A,3,32,01,27,08,21,10,22,14,23,,,,1.27,0.74,1.04*15
$GNVTG,,T,,M,0.036,N,0.066,K,A*38
$SMGPS,0.0 m,-0.00 m/s,7.33 VRx,0.000 km,3 m,157.4 °,1:-- (  0.0 km/h)*D8
$SMGPS2,-0.23 X,+0.09 Y,+0.93 Z,1 ENL,0 us*4E
$GNRMC,161258.80,A,4816.48557,N,01139.86955,E,0.06,,080522,,,A*59
$GNGGA,161258.80,4816.48557,N,01139.86955,E,1,12,0.74,471.3,M,46.2,M,,*4F
$GNGSA,A,3,32,01,27,08,21,10,22,14,23,,,,1.27,0.74,1.04*15
$GNVTG,,T,,M,0.059,N,0.109,K,A*39
$SMGPS,-0.0 m,-0.00 m/s,7.38 VRx,0.000 km,3 m,157.4 °,1:-- (  0.0 km/h)*FE
$SMGPS2,-0.23 X,+0.09 Y,+0.94 Z,1 ENL,0 us*49
$GNRMC,161258.90,A,4816.48557,N,01139.86955,E,0.13,,080522,,,A*5C
$GNGGA,161258.90,4816.48557,N,01139.86955,E,1,12,0.74,471.3,M,46.2,M,,*4E
$GNGSA,A,3,32,01,27,08,21,10,22,14,23,,,,1.27,0.74,1.04*15
$GNVTG,,T,,M,0.132,N,0.244,K,A*3F
$SMGPS,-0.0 m,-0.00 m/s,7.27 VRx,0.000 km,3 m,157.4 °,1:-- (  0.0 km/h)*F0
$SMGPS2,-0.23 X,+0.09 Y,+0.93 Z,1 ENL,0 us*4E
$GNRMC,161259.00,A,4816.48556,N,01139.86955,E,0.09,,080522,,,A*5E
$GNGGA,161259.00,4816.48556,N,01139.86955,E,1,12,0.74,471.3,M,46.2,M,,*47
$GNGSA,A,3,32,01,27,08,21,10,22,14,23,,,,1.27,0.74,1.04*15
$GNVTG,,T,,M,0.089,N,0.166,K,A*3D
$SMGPS,-0.0 m,-0.00 m/s,7.28 VRx,0.000 km,3 m,157.4 °,1:-- (  0.0 km/h)*FF
$SMGPS2,-0.22 X,+0.09 Y,+0.93 Z,1 ENL,0 us*4F
$GNRMC,161259.10,A,4816.48556,N,01139.86955,E,0.18,,080522,,,A*5F
$GNGGA,161259.10,4816.48556,N,01139.86955,E,1,12,0.74,471.3,M,46.2,M,,*46
$GNGSA,A,3,32,01,27,08,21,10,22,14,23,,,,1.27,0.74,1.04*15
$GNVTG,,T,,M,0.178,N,0.330,K,A*33
$SMGPS,-0.0 m,-0.01 m/s,7.26 VRx,0.000 km,3 m,157.4 °,1:-- (  0.0 km/h)*F0
$SMGPS2,-0.23 X,+0.09 Y,+0.93 Z,1 ENL,0 us*4E
$GNRMC,161259.20,A,4816.48555,N,01139.86955,E,0.02,,080522,,,A*54
$GNGGA,161259.20,4816.48555,N,01139.86955,E,1,12,0.74,471.3,M,46.2,M,,*46
$GNGSA,A,3,32,01,27,08,21,10,22,14,23,,,,1.27,0.74,1.04*15
$GNVTG,,T,,M,0.023,N,0.043,K,A*3B
$SMGPS,-0.0 m,-0.01 m/s,7.28 VRx,0.000 km,3 m,157.4 °,1:-- (  0.0 km/h)*FE
$SMGPS2,-0.23 X,+0.09 Y,+0.93 Z,1 ENL,0 us*4E
$GNRMC,161259.30,A,4816.48555,N,01139.86955,E,0.09,,080522,,,A*5E
$GNGGA,161259.30,4816.48555,N,01139.86955,E,1,12,0.74,471.3,M,46.2,M,,*47
$GNGSA,A,3,32,01,27,08,21,10,22,14,23,,,,1.27,0.74,1.04*15
$GNVTG,,T,,M,0.091,N,0.168,K,A*3A
$SMGPS,-0.0 m,-0.01 m/s,7.26 VRx,0.000 km,3 m,157.4 °,1:-- (  0.0 km/h)*F0
$SMGPS2,-0.24 X,+0.09 Y,+0.93 Z,1 ENL,0 us*49
$GNRMC,161259.40,A,4816.48555,N,01139.86955,E,0.20,,080522,,,A*52
$GNGGA,161259.40,4816.48555,N,01139.86955,E,1,12,0.74,471.3,M,46.2,M,,*40
$GNGSA,A,3,32,01,27,08,21,10,22,14,23,,,,1.27,0.74,1.04*15
$GNVTG,,T,,M,0.199,N,0.369,K,A*30
$SMGPS,-0.0 m,-0.01 m/s,7.29 VRx,0.000 km,3 m,157.4 °,1:-- (  0.0 km/h)*FF
$SMGPS2,-0.23 X,+0.09 Y,+0.94 Z,1 ENL,0 us*49
$GNRMC,161259.50,A,4816.48555,N,01139.86956,E,0.12,,080522,,,A*51
$GNGGA,161259.50,4816.48555,N,01139.86956,E,1,12,0.74,471.3,M,46.2,M,,*42
$GNGSA,A,3,32,01,27,08,21,10,22,14,23,,,,1.27,0.74,1.04*15
$GNVTG,,T,,M,0.121,N,0.224,K,A*3B
$SMGPS,0.0 m,-0.01 m/s,7.27 VRx,0.000 km,3 m,157.4 °,1:-- (  0.0 km/h)*DC
$SMGPS2,-0.24 X,+0.09 Y,+0.93 Z,1 ENL,0 us*49
$GNRMC,161259.60,A,4816.48555,N,01139.86956,E,0.16,,080522,,,A*56
$GNGGA,161259.60,4816.48555,N,01139.86956,E,1,12,0.74,471.3,M,46.2,M,,*41
$GNGSA,A,3,32,01,27,08,21,10,22,14,23,,,,1.27,0.74,1.04*15
$GNVTG,,T,,M,0.155,N,0.287,K,A*31
$SMGPS,-0.0 m,-0.00 m/s,7.29 VRx,0.000 km,3 m,157.4 °,1:-- (  0.0 km/h)*FE
$SMGPS2,-0.23 X,+0.09 Y,+0.93 Z,1 ENL,0 us*4E
$GNRMC,161259.70,A,4816.48555,N,01139.86956,E,0.09,,080522,,,A*59
$GNGGA,161259.70,4816.48555,N,01139.86956,E,1,12,0.86,471.3,M,46.2,M,,*4D
$GNGSA,A,3,32,01,27,08,21,10,22,14,,,,,1.46,0.86,1.17*1C
$GNVTG,,T,,M,0.086,N,0.159,K,A*3E
$SMGPS,-0.0 m,-0.00 m/s,7.25 VRx,0.000 km,3 m,157.4 °,1:-- (  0.0 km/h)*F2
$SMGPS2,-0.23 X,+0.09 Y,+0.93 Z,1 ENL,0 us*4E
$GNRMC,161259.80,A,4816.48555,N,01139.86956,E,0.08,,080522,,,A*57
$GNGGA,161259.80,4816.48555,N,01139.86956,E,1,12,0.86,471.3,M,46.2,M,,*42
$GNGSA,A,3,32,01,27,08,21,10,22,14,,,,,1.46,0.86,1.17*1C
$GNVTG,,T,,M,0.080,N,0.148,K,A*38
$SMGPS,0.0 m,+0.00 m/s,7.29 VRx,0.000 km,3 m,157.4 °,1:-- (  0.0 km/h)*D5
$SMGPS2,-0.23 X,+0.09 Y,+0.93 Z,1 ENL,0 us*4E
$GNRMC,161259.90,A,4816.48555,N,01139.86957,E,0.14,,080522,,,A*5A
$GNGGA,161259.90,4816.48555,N,01139.86957,E,1,12,0.86,471.3,M,46.2,M,,*42
$GNGSA,A,3,32,01,27,08,21,10,22,14,,,,,1.46,0.86,1.17*1C
$GNVTG,,T,,M,0.135,N,0.250,K,A*3D
$SMGPS,0.0 m,+0.00 m/s,7.26 VRx,0.000 km,3 m,157.4 °,1:-- (  0.0 km/h)*DA
$SMGPS2,-0.23 X,+0.09 Y,+0.93 Z,1 ENL,0 us*4E
$GNRMC,161300.00,A,4816.48555,N,01139.86957,E,0.15,,080522,,,A*5F
$GNGGA,161300.00,4816.48555,N,01139.86957,E,1,12,0.86,471.3,M,46.2,M,,*46
$GNGSA,A,3,32,01,27,08,21,10,22,14,,,,,1.46,0.86,1.17*1C
$GNVTG,,T,,M,0.146,N,0.271,K,A*3A
$SMGPS,-0.0 m,+0.00 m/s,7.29 VRx,0.000 km,3 m,154.8 °,1:-- (  0.0 km/h)*F7
$SMGPS2,-0.23 X,+0.09 Y,+0.94 Z,1 ENL,0 us*49
$GNRMC,161300.10,A,4816.48555,N,01139.86957,E,0.18,,080522,,,A*53
$GNGGA,161300.10,4816.48555,N,01139.86957,E,1,12,0.86,471.3,M,46.2,M,,*47
$GNGSA,A,3,32,01,27,08,21,10,22,14,,,,,1.46,0.86,1.17*1C
$GNVTG,,T,,M,0.178,N,0.329,K,A*3B
$SMGPS,-0.0 m,-0.00 m/s,7.26 VRx,0.000 km,3 m,154.8 °,1:-- (  0.0 km/h)*FE
$SMGPS2,-0.23 X,+0.09 Y,+0.93 Z,1 ENL,0 us*4E
$GNRMC,161300.20,A,4816.48555,N,01139.86957,E,0.10,,080522,,,A*58
$GNGGA,161300.20,4816.48555,N,01139.86957,E,1,12,0.86,471.3,M,46.2,M,,*44
$GNGSA,A,3,32,01,27,08,21,10,22,14,,,,,1.46,0.86,1.17*1C
$GNVTG,,T,,M,0.094,N,0.174,K,A*32
$SMGPS,-0.0 m,-0.01 m/s,7.29 VRx,0.000 km,3 m,154.8 °,1:-- (  0.0 km/h)*F0
$SMGPS2,-0.24 X,+0.08 Y,+0.93 Z,1 ENL,0 us*48
$GNRMC,161300.30,A,4816.48555,N,01139.86958,E,0.08,,080522,,,A*5F
$GNGGA,161300.30,4816.48555,N,01139.86958,E,1,12,0.86,471.3,M,46.2,M,,*4A
$GNGSA,A,3,32,01,27,08,21,10,22,14,,,,,1.46,0.86,1.17*1C
$GNVTG,,T,,M,0.082,N,0.151,K,A*32
$SMGPS,0.0 m,-0.02 m/s,7.26 VRx,0.000 km,3 m,154.8 °,1:-- (  0.0 km/h)*D1
$SMGPS2,-0.24 X,+0.09 Y,+0.93 Z,1 ENL,0 us*49
$GNRMC,161300.40,A,4816.48554,N,01139.86958,E,0.05,,080522,,,A*54
$GNGGA,161300.40,4816.48554,N,01139.86958,E,1,12,0.86,471.3,M,46.2,M,,*4C
$GNGSA,A,3,32,01,27,08,21,10,22,14,,,,,1.46,0.86,1.17*1C
$GNVTG,,T,,M,0.051,N,0.094,K,A*34
$SMGPS,0.0 m,-0.02 m/s,7.28 VRx,0.000 km,3 m,154.8 °,1:-- (  0.0 km/h)*DF
$SMGPS2,-0.23 X,+0.09 Y,+0.93 Z,1 ENL,0 us*4E
$GNRMC,161300.50,A,4816.48554,N,01139.86958,E,0.13,,080522,,,A*52
$GNGGA,161300.50,4816.48554,N,01139.86958,E,1,12,0.86,471.3,M,46.2,M,,*4D
$GNGSA,A,3,32,01,27,08,21,10,22,14,,,,,1.46,0.86,1.17*1C
$GNVTG,,T,,M,0.128,N,0.236,K,A*31
$SMGPS,0.0 m,-0.02 m/s,7.27 VRx,0.000 km,3 m,154.8 °,1:-- (  0.0 km/h)*D0
$SMGPS2,-0.23 X,+0.09 Y,+0.93 Z,2 ENL,0 us*4D
$GNRMC,161300.60,A,4816.48554,N,01139.86959,E,0.04,,080522,,,A*56
$GNGGA,161300.60,4816.48554,N,01139.86959,E,1,12,0.86,471.3,M,46.2,M,,*4F
$GNGSA,A,3,32,01,27,08,21,10,22,14,,,,,1.46,0.86,1.17*1C
$GNVTG,,T,,M,0.035,N,0.065,K,A*38
$SMGPS,0.0 m,-0.02 m/s,7.28 VRx,0.000 km,3 m,154.8 °,1:-- (  0.0 km/h)*DF
$SMGPS2,-0.23 X,+0.09 Y,+0.93 Z,1 ENL,0 us*4E
$GNRMC,161300.70,A,4816.48554,N,01139.86959,E,0.14,,080522,,,A*56
$GNGGA,161300.70,4816.48554,N,01139.86959,E,1,12,0.86,471.3,M,46.2,M,,*4E
$GNGSA,A,3,32,01,27,08,21,10,22,14,,,,,1.46,0.86,1.17*1C
$GNVTG,,T,,M,0.141,N,0.261,K,A*3C
$SMGPS,0.0 m,-0.02 m/s,7.27 VRx,0.000 km,3 m,154.8 °,1:-- (  0.0 km/h)*D0
$SMGPS2,-0.23 X,+0.09 Y,+0.93 Z,0 ENL,0 us*4F
$GNRMC,161300.80,A,4816.48553,N,01139.86959,E,0.10,,080522,,,A*5A
$GNGGA,161300.80,4816.48553,N,01139.86959,E,1,12,0.74,471.3,M,46.2,M,,*4B
$GNGSA,A,3,32,01,27,08,21,10,22,14,23,,,,1.27,0.74,1.04*15
$GNVTG,,T,,M,0.102,N,0.188,K,A*3F
$SMGPS,-0.0 m,-0.01 m/s,7.28 VRx,0.000 km,3 m,154.8 °,1:-- (  0.0 km/h)*F1
$SMGPS2,-0.23 X,+0.09 Y,+0.93 Z,1 ENL,0 us*4E
$GNRMC,161300.90,A,4816.48553,N,01139.86959,E,0.07,,080522,,,A*5D
$GNGGA,161300.90,4816.48553,N,01139.86959,E,1,12,0.74,471.3,M,46.2,M,,*4A
$GNGSA,A,3,32,01,27,08,21,10,22,14,23,,,,1.27,0.74,1.04*15
$GNVTG,,T,,M,0.066,N,0.122,K,A*3C
$SMGPS,0.0 m,-0.01 m/s,7.26 VRx,0.000 km,3 m,154.8 °,1:-- (  0.0 km/h)*D2
$SMGPS2,-0.23 X,+0.09 Y,+0.93 Z,1 ENL,0 us*4E
$GNRMC,161301.00,A,4816.48552,N,01139.86959,E,0.13,,080522,,,A*51
$GNGGA,161301.00,4816.48552,N,01139.86959,E,1,12,0.74,471.3,M,46.2,M,,*43
$GNGSA,A,3,32,01,27,08,21,10,22,14,23,,,,1.27,0.74,1.04*15
$GNVTG,,T,,M,0.126,N,0.233,K,A*3A
$SMGPS,0.0 m,+0.00 m/s,7.29 VRx,0.000 km,3 m,154.8 °,1:-- (  0.0 km/h)*DA
$SMGPS2,-0.23 X,+0.09 Y,+0.93 Z,2 ENL,0 us*4D
$GNRMC,161301.10,A,4816.48551,N,01139.86960,E,0.07,,080522,,,A*5C
$GNGGA,161301.10,4816.48551,N,01139.86960,E,1,12,0.74,471.3,M,46.2,M,,*4B
$GNGSA,A,3,32,01,27,08,21,10,22,14,23,,,,1.27,0.74,1.04*15
$GNVTG,,T,,M,0.067,N,0.123,K,A*3C
$SMGPS,-0.0 m,+0.01 m/s,7.25 VRx,0.000 km,3 m,154.8 °,1:-- (  0.0 km/h)*FA
$SMGPS2,-0.23 X,+0.09 Y,+0.93 Z,1 ENL,0 us*4E
$GNRMC,161301.20,A,4816.48551,N,01139.86960,E,0.08,,080522,,,A*50
$GNGGA,161301.20,4816.48551,N,01139.86960,E,1,12,0.74,471.3,M,46.2,M,,*48
$GNGSA,A,3,32,01,27,08,21,10,22,14,23,,,,1.27,0.74,1.04*15
$GNVTG,,T,,M,0.077,N,0.143,K,A*3B
$SMGPS,0.0 m,+0.01 m/s,7.29 VRx,0.000 km,3 m,154.8 °,1:-- (  0.0 km/h)*DB
$SMGPS2,-0.23 X,+0.09 Y,+0.93 Z,0 ENL,0 us*4F
$GNRMC,161301.30,A,4816.48551,N,01139.86960,E,0.13,,080522,,,A*5B
$GNGGA,161301.30,4816.48551,N,01139.86960,E,1,12,0.74,471.3,M,46.2,M,,*49
$GNGSA,A,3,32,01,27,08,21,10,22,14,23,,,,1.27,0.74,1.04*15
$GNVTG,,T,,M,0.121,N,0.224,K,A*3B
$SMGPS,0.0 m,+0.01 m/s,7.26 VRx,0.000 km,3 m,154.8 °,1:-- (  0.0 km/h)*D4
$SMGPS2,-0.23 X,+0.09 Y,+0.93 Z,1 ENL,0 us*4E
$GNRMC,161301.40,A,4816.48550,N,01139.86960,E,0.14,,080522,,,A*5A
$GNGGA,161301.40,4816.48550,N,01139.86960,E,1,12,0.74,471.3,M,46.2,M,,*4F
$GNGSA,A,3,32,01,27,08,21,10,22,14,23,,,,1.27,0.74,1.04*15
$GNVTG,,T,,M,0.133,N,0.246,K,A*3C
$SMGPS,0.0 m,+0.01 m/s,7.29 VRx,0.000 km,3 m,154.8 °,1:-- (  0.0 km/h)*DB
$SMGPS2,-0.23 X,+0.08 Y,+0.93 Z,1 ENL,0 us*4F
$GNRMC,161301.50,A,4816.48550,N,01139.86961,E,0.07,,080522,,,A*58
$GNGGA,161301.50,4816.48550,N,01139.86961,E,1,12,0.74,471.3,M,46.2,M,,*4F
$GNGSA,A,3,32,01,27,08,21,10,22,14,23,,,,1.27,0.74,1.04*15
$GNVTG,,T,,M,0.064,N,0.118,K,A*37
