$GPSSETUP,8AE8,0,1,1,0,0,1,0,0,0,1,3,0,0,0,0,6,0,C8,C8,1F4,1C2,32,64,7C,64,7D0,5,1,1,1E,0,0,0,0,0,0,1003,4,10,5,6,10,10,10,10,10,10,10,10,10,BC10,0,7C,0,108,302,604,0,20F,0,0,0,0,0,0,0,0,0,0,0,0,0,0,0,0,0,0,0,0,0,0,0,0,0,0,0,0,0,0,0,0,0,20,12C,877D*47
$GNRMC,152118.80,A,4816.07067,N,01139.77803,E,0.32,,080522,,,A*58
$GNGGA,152118.80,4816.07067,N,01139.77803,E,1,11,1.01,473.8,M,46.2,M,,*40
$GNGSA,A,3,10,21,27,16,08,23,,,,,,,2.08,1.01,1.82*14
$GNVTG,,T,,M,0.295,N,0.547,K,A*35
$SMGPS,0.1 m,+0.09 m/s,5.17 VRx,0.000 km,0 m,0.0 °,1:-- ( 21.5 km/h)*C0
$SMGPS2,-0.16 X,+0.62 Y,+0.72 Z,3 ENL,0 us*48
$GNRMC,152118.90,A,4816.07067,N,01139.77803,E,0.14,,080522,,,A*5D
$GNGGA,152118.90,4816.07067,N,01139.77803,E,1,11,1.01,473.8,M,46.2,M,,*41
$GNGSA,A,3,10,21,27,16,08,23,,,,,,,2.08,1.01,1.82*14
$GNVTG,,T,,M,0.063,N,0.117,K,A*3F
$SMGPS,0.1 m,+0.09 m/s,5.18 VRx,0.000 km,0 m,90.0 °,1:-- ( 21.5 km/h)*F6
$SMGPS2,-0.17 X,+0.63 Y,+0.72 Z,3 ENL,0 us*48
$GNRMC,152119.00,A,4816.07069,N,01139.77804,E,0.13,,080522,,,A*5B
$GNGGA,152119.00,4816.07069,N,01139.77804,E,1,11,1.01,473.7,M,46.2,M,,*4F
$GNGSA,A,3,10,21,27,16,08,23,,,,,,,2.08,1.01,1.82*14
$GNVTG,,T,,M,0.071,N,0.131,K,A*38
$SMGPS,0.0 m,+0.05 m/s,5.18 VRx,0.000 km,0 m,90.0 °,1:-- ( 21.5 km/h)*FB
$SMGPS2,-0.17 X,+0.62 Y,+0.72 Z,4 ENL,0 us*4E
$GNRMC,152119.10,A,4816.07071,N,01139.77806,E,0.13,,080522,,,A*51
$GNGGA,152119.10,4816.07071,N,01139.77806,E,1,11,1.01,473.7,M,46.2,M,,*45
$GNGSA,A,3,10,21,27,16,08,23,,,,,,,2.08,1.01,1.82*14
$GNVTG,,T,,M,0.087,N,0.162,K,A*37
$SMGPS,-0.0 m,+0.02 m/s,5.18 VRx,0.000 km,0 m,90.0 °,1:-- ( 21.5 km/h)*D1
$SMGPS2,-0.16 X,+0.62 Y,+0.72 Z,4 ENL,0 us*4F
$GNRMC,152119.20,A,4816.07074,N,01139.77808,E,0.07,,080522,,,A*5C
$GNGGA,152119.20,4816.07074,N,01139.77808,E,1,11,1.01,473.7,M,46.2,M,,*4D
$GNGSA,A,3,10,21,27,16,08,23,,,,,,,2.08,1.01,1.82*14
$GNVTG,,T,,M,0.041,N,0.077,K,A*38
$SMGPS,0.0 m,-0.01 m/s,5.17 VRx,0.000 km,0 m,90.0 °,1:-- ( 21.5 km/h)*F6
$SMGPS2,-0.17 X,+0.62 Y,+0.72 Z,3 ENL,0 us*49
$GNRMC,152119.30,A,4816.07076,N,01139.77810,E,0.08,,080522,,,A*59
$GNGGA,152119.30,4816.07076,N,01139.77810,E,1,11,1.01,473.7,M,46.2,M,,*47
$GNGSA,A,3,10,21,27,16,08,23,,,,,,,2.08,1.01,1.82*14
$GNVTG,,T,,M,0.077,N,0.143,K,A*3B
$SMGPS,-0.0 m,-0.05 m/s,5.17 VRx,0.000 km,0 m,90.0 °,1:-- ( 21.5 km/h)*DF
$SMGPS2,-0.16 X,+0.63 Y,+0.72 Z,2 ENL,0 us*48
$GNRMC,152119.40,A,4816.07077,N,01139.77810,E,0.10,,080522,,,A*56
$GNGGA,152119.40,4816.07077,N,01139.77810,E,1,11,1.01,473.7,M,46.2,M,,*41
$GNGSA,A,3,10,21,27,16,08,23,,,,,,,2.08,1.01,1.82*14
$GNVTG,,T,,M,0.095,N,0.176,K,A*31
$SMGPS,-0.0 m,-0.07 m/s,5.17 VRx,0.000 km,0 m,90.0 °,1:-- ( 21.5 km/h)*DD
$SMGPS2,-0.16 X,+0.62 Y,+0.72 Z,3 ENL,0 us*48
$GNRMC,152119.50,A,4816.07079,N,01139.77811,E,0.07,,080522,,,A*5E
$GNGGA,152119.50,4816.07079,N,01139.77811,E,1,11,1.01,473.7,M,46.2,M,,*4F
$GNGSA,A,3,10,21,27,16,08,23,,,,,,,2.08,1.01,1.82*14
$GNVTG,,T,,M,0.068,N,0.126,K,A*36
$SMGPS,0.0 m,-0.06 m/s,5.18 VRx,0.000 km,0 m,90.0 °,1:-- ( 21.5 km/h)*FE
$SMGPS2,-0.17 X,+0.63 Y,+0.72 Z,4 ENL,0 us*4F
$GNRMC,152119.60,A,4816.07081,N,01139.77812,E,0.05,,080522,,,A*5B
$GNGGA,152119.60,4816.07081,N,01139.77812,E,1,11,1.01,473.7,M,46.2,M,,*48
$GNGSA,A,3,10,21,27,16,08,23,,,,,,,2.08,1.01,1.82*14
$GNVTG,,T,,M,0.039,N,0.072,K,A*32
$SMGPS,0.0 m,-0.05 m/s,5.17 VRx,0.000 km,0 m,90.0 °,1:-- ( 21.5 km/h)*F2
$SMGPS2,-0.17 X,+0.62 Y,+0.72 Z,2 ENL,0 us*48
$GNRMC,152119.70,A,4816.07082,N,01139.77813,E,0.22,,080522,,,A*5D
$GNGGA,152119.70,4816.07082,N,01139.77813,E,1,11,1.01,473.7,M,46.2,M,,*4B
$GNGSA,A,3,10,21,27,16,08,23,,,,,,,2.08,1.01,1.82*14
$GNVTG,,T,,M,0.221,N,0.409,K,A*31
$SMGPS,0.0 m,-0.03 m/s,5.17 VRx,0.000 km,0 m,90.0 °,1:-- ( 21.5 km/h)*F4
$SMGPS2,-0.16 X,+0.62 Y,+0.72 Z,3 ENL,0 us*48
$GNRMC,152119.80,A,4816.07084,N,01139.77814,E,0.04,,080522,,,A*57
$GNGGA,152119.80,4816.07084,N,01139.77814,E,1,11,1.01,473.7,M,46.2,M,,*45
$GNGSA,A,3,10,21,27,16,08,23,,,,,,,2.08,1.01,1.82*14
$GNVTG,,T,,M,0.040,N,0.074,K,A*3A
$SMGPS,0.0 m,-0.01 m/s,5.17 VRx,0.000 km,0 m,90.0 °,1:-- ( 21.5 km/h)*F6
$SMGPS2,-0.17 X,+0.62 Y,+0.72 Z,2 ENL,0 us*48
$GNRMC,152119.90,A,4816.07086,N,01139.77815,E,0.19,,080522,,,A*59
$GNGGA,152119.90,4816.07086,N,01139.77815,E,1,11,1.01,473.7,M,46.2,M,,*47
$GNGSA,A,3,10,21,27,16,08,23,,,,,,,2.08,1.01,1.82*14
$GNVTG,,T,,M,0.187,N,0.346,K,A*32
$SMGPS,-0.0 m,-0.00 m/s,5.17 VRx,0.000 km,0 m,90.0 °,1:-- ( 21.5 km/h)*DA
$SMGPS2,-0.17 X,+0.63 Y,+0.73 Z,3 ENL,0 us*49
$GNRMC,152120.00,A,4816.07087,N,01139.77815,E,0.13,,080522,,,A*51
$GNGGA,152120.00,4816.07087,N,01139.77815,E,1,11,1.01,473.7,M,46.2,M,,*45
$GNGSA,A,3,10,21,27,16,08,23,,,,,,,2.08,1.01,1.82*14
$GNVTG,,T,,M,0.134,N,0.249,K,A*34
$SMGPS,-0.0 m,+0.01 m/s,5.17 VRx,0.000 km,0 m,90.0 °,1:-- ( 21.5 km/h)*DD
$SMGPS2,-0.17 X,+0.62 Y,+0.72 Z,4 ENL,0 us*4E
$GNRMC,152120.10,A,4816.07089,N,01139.77816,E,0.11,,080522,,,A*5F
$GNGGA,152120.10,4816.07089,N,01139.77816,E,1,11,1.01,473.7,M,46.2,M,,*49
$GNGSA,A,3,10,21,27,16,08,23,,,,,,,2.08,1.01,1.82*14
$GNVTG,,T,,M,0.107,N,0.198,K,A*3B
$SMGPS,0.0 m,+0.02 m/s,5.17 VRx,0.000 km,0 m,90.0 °,1:-- ( 21.5 km/h)*F3
$SMGPS2,-0.17 X,+0.62 Y,+0.72 Z,2 ENL,0 us*48
$GNRMC,152120.20,A,4816.07089,N,01139.77817,E,0.01,,080522,,,A*5C
$GNGGA,152120.20,4816.07089,N,01139.77817,E,1,11,1.01,473.8,M,46.2,M,,*44
$GNGSA,A,3,10,21,27,16,08,23,,,,,,,2.08,1.01,1.82*14
$GNVTG,,T,,M,0.011,N,0.021,K,A*3E
$SMGPS,0.1 m,+0.02 m/s,5.17 VRx,0.000 km,0 m,90.0 °,1:-- ( 21.5 km/h)*F2
$SMGPS2,-0.17 X,+0.62 Y,+0.72 Z,3 ENL,0 us*49
$GNRMC,152120.30,A,4816.07090,N,01139.77819,E,0.08,,080522,,,A*52
$GNGGA,152120.30,4816.07090,N,01139.77819,E,1,11,1.01,473.7,M,46.2,M,,*4C
$GNGSA,A,3,10,21,27,16,08,23,,,,,,,2.08,1.01,1.82*14
$GNVTG,,T,,M,0.081,N,0.150,K,A*30
$SMGPS,-0.0 m,+0.01 m/s,5.17 VRx,0.000 km,0 m,90.0 °,1:-- ( 21.5 km/h)*DD
$SMGPS2,-0.16 X,+0.62 Y,+0.73 Z,2 ENL,0 us*48
$GNRMC,152120.40,A,4816.07090,N,01139.77819,E,0.15,,080522,,,A*59
$GNGGA,152120.40,4816.07090,N,01139.77819,E,1,11,1.01,473.7,M,46.2,M,,*4B
$GNGSA,A,3,10,21,27,16,08,23,,,,,,,2.08,1.01,1.82*14
$GNVTG,,T,,M,0.150,N,0.278,K,A*34
$SMGPS,-0.0 m,+0.01 m/s,5.17 VRx,0.000 km,0 m,90.0 °,1:-- ( 21.5 km/h)*DD
$SMGPS2,-0.16 X,+0.62 Y,+0.72 Z,3 ENL,0 us*48
$GNRMC,152120.50,A,4816.07091,N,01139.77819,E,0.09,,080522,,,A*54
$GNGGA,152120.50,4816.07091,N,01139.77819,E,1,11,1.01,473.8,M,46.2,M,,*44
$GNGSA,A,3,10,21,27,16,08,23,,,,,,,2.08,1.01,1.82*14
$GNVTG,,T,,M,0.088,N,0.164,K,A*3E
$SMGPS,0.1 m,+0.03 m/s,5.17 VRx,0.000 km,0 m,90.0 °,1:-- ( 21.5 km/h)*F3
$SMGPS2,-0.16 X,+0.62 Y,+0.72 Z,3 ENL,0 us*48
$GNRMC,152120.60,A,4816.07091,N,01139.77819,E,0.12,,080522,,,A*5D
$GNGGA,152120.60,4816.07091,N,01139.77819,E,1,11,1.01,473.7,M,46.2,M,,*48
$GNGSA,A,3,10,21,27,16,08,23,,,,,,,2.08,1.01,1.82*14
$GNVTG,,T,,M,0.115,N,0.214,K,A*3F
$SMGPS,0.0 m,+0.02 m/s,5.17 VRx,0.000 km,0 m,90.0 °,1:-- ( 21.5 km/h)*F3
$SMGPS2,-0.17 X,+0.62 Y,+0.72 Z,5 ENL,0 us*4F
$GNRMC,152120.70,A,4816.07092,N,01139.77820,E,0.06,,080522,,,A*50
$GNGGA,152120.70,4816.07092,N,01139.77820,E,1,11,1.01,473.7,M,46.2,M,,*40
$GNGSA,A,3,10,21,27,16,08,23,,,,,,,2.08,1.01,1.82*14
$GNVTG,,T,,M,0.052,N,0.096,K,A*35
$SMGPS,-0.0 m,-0.01 m/s,5.17 VRx,0.000 km,0 m,90.0 °,1:-- ( 21.5 km/h)*DB
$SMGPS2,-0.17 X,+0.62 Y,+0.72 Z,3 ENL,0 us*49
$GNRMC,152120.80,A,4816.07094,N,01139.77821,E,0.11,,080522,,,A*5E
$GNGGA,152120.80,4816.07094,N,01139.77821,E,1,11,1.01,473.7,M,46.2,M,,*48
$GNGSA,A,3,10,21,27,16,08,23,,,,,,,2.08,1.01,1.82*14
$GNVTG,,T,,M,0.105,N,0.195,K,A*34
$SMGPS,0.0 m,-0.01 m/s,5.17 VRx,0.000 km,0 m,90.0 °,1:-- ( 21.5 km/h)*F6
$SMGPS2,-0.17 X,+0.62 Y,+0.72 Z,3 ENL,0 us*49
$GNRMC,152120.90,A,4816.07094,N,01139.77821,E,0.04,,080522,,,A*5B
$GNGGA,152120.90,4816.07094,N,01139.77821,E,1,11,1.01,473.7,M,46.2,M,,*49
$GNGSA,A,3,10,21,27,16,08,23,,,,,,,2.08,1.01,1.82*14
$GNVTG,,T,,M,0.026,N,0.049,K,A*34
$SMGPS,0.0 m,-0.03 m/s,5.17 VRx,0.000 km,0 m,90.0 °,1:-- ( 21.5 km/h)*F4
$SMGPS2,-0.16 X,+0.63 Y,+0.73 Z,3 ENL,0 us*48
$GNRMC,152121.00,A,4816.07095,N,01139.77822,E,0.16,,080522,,,A*52
$GNGGA,152121.00,4816.07095,N,01139.77822,E,1,11,1.01,473.7,M,46.2,M,,*43
$GNGSA,A,3,10,21,27,16,08,23,,,,,,,2.08,1.01,1.82*14
$GNVTG,,T,,M,0.161,N,0.299,K,A*39
$SMGPS,0.0 m,-0.03 m/s,5.17 VRx,0.000 km,0 m,90.0 °,1:-- ( 21.5 km/h)*F4
$SMGPS2,-0.16 X,+0.62 Y,+0.72 Z,4 ENL,0 us*4F
$GNRMC,152121.10,A,4816.07096,N,01139.77822,E,0.09,,080522,,,A*5E
$GNGGA,152121.10,4816.07096,N,01139.77822,E,1,11,1.01,473.8,M,46.2,M,,*4E
$GNGSA,A,3,10,21,27,16,08,23,,,,,,,2.08,1.01,1.82*14
$GNVTG,,T,,M,0.074,N,0.137,K,A*3B
$SMGPS,0.1 m,-0.02 m/s,5.17 VRx,0.000 km,0 m,90.0 °,1:-- ( 21.5 km/h)*F4
$SMGPS2,-0.16 X,+0.63 Y,+0.72 Z,3 ENL,0 us*49
$GNRMC,152121.20,A,4816.07097,N,01139.77824,E,0.07,,080522,,,A*54
$GNGGA,152121.20,4816.07097,N,01139.77824,E,1,11,1.01,473.7,M,46.2,M,,*45
$GNGSA,A,3,10,21,27,16,08,23,,,,,,,2.08,1.01,1.82*14
$GNVTG,,T,,M,0.055,N,0.101,K,A*3D
$SMGPS,0.0 m,-0.04 m/s,5.17 VRx,0.000 km,0 m,90.0 °,1:-- ( 21.5 km/h)*F3
$SMGPS2,-0.17 X,+0.62 Y,+0.72 Z,2 ENL,0 us*48
$GNRMC,152121.30,A,4816.07098,N,01139.77825,E,0.05,,080522,,,A*59
$GNGGA,152121.30,4816.07098,N,01139.77825,E,1,11,1.01,473.7,M,46.2,M,,*4A
$GNGSA,A,3,10,21,27,16,08,23,,,,,,,2.08,1.01,1.82*14
$GNVTG,,T,,M,0.044,N,0.081,K,A*34
$SMGPS,-0.0 m,-0.04 m/s,5.17 VRx,0.000 km,0 m,90.0 °,1:-- ( 21.5 km/h)*DE
$SMGPS2,-0.17 X,+0.61 Y,+0.72 Z,3 ENL,0 us*4A
$GNRMC,152121.40,A,4816.07099,N,01139.77827,E,0.08,,080522,,,A*50
$GNGGA,152121.40,4816.07099,N,01139.77827,E,1,11,1.01,473.7,M,46.2,M,,*4E
$GNGSA,A,3,10,21,27,16,08,23,,,,,,,2.08,1.01,1.82*14
$GNVTG,,T,,M,0.076,N,0.141,K,A*38
$SMGPS,-0.0 m,-0.02 m/s,5.17 VRx,0.000 km,0 m,90.0 °,1:-- ( 21.5 km/h)*D8
$SMGPS2,-0.17 X,+0.62 Y,+0.72 Z,3 ENL,0 us*49
$GNRMC,152121.50,A,4816.07101,N,01139.77828,E,0.06,,080522,,,A*50
$GNGGA,152121.50,4816.07101,N,01139.77828,E,1,11,1.01,473.7,M,46.2,M,,*40
$GNGSA,A,3,10,21,27,16,08,23,,,,,,,2.08,1.01,1.82*14
$GNVTG,,T,,M,0.053,N,0.097,K,A*35
$SMGPS,0.0 m,-0.02 m/s,5.17 VRx,0.000 km,0 m,90.0 °,1:-- ( 21.5 km/h)*F5
$SMGPS2,-0.17 X,+0.62 Y,+0.72 Z,3 ENL,0 us*49
$GNRMC,152121.60,A,4816.07101,N,01139.77830,E,0.05,,080522,,,A*59
$GNGGA,152121.60,4816.07101,N,01139.77830,E,1,11,1.01,473.7,M,46.2,M,,*4A
$GNGSA,A,3,10,21,27,16,08,23,,,,,,,2.08,1.01,1.82*14
$GNVTG,,T,,M,0.046,N,0.084,K,A*33
$SMGPS,-0.0 m,+0.01 m/s,5.17 VRx,0.000 km,0 m,90.0 °,1:-- ( 21.5 km/h)*DD
$SMGPS2,-0.16 X,+0.62 Y,+0.73 Z,2 ENL,0 us*48
$GNRMC,152121.70,A,4816.07102,N,01139.77830,E,0.10,,080522,,,A*5F
$GNGGA,152121.70,4816.07102,N,01139.77830,E,1,11,1.01,473.7,M,46.2,M,,*48
$GNGSA,A,3,10,21,27,16,08,23,,,,,,,2.08,1.01,1.82*14
$GNVTG,,T,,M,0.094,N,0.174,K,A*32
$SMGPS,0.0 m,+0.01 m/s,5.17 VRx,0.000 km,0 m,90.0 °,1:-- ( 21.5 km/h)*F0
$SMGPS2,-0.16 X,+0.62 Y,+0.72 Z,4 ENL,0 us*4F
$GNRMC,152121.80,A,4816.07102,N,01139.77831,E,0.10,,080522,,,A*51
$GNGGA,152121.80,4816.07102,N,01139.77831,E,1,11,1.01,473.7,M,46.2,M,,*46
$GNGSA,A,3,10,21,27,16,08,23,,,,,,,2.08,1.01,1.82*14
$GNVTG,,T,,M,0.100,N,0.185,K,A*30
$SMGPS,0.0 m,+0.01 m/s,5.17 VRx,0.000 km,0 m,90.0 °,1:-- ( 21.5 km/h)*F0
$SMGPS2,-0.17 X,+0.62 Y,+0.71 Z,3 ENL,0 us*4A
$GNRMC,152121.90,A,4816.07101,N,01139.77832,E,0.09,,080522,,,A*58
$GNGGA,152121.90,4816.07101,N,01139.77832,E,1,11,1.01,473.7,M,46.2,M,,*47
$GNGSA,A,3,10,21,27,16,08,23,,,,,,,2.08,1.01,1.82*14
$GNVTG,,T,,M,0.081,N,0.149,K,A*38
$SMGPS,0.0 m,+0.02 m/s,5.17 VRx,0.000 km,0 m,90.0 °,1:-- ( 21.5 km/h)*F3
$SMGPS2,-0.17 X,+0.62 Y,+0.73 Z,3 ENL,0 us*48
$GNRMC,152122.00,A,4816.07101,N,01139.77833,E,0.05,,080522,,,A*5F
$GNGGA,152122.00,4816.07101,N,01139.77833,E,1,11,1.01,473.7,M,46.2,M,,*4C
$GNGSA,A,3,10,21,27,16,08,23,,,,,,,2.08,1.01,1.82*14
$GNVTG,,T,,M,0.031,N,0.057,K,A*3D
$SMGPS,0.0 m,+0.02 m/s,5.17 VRx,0.000 km,0 m,90.0 °,1:-- ( 21.5 km/h)*F3
$SMGPS2,-0.16 X,+0.62 Y,+0.72 Z,2 ENL,0 us*49
$GNRMC,152122.10,A,4816.07102,N,01139.77834,E,0.07,,080522,,,A*58
$GNGGA,152122.10,4816.07102,N,01139.77834,E,1,11,1.01,473.7,M,46.2,M,,*49
$GNGSA,A,3,10,21,27,16,08,23,,,,,,,2.08,1.01,1.82*14
$GNVTG,,T,,M,0.061,N,0.113,K,A*39
$SMGPS,0.0 m,+0.03 m/s,5.17 VRx,0.000 km,0 m,90.0 °,1:-- ( 21.5 km/h)*F2
$SMGPS2,-0.17 X,+0.63 Y,+0.72 Z,3 ENL,0 us*48
$GNRMC,152122.20,A,4816.07102,N,01139.77834,E,0.13,,080522,,,A*5E
$GNGGA,152122.20,4816.07102,N,01139.77834,E,1,11,1.01,473.7,M,46.2,M,,*4A
$GNGSA,A,3,10,21,27,16,08,23,,,,,,,2.08,1.01,1.82*14
$GNVTG,,T,,M,0.122,N,0.226,K,A*3A
$SMGPS,0.0 m,+0.03 m/s,5.17 VRx,0.000 km,0 m,90.0 °,1:-- ( 21.5 km/h)*F2
$SMGPS2,-0.17 X,+0.62 Y,+0.73 Z,4 ENL,0 us*4F
$GNRMC,152122.30,A,4816.07102,N,01139.77835,E,0.14,,080522,,,A*59
$GNGGA,152122.30,4816.07102,N,01139.77835,E,1,11,1.01,473.7,M,46.2,M,,*4A
$GNGSA,A,3,10,21,27,16,08,23,,,,,,,2.08,1.01,1.82*14
$GNVTG,,T,,M,0.140,N,0.259,K,A*36
$SMGPS,-0.0 m,+0.04 m/s,5.17 VRx,0.000 km,0 m,90.0 °,1:-- ( 21.5 km/h)*D8
$SMGPS2,-0.16 X,+0.62 Y,+0.72 Z,2 ENL,0 us*49
$GNRMC,152122.40,A,4816.07102,N,01139.77836,E,0.08,,080522,,,A*50
$GNGGA,152122.40,4816.07102,N,01139.77836,E,1,11,1.01,473.7,M,46.2,M,,*4E
$GNGSA,A,3,10,21,27,16,08,23,,,,,,,2.08,1.01,1.82*14
$GNVTG,,T,,M,0.079,N,0.147,K,A*31
$SMGPS,0.0 m,+0.04 m/s,5.17 VRx,0.000 km,0 m,90.0 °,1:-- ( 21.5 km/h)*F5
$SMGPS2,-0.16 X,+0.62 Y,+0.72 Z,4 ENL,0 us*4F
$GNRMC,152122.50,A,4816.07103,N,01139.77836,E,0.17,,080522,,,A*5E
$GNGGA,152122.50,4816.07103,N,01139.77836,E,1,11,1.01,473.7,M,46.2,M,,*4E
$GNGSA,A,3,10,21,27,16,08,23,,,,,,,2.08,1.01,1.82*14
$GNVTG,,T,,M,0.170,N,0.314,K,A*3D
$SMGPS,-0.0 m,+0.04 m/s,5.17 VRx,0.000 km,0 m,90.0 °,1:-- ( 21.5 km/h)*D8
$SMGPS2,-0.16 X,+0.62 Y,+0.72 Z,4 ENL,0 us*4F
$GNRMC,152122.60,A,4816.07103,N,01139.77836,E,0.07,,080522,,,A*5C
$GNGGA,152122.60,4816.07103,N,01139.77836,E,1,11,1.01,473.7,M,46.2,M,,*4D
$GNGSA,A,3,10,21,27,16,08,23,,,,,,,2.08,1.01,1.82*14
$GNVTG,,T,,M,0.065,N,0.121,K,A*3C
$SMGPS,0.0 m,+0.02 m/s,5.17 VRx,0.000 km,0 m,90.0 °,1:-- ( 21.5 km/h)*F3
$SMGPS2,-0.17 X,+0.62 Y,+0.72 Z,2 ENL,0 us*48
$GNRMC,152122.70,A,4816.07103,N,01139.77837,E,0.07,,080522,,,A*5C
$GNGGA,152122.70,4816.07103,N,01139.77837,E,1,11,1.01,473.7,M,46.2,M,,*4D
$GNGSA,A,3,10,21,27,16,08,23,,,,,,,2.08,1.01,1.82*14
$GNVTG,,T,,M,0.068,N,0.125,K,A*35
$SMGPS,-0.0 m,+0.03 m/s,5.17 VRx,0.000 km,0 m,90.0 °,1:-- ( 21.5 km/h)*DF
$SMGPS2,-0.17 X,+0.62 Y,+0.73 Z,3 ENL,0 us*48
$GNRMC,152122.80,A,4816.07103,N,01139.77836,E,0.09,,080522,,,A*5C
$GNGGA,152122.80,4816.07103,N,01139.77836,E,1,11,1.01,473.7,M,46.2,M,,*43
$GNGSA,A,3,10,21,27,16,08,23,,,,,,,2.08,1.01,1.82*14
$GNVTG,,T,,M,0.094,N,0.174,K,A*32
$SMGPS,0.0 m,+0.04 m/s,5.17 VRx,0.000 km,0 m,90.0 °,1:-- ( 21.5 km/h)*F5
$SMGPS2,-0.17 X,+0.62 Y,+0.72 Z,4 ENL,0 us*4E
$GNRMC,152122.90,A,4816.07104,N,01139.77837,E,0.17,,080522,,,A*54
$GNGGA,152122.90,4816.07104,N,01139.77837,E,1,11,1.01,473.7,M,46.2,M,,*44
$GNGSA,A,3,10,21,27,16,08,23,,,,,,,2.08,1.01,1.82*14
$GNVTG,,T,,M,0.169,N,0.313,K,A*32
$SMGPS,-0.0 m,+0.03 m/s,5.17 VRx,0.000 km,0 m,90.0 °,1:-- ( 21.5 km/h)*DF
$SMGPS2,-0.17 X,+0.63 Y,+0.72 Z,3 ENL,0 us*48
$GNRMC,152123.00,A,4816.07105,N,01139.77838,E,0.06,,080522,,,A*52
$GNGGA,152123.00,4816.07105,N,01139.77838,E,1,11,1.01,473.7,M,46.2,M,,*42
$GNGSA,A,3,10,21,27,16,08,23,,,,,,,2.08,1.01,1.82*14
$GNVTG,,T,,M,0.056,N,0.104,K,A*3B
$SMGPS,-0.0 m,+0.01 m/s,5.17 VRx,0.000 km,0 m,90.0 °,1:-- ( 21.5 km/h)*DD
$SMGPS2,-0.16 X,+0.62 Y,+0.72 Z,3 ENL,0 us*48
$GNRMC,152123.10,A,4816.07105,N,01139.77838,E,0.08,,080522,,,A*5D
$GNGGA,152123.10,4816.07105,N,01139.77838,E,1,11,1.01,473.7,M,46.2,M,,*43
$GNGSA,A,3,10,21,27,16,08,23,,,,,,,2.08,1.01,1.82*14
$GNVTG,,T,,M,0.083,N,0.155,K,A*37
$SMGPS,0.0 m,+0.01 m/s,5.17 VRx,0.000 km,1 m,21.2 °,1:-- ( 21.5 km/h)*F9
$SMGPS2,-0.17 X,+0.62 Y,+0.72 Z,2 ENL,0 us*48
$GNRMC,152123.20,A,4816.07106,N,01139.77839,E,0.07,,080522,,,A*53
$GNGGA,152123.20,4816.07106,N,01139.77839,E,1,11,1.01,473.7,M,46.2,M,,*42
$GNGSA,A,3,10,21,27,16,08,23,,,,,,,2.08,1.01,1.82*14
$GNVTG,,T,,M,0.065,N,0.121,K,A*3C
$SMGPS,0.0 m,-0.01 m/s,5.17 VRx,0.000 km,1 m,21.2 °,1:-- ( 21.5 km/h)*FF
$SMGPS2,-0.16 X,+0.63 Y,+0.73 Z,2 ENL,0 us*49
$GNRMC,152123.30,A,4816.07108,N,01139.77840,E,0.00,,080522,,,A*55
$GNGGA,152123.30,4816.07108,N,01139.77840,E,1,11,1.01,473.7,M,46.2,M,,*43
$GNGSA,A,3,10,21,27,16,08,23,,,,,,,2.08,1.01,1.82*14
$GNVTG,,T,,M,0.004,N,0.007,K,A*3E
$SMGPS,0.0 m,-0.01 m/s,5.17 VRx,0.000 km,1 m,26.5 °,1:-- ( 21.5 km/h)*FF
$SMGPS2,-0.16 X,+0.62 Y,+0.72 Z,3 ENL,0 us*48
$GNRMC,152123.40,A,4816.07109,N,01139.77841,E,0.13,,080522,,,A*50
$GNGGA,152123.40,4816.07109,N,01139.77841,E,1,11,1.01,473.7,M,46.2,M,,*44
$GNGSA,A,3,10,21,27,16,08,23,,,,,,,2.08,1.01,1.82*14
$GNVTG,,T,,M,0.126,N,0.233,K,A*3A
$SMGPS,-0.0 m,-0.03 m/s,5.17 VRx,0.000 km,1 m,26.5 °,1:-- ( 21.5 km/h)*D0
$SMGPS2,-0.16 X,+0.63 Y,+0.73 Z,2 ENL,0 us*49
$GNRMC,152123.50,A,4816.07110,N,01139.77842,E,0.22,,080522,,,A*58
$GNGGA,152123.50,4816.07110,N,01139.77842,E,1,11,1.01,473.7,M,46.2,M,,*4E
$GNGSA,A,3,10,21,27,16,08,23,,,,,,,2.08,1.01,1.82*14
$GNVTG,,T,,M,0.216,N,0.399,K,A*3B
$SMGPS,-0.0 m,-0.04 m/s,5.17 VRx,0.000 km,1 m,26.5 °,1:-- ( 21.5 km/h)*D7
$SMGPS2,-0.16 X,+0.61 Y,+0.72 Z,3 ENL,0 us*4B
$GNRMC,152123.60,A,4816.07112,N,01139.77843,E,0.02,,080522,,,A*5A
$GNGGA,152123.60,4816.07112,N,01139.77843,E,1,11,1.01,473.7,M,46.2,M,,*4E
$GNGSA,A,3,10,21,27,16,08,23,,,,,,,2.08,1.01,1.82*14
$GNVTG,,T,,M,0.018,N,0.033,K,A*34
$SMGPS,0.0 m,-0.02 m/s,5.17 VRx,0.000 km,1 m,26.5 °,1:-- ( 21.5 km/h)*FC
$SMGPS2,-0.16 X,+0.62 Y,+0.72 Z,3 ENL,0 us*48
$GNRMC,152123.70,A,4816.07114,N,01139.77844,E,0.10,,080522,,,A*59
$GNGGA,152123.70,4816.07114,N,01139.77844,E,1,11,1.01,473.7,M,46.2,M,,*4E
$GNGSA,A,3,10,21,27,16,08,23,,,,,,,2.08,1.01,1.82*14
$GNVTG,,T,,M,0.099,N,0.183,K,A*37
$SMGPS,0.0 m,-0.01 m/s,5.17 VRx,0.000 km,1 m,26.5 °,1:-- ( 21.5 km/h)*FF
$SMGPS2,-0.16 X,+0.62 Y,+0.72 Z,4 ENL,0 us*4F
$GNRMC,152123.80,A,4816.07114,N,01139.77844,E,0.21,,080522,,,A*54
$GNGGA,152123.80,4816.07114,N,01139.77844,E,1,11,1.01,473.7,M,46.2,M,,*41
$GNGSA,A,3,10,21,27,16,08,23,,,,,,,2.08,1.01,1.82*14
$GNVTG,,T,,M,0.214,N,0.397,K,A*37
$SMGPS,0.0 m,-0.01 m/s,5.17 VRx,0.000 km,1 m,26.5 °,1:-- ( 21.5 km/h)*FF
$SMGPS2,-0.17 X,+0.62 Y,+0.72 Z,4 ENL,0 us*4E
$GNRMC,152123.90,A,4816.07115,N,01139.77844,E,0.12,,080522,,,A*54
$GNGGA,152123.90,4816.07115,N,01139.77844,E,1,11,1.01,473.7,M,46.2,M,,*41
$GNGSA,A,3,10,21,27,16,08,23,,,,,,,2.08,1.01,1.82*14
$GNVTG,,T,,M,0.115,N,0.214,K,A*3F
$SMGPS,-0.0 m,+0.00 m/s,5.17 VRx,0.000 km,1 m,26.5 °,1:-- ( 21.5 km/h)*D5
$SMGPS2,-0.17 X,+0.62 Y,+0.72 Z,2 ENL,0 us*48
$GNRMC,152124.00,A,4816.07116,N,01139.77845,E,0.13,,080522,,,A*59
$GNGGA,152124.00,4816.07116,N,01139.77845,E,1,11,1.01,473.6,M,46.2,M,,*4C
$GNGSA,A,3,10,21,27,16,08,23,,,,,,,2.08,1.01,1.82*14
$GNVTG,,T,,M,0.126,N,0.234,K,A*3D
$SMGPS,-0.1 m,+0.02 m/s,5.17 VRx,0.000 km,1 m,26.5 °,1:-- ( 21.5 km/h)*D6
$SMGPS2,-0.16 X,+0.62 Y,+0.72 Z,3 ENL,0 us*48
$GNRMC,152124.10,A,4816.07116,N,01139.77845,E,0.15,,080522,,,A*5E
$GNGGA,152124.10,4816.07116,N,01139.77845,E,1,11,1.01,473.7,M,46.2,M,,*4C
$GNGSA,A,3,10,21,27,16,08,23,,,,,,,2.08,1.01,1.82*14
$GNVTG,,T,,M,0.145,N,0.269,K,A*30
$SMGPS,-0.0 m,+0.05 m/s,5.17 VRx,0.000 km,1 m,26.5 °,1:-- ( 21.5 km/h)*D0
$SMGPS2,-0.16 X,+0.61 Y,+0.72 Z,4 ENL,0 us*4C
$GNRMC,152124.20,A,4816.07117,N,01139.77846,E,0.10,,080522,,,A*5A
$GNGGA,152124.20,4816.07117,N,01139.77846,E,1,11,1.01,473.7,M,46.2,M,,*4D
$GNGSA,A,3,10,21,27,16,08,23,,,,,,,2.08,1.01,1.82*14
$GNVTG,,T,,M,0.104,N,0.193,K,A*33
$SMGPS,-0.0 m,+0.06 m/s,5.17 VRx,0.000 km,1 m,26.5 °,1:-- ( 21.5 km/h)*D3
$SMGPS2,-0.16 X,+0.62 Y,+0.73 Z,3 ENL,0 us*49
$GNRMC,152124.30,A,4816.07117,N,01139.77846,E,0.23,,080522,,,A*5B
$GNGGA,152124.30,4816.07117,N,01139.77846,E,1,11,1.01,473.7,M,46.2,M,,*4C
$GNGSA,A,3,10,21,27,16,08,23,,,,,,,2.08,1.01,1.82*14
$GNVTG,,T,,M,0.234,N,0.433,K,A*3C
$SMGPS,0.0 m,+0.05 m/s,5.17 VRx,0.000 km,1 m,26.5 °,1:-- ( 21.5 km/h)*FD
$SMGPS2,-0.17 X,+0.62 Y,+0.72 Z,3 ENL,0 us*49
$GNRMC,152124.40,A,4816.07118,N,01139.77847,E,0.09,,080522,,,A*5A
$GNGGA,152124.40,4816.07118,N,01139.77847,E,1,11,1.01,473.7,M,46.2,M,,*45
$GNGSA,A,3,10,21,27,16,08,23,,,,,,,2.08,1.01,1.82*14
$GNVTG,,T,,M,0.087,N,0.160,K,A*35
$SMGPS,0.0 m,+0.05 m/s,5.17 VRx,0.000 km,1 m,26.5 °,1:-- ( 21.5 km/h)*FD
$SMGPS2,-0.17 X,+0.62 Y,+0.72 Z,4 ENL,0 us*4E
$GNRMC,152124.50,A,4816.07120,N,01139.77848,E,0.06,,080522,,,A*50
$GNGGA,152124.50,4816.07120,N,01139.77848,E,1,11,1.01,473.7,M,46.2,M,,*40
$GNGSA,A,3,10,21,27,16,08,23,,,,,,,2.08,1.01,1.82*14
$GNVTG,,T,,M,0.056,N,0.103,K,A*3C
$SMGPS,0.0 m,+0.05 m/s,5.17 VRx,0.000 km,1 m,26.5 °,1:-- ( 21.5 km/h)*FD
$SMGPS2,-0.17 X,+0.62 Y,+0.72 Z,3 ENL,0 us*49
$GNRMC,152124.60,A,4816.07121,N,01139.77849,E,0.10,,080522,,,A*54
$GNGGA,152124.60,4816.07121,N,01139.77849,E,1,11,1.01,473.6,M,46.2,M,,*42
$GNGSA,A,3,10,21,27,16,08,23,,,,,,,2.08,1.01,1.82*14
$GNVTG,,T,,M,0.092,N,0.170,K,A*30
$SMGPS,-0.1 m,+0.04 m/s,5.17 VRx,0.000 km,1 m,26.5 °,1:-- ( 21.5 km/h)*D0
$SMGPS2,-0.16 X,+0.63 Y,+0.72 Z,3 ENL,0 us*49
$GNRMC,152124.70,A,4816.07122,N,01139.77849,E,0.16,,080522,,,A*50
$GNGGA,152124.70,4816.07122,N,01139.77849,E,1,11,1.01,473.7,M,46.2,M,,*41
$GNGSA,A,3,10,21,27,16,08,23,,,,,,,2.08,1.01,1.82*14
$GNVTG,,T,,M,0.161,N,0.298,K,A*38
$SMGPS,0.0 m,+0.04 m/s,5.17 VRx,0.000 km,1 m,26.5 °,1:-- ( 21.5 km/h)*FC
$SMGPS2,-0.17 X,+0.62 Y,+0.72 Z,3 ENL,0 us*49
$GNRMC,152124.80,A,4816.07123,N,01139.77850,E,0.11,,080522,,,A*51
$GNGGA,152124.80,4816.07123,N,01139.77850,E,1,11,1.01,473.7,M,46.2,M,,*47
$GNGSA,A,3,10,21,27,16,08,23,,,,,,,2.08,1.01,1.82*14
$GNVTG,,T,,M,0.107,N,0.198,K,A*3B
$SMGPS,0.0 m,+0.03 m/s,5.17 VRx,0.000 km,1 m,26.5 °,1:-- ( 21.5 km/h)*FB
$SMGPS2,-0.17 X,+0.61 Y,+0.72 Z,3 ENL,0 us*4A
$GNRMC,152124.90,A,4816.07124,N,01139.77850,E,0.15,,080522,,,A*53
$GNGGA,152124.90,4816.07124,N,01139.77850,E,1,11,1.01,473.7,M,46.2,M,,*41
$GNGSA,A,3,10,21,27,16,08,23,,,,,,,2.08,1.01,1.82*14
$GNVTG,,T,,M,0.147,N,0.272,K,A*38
$SMGPS,-0.0 m,+0.03 m/s,5.17 VRx,0.000 km,1 m,26.5 °,1:-- ( 21.5 km/h)*D6
$SMGPS2,-0.17 X,+0.62 Y,+0.72 Z,3 ENL,0 us*49
$GNRMC,152125.00,A,4816.07126,N,01139.77851,E,0.11,,080522,,,A*5C
$GNGGA,152125.00,4816.07126,N,01139.77851,E,1,11,1.01,473.7,M,46.2,M,,*4A
$GNGSA,A,3,10,21,27,16,08,23,,,,,,,2.08,1.01,1.82*14
$GNVTG,,T,,M,0.102,N,0.188,K,A*3F
$SMGPS,-0.0 m,+0.03 m/s,5.17 VRx,0.000 km,1 m,26.5 °,1:-- ( 21.5 km/h)*D6
$SMGPS2,-0.17 X,+0.62 Y,+0.72 Z,3 ENL,0 us*49
$GNRMC,152125.10,A,4816.07127,N,01139.77851,E,0.19,,080522,,,A*54
$GNGGA,152125.10,4816.07127,N,01139.77851,E,1,11,1.01,473.7,M,46.2,M,,*4A
$GNGSA,A,3,10,21,27,16,08,23,,,,,,,2.08,1.01,1.82*14
$GNVTG,,T,,M,0.186,N,0.345,K,A*30
$SMGPS,-0.0 m,+0.01 m/s,5.17 VRx,0.000 km,1 m,31.4 °,1:-- ( 21.5 km/h)*D3
$SMGPS2,-0.16 X,+0.62 Y,+0.72 Z,2 ENL,0 us*49
$GNRMC,152125.20,A,4816.07127,N,01139.77852,E,0.09,,080522,,,A*55
$GNGGA,152125.20,4816.07127,N,01139.77852,E,1,11,1.01,473.7,M,46.2,M,,*4A
$GNGSA,A,3,10,21,27,16,08,23,,,,,,,2.08,1.01,1.82*14
$GNVTG,,T,,M,0.082,N,0.151,K,A*32
$SMGPS,-0.0 m,-0.02 m/s,5.17 VRx,0.000 km,1 m,31.4 °,1:-- ( 21.5 km/h)*D6
$SMGPS2,-0.16 X,+0.62 Y,+0.71 Z,3 ENL,0 us*4B
$GNRMC,152125.30,A,4816.07128,N,01139.77853,E,0.07,,080522,,,A*54
$GNGGA,152125.30,4816.07128,N,01139.77853,E,1,11,1.01,473.7,M,46.2,M,,*45
$GNGSA,A,3,10,21,27,16,08,23,,,,,,,2.08,1.01,1.82*14
$GNVTG,,T,,M,0.058,N,0.108,K,A*39
$SMGPS,-0.0 m,-0.01 m/s,5.17 VRx,0.000 km,1 m,31.4 °,1:-- ( 21.5 km/h)*D5
$SMGPS2,-0.17 X,+0.62 Y,+0.73 Z,3 ENL,0 us*48
$GNRMC,152125.40,A,4816.07129,N,01139.77854,E,0.08,,080522,,,A*5A
$GNGGA,152125.40,4816.07129,N,01139.77854,E,1,11,1.01,473.7,M,46.2,M,,*44
$GNGSA,A,3,10,21,27,16,08,23,,,,,,,2.08,1.01,1.82*14
$GNVTG,,T,,M,0.071,N,0.131,K,A*38
$SMGPS,0.0 m,-0.03 m/s,5.17 VRx,0.000 km,1 m,31.4 °,1:-- ( 21.5 km/h)*FA
$SMGPS2,-0.16 X,+0.62 Y,+0.73 Z,3 ENL,0 us*49
$GNRMC,152125.50,A,4816.07130,N,01139.77855,E,0.16,,080522,,,A*5D
$GNGGA,152125.50,4816.07130,N,01139.77855,E,1,11,1.01,473.7,M,46.2,M,,*4C
$GNGSA,A,3,10,21,27,16,08,23,,,,,,,2.08,1.01,1.82*14
$GNVTG,,T,,M,0.154,N,0.284,K,A*33
$SMGPS,0.0 m,-0.04 m/s,5.17 VRx,0.000 km,1 m,31.4 °,1:-- ( 21.5 km/h)*FD
$SMGPS2,-0.17 X,+0.62 Y,+0.73 Z,3 ENL,0 us*48
$GNRMC,152125.60,A,4816.07131,N,01139.77855,E,0.12,,080522,,,A*5B
$GNGGA,152125.60,4816.07131,N,01139.77855,E,1,11,1.01,473.7,M,46.2,M,,*4E
$GNGSA,A,3,10,21,27,16,08,23,,,,,,,2.08,1.01,1.82*14
$GNVTG,,T,,M,0.120,N,0.222,K,A*3C
$SMGPS,0.0 m,-0.04 m/s,5.17 VRx,0.000 km,1 m,31.4 °,1:-- ( 21.5 km/h)*FD
$SMGPS2,-0.17 X,+0.62 Y,+0.72 Z,2 ENL,0 us*48
$GNRMC,152125.70,A,4816.07132,N,01139.77856,E,0.06,,080522,,,A*5F
$GNGGA,152125.70,4816.07132,N,01139.77856,E,1,11,1.01,473.7,M,46.2,M,,*4F
$GNGSA,A,3,10,21,27,16,08,23,,,,,,,2.08,1.01,1.82*14
$GNVTG,,T,,M,0.054,N,0.101,K,A*3C
$SMGPS,0.0 m,-0.06 m/s,5.17 VRx,0.000 km,1 m,31.4 °,1:-- ( 21.5 km/h)*FF
$SMGPS2,-0.16 X,+0.62 Y,+0.72 Z,3 ENL,0 us*48
$GNRMC,152125.80,A,4816.07132,N,01139.77856,E,0.06,,080522,,,A*50
$GNGGA,152125.80,4816.07132,N,01139.77856,E,1,11,1.01,473.7,M,46.2,M,,*40
$GNGSA,A,3,10,21,27,16,08,23,,,,,,,2.08,1.01,1.82*14
$GNVTG,,T,,M,0.057,N,0.106,K,A*38
$SMGPS,-0.0 m,-0.06 m/s,5.17 VRx,0.000 km,1 m,31.4 °,1:-- ( 21.5 km/h)*D2
$SMGPS2,-0.17 X,+0.62 Y,+0.73 Z,3 ENL,0 us*48
$GNRMC,152125.90,A,4816.07133,N,01139.77857,E,0.08,,080522,,,A*5F
$GNGGA,152125.90,4816.07133,N,01139.77857,E,1,11,1.01,473.7,M,46.2,M,,*41
$GNGSA,A,3,10,21,27,16,08,23,,,,,,,2.08,1.01,1.82*14
$GNVTG,,T,,M,0.077,N,0.143,K,A*3B
$SMGPS,-0.0 m,-0.06 m/s,5.17 VRx,0.000 km,1 m,31.4 °,1:-- ( 21.5 km/h)*D2
$SMGPS2,-0.16 X,+0.62 Y,+0.72 Z,3 ENL,0 us*48
$GNRMC,152126.00,A,4816.07134,N,01139.77858,E,0.05,,080522,,,A*50
$GNGGA,152126.00,4816.07134,N,01139.77858,E,1,11,1.01,473.7,M,46.2,M,,*43
$GNGSA,A,3,10,21,27,16,08,23,,,,,,,2.08,1.01,1.82*14
$GNVTG,,T,,M,0.053,N,0.097,K,A*35
$SMGPS,-0.0 m,-0.05 m/s,5.17 VRx,0.000 km,1 m,31.4 °,1:-- ( 21.5 km/h)*D1
$SMGPS2,-0.16 X,+0.63 Y,+0.72 Z,2 ENL,0 us*48
$GNRMC,152126.10,A,4816.07135,N,01139.77859,E,0.11,,080522,,,A*54
$GNGGA,152126.10,4816.07135,N,01139.77859,E,1,11,1.01,473.7,M,46.2,M,,*42
$GNGSA,A,3,10,21,27,16,08,23,,,,,,,2.08,1.01,1.82*14
$GNVTG,,T,,M,0.109,N,0.202,K,A*35
$SMGPS,-0.0 m,-0.06 m/s,5.17 VRx,0.000 km,1 m,31.4 °,1:-- ( 21.5 km/h)*D2
$SMGPS2,-0.16 X,+0.62 Y,+0.72 Z,3 ENL,0 us*48
$GNRMC,152126.20,A,4816.07136,N,01139.77860,E,0.08,,080522,,,A*56
$GNGGA,152126.20,4816.07136,N,01139.77860,E,1,11,1.01,473.7,M,46.2,M,,*48
$GNGSA,A,3,10,21,27,16,08,23,,,,,,,2.08,1.01,1.82*14
$GNVTG,,T,,M,0.082,N,0.151,K,A*32
$SMGPS,-0.0 m,-0.04 m/s,5.17 VRx,0.000 km,1 m,31.4 °,1:-- ( 21.5 km/h)*D0
$SMGPS2,-0.17 X,+0.62 Y,+0.72 Z,3 ENL,0 us*49
$GNRMC,152126.30,A,4816.07136,N,01139.77860,E,0.01,,080522,,,A*5E
$GNGGA,152126.30,4816.07136,N,01139.77860,E,1,11,1.01,473.7,M,46.2,M,,*49
$GNGSA,A,3,10,21,27,16,08,23,,,,,,,2.08,1.01,1.82*14
$GNVTG,,T,,M,0.013,N,0.024,K,A*39
$SMGPS,0.0 m,-0.06 m/s,5.17 VRx,0.000 km,1 m,31.4 °,1:-- ( 21.5 km/h)*FF
$SMGPS2,-0.17 X,+0.62 Y,+0.72 Z,2 ENL,0 us*48
$GNRMC,152126.40,A,4816.07137,N,01139.77861,E,0.07,,080522,,,A*5F
$GNGGA,152126.40,4816.07137,N,01139.77861,E,1,11,1.01,473.6,M,46.2,M,,*4F
$GNGSA,A,3,10,21,27,16,08,23,,,,,,,2.08,1.01,1.82*14
$GNVTG,,T,,M,0.074,N,0.137,K,A*3B
$SMGPS,-0.1 m,-0.05 m/s,5.17 VRx,0.000 km,1 m,31.4 °,1:-- ( 21.5 km/h)*D0
$SMGPS2,-0.17 X,+0.61 Y,+0.72 Z,3 ENL,0 us*4A
$GNRMC,152126.50,A,4816.07138,N,01139.77862,E,0.08,,080522,,,A*5D
$GNGGA,152126.50,4816.07138,N,01139.77862,E,1,11,1.01,473.7,M,46.2,M,,*43
$GNGSA,A,3,10,21,27,16,08,23,,,,,,,2.08,1.01,1.82*14
$GNVTG,,T,,M,0.079,N,0.147,K,A*31
$SMGPS,0.0 m,-0.06 m/s,5.17 VRx,0.000 km,1 m,31.4 °,1:-- ( 21.5 km/h)*FF
$SMGPS2,-0.17 X,+0.63 Y,+0.72 Z,2 ENL,0 us*49
$GNRMC,152126.60,A,4816.07138,N,01139.77862,E,0.14,,080522,,,A*53
$GNGGA,152126.60,4816.07138,N,01139.77862,E,1,11,1.01,473.7,M,46.2,M,,*40
$GNGSA,A,3,10,21,27,16,08,23,,,,,,,2.08,1.01,1.82*14
$GNVTG,,T,,M,0.144,N,0.267,K,A*3F
$SMGPS,-0.0 m,-0.05 m/s,5.17 VRx,0.000 km,1 m,31.4 °,1:-- ( 21.5 km/h)*D1
$SMGPS2,-0.16 X,+0.61 Y,+0.72 Z,2 ENL,0 us*4A
$GNRMC,152126.70,A,4816.07139,N,01139.77863,E,0.09,,080522,,,A*5E
$GNGGA,152126.70,4816.07139,N,01139.77863,E,1,11,1.01,473.7,M,46.2,M,,*41
$GNGSA,A,3,10,21,27,16,08,23,,,,,,,2.08,1.01,1.82*14
$GNVTG,,T,,M,0.094,N,0.175,K,A*33
$SMGPS,-0.0 m,-0.04 m/s,5.17 VRx,0.000 km,1 m,31.4 °,1:-- ( 21.5 km/h)*D0
$SMGPS2,-0.16 X,+0.62 Y,+0.72 Z,3 ENL,0 us*48
$GNRMC,152126.80,A,4816.07139,N,01139.77863,E,0.17,,080522,,,A*5E
$GNGGA,152126.80,4816.07139,N,01139.77863,E,1,11,1.01,473.7,M,46.2,M,,*4E
$GNGSA,A,3,10,21,27,16,08,23,,,,,,,2.08,1.01,1.82*14
$GNVTG,,T,,M,0.173,N,0.319,K,A*33
$SMGPS,-0.0 m,-0.03 m/s,5.17 VRx,0.000 km,2 m,35.8 °,1:-- ( 21.5 km/h)*DC
$SMGPS2,-0.17 X,+0.62 Y,+0.72 Z,2 ENL,0 us*48
$GNRMC,152126.90,A,4816.07140,N,01139.77863,E,0.08,,080522,,,A*5F
$GNGGA,152126.90,4816.07140,N,01139.77863,E,1,11,1.01,473.7,M,46.2,M,,*41
$GNGSA,A,3,10,21,27,16,08,23,,,,,,,2.08,1.01,1.82*14
$GNVTG,,T,,M,0.076,N,0.141,K,A*38
$SMGPS,-0.0 m,-0.02 m/s,5.17 VRx,0.000 km,2 m,35.8 °,1:-- ( 21.5 km/h)*DD
$SMGPS2,-0.16 X,+0.62 Y,+0.72 Z,3 ENL,0 us*48
$GNRMC,152127.00,A,4816.07140,N,01139.77864,E,0.07,,080522,,,A*5F
$GNGGA,152127.00,4816.07140,N,01139.77864,E,1,11,1.01,473.7,M,46.2,M,,*4E
$GNGSA,A,3,10,21,27,16,08,23,,,,,,,2.08,1.01,1.82*14
$GNVTG,,T,,M,0.065,N,0.121,K,A*3C
$SMGPS,0.0 m,+0.00 m/s,5.17 VRx,0.000 km,2 m,35.8 °,1:-- ( 21.5 km/h)*F4
$SMGPS2,-0.17 X,+0.63 Y,+0.72 Z,3 ENL,0 us*48
$GNRMC,152127.10,A,4816.07141,N,01139.77865,E,0.04,,080522,,,A*5D
$GNGGA,152127.10,4816.07141,N,01139.77865,E,1,11,1.01,473.6,M,46.2,M,,*4E
$GNGSA,A,3,10,21,27,16,08,23,,,,,,,2.08,1.01,1.82*14
$GNVTG,,T,,M,0.040,N,0.074,K,A*3A
$SMGPS,-0.1 m,+0.03 m/s,5.17 VRx,0.000 km,2 m,35.8 °,1:-- ( 21.5 km/h)*DB
$SMGPS2,-0.16 X,+0.62 Y,+0.73 Z,3 ENL,0 us*49
$GNRMC,152127.20,A,4816.07141,N,01139.77865,E,0.10,,080522,,,A*5B
$GNGGA,152127.20,4816.07141,N,01139.77865,E,1,11,1.01,473.7,M,46.2,M,,*4C
$GNGSA,A,3,10,21,27,16,08,23,,,,,,,2.08,1.01,1.82*14
$GNVTG,,T,,M,0.095,N,0.176,K,A*31
$SMGPS,-0.0 m,+0.06 m/s,5.17 VRx,0.000 km,2 m,35.8 °,1:-- ( 21.5 km/h)*DF
$SMGPS2,-0.16 X,+0.62 Y,+0.73 Z,3 ENL,0 us*49
$GNRMC,152127.30,A,4816.07142,N,01139.77865,E,0.07,,080522,,,A*5F
$GNGGA,152127.30,4816.07142,N,01139.77865,E,1,11,1.01,473.7,M,46.2,M,,*4E
$GNGSA,A,3,10,21,27,16,08,23,,,,,,,2.08,1.01,1.82*14
$GNVTG,,T,,M,0.071,N,0.132,K,A*3B
$SMGPS,-0.0 m,+0.07 m/s,5.17 VRx,0.000 km,2 m,35.8 °,1:-- ( 21.5 km/h)*DE
$SMGPS2,-0.16 X,+0.62 Y,+0.72 Z,3 ENL,0 us*48
$GNRMC,152127.40,A,4816.07143,N,01139.77866,E,0.10,,080522,,,A*5C
$GNGGA,152127.40,4816.07143,N,01139.77866,E,1,11,1.01,473.7,M,46.2,M,,*4B
$GNGSA,A,3,10,21,27,16,08,23,,,,,,,2.08,1.01,1.82*14
$GNVTG,,T,,M,0.100,N,0.184,K,A*31
$SMGPS,-0.0 m,+0.05 m/s,5.17 VRx,0.000 km,2 m,35.8 °,1:-- ( 21.5 km/h)*DC
$SMGPS2,-0.16 X,+0.62 Y,+0.72 Z,4 ENL,0 us*4F
$GNRMC,152127.50,A,4816.07143,N,01139.77867,E,0.05,,080522,,,A*58
$GNGGA,152127.50,4816.07143,N,01139.77867,E,1,11,1.01,473.7,M,46.2,M,,*4B
$GNGSA,A,3,10,21,27,16,08,23,,,,,,,2.08,1.01,1.82*14
$GNVTG,,T,,M,0.048,N,0.088,K,A*31
$SMGPS,-0.0 m,+0.04 m/s,5.17 VRx,0.000 km,2 m,35.8 °,1:-- ( 21.5 km/h)*DD
$SMGPS2,-0.17 X,+0.62 Y,+0.72 Z,2 ENL,0 us*48
$GNRMC,152127.60,A,4816.07144,N,01139.77867,E,0.16,,080522,,,A*5E
$GNGGA,152127.60,4816.07144,N,01139.77867,E,1,11,1.01,473.7,M,46.2,M,,*4F
$GNGSA,A,3,10,21,27,16,08,23,,,,,,,2.08,1.01,1.82*14
$GNVTG,,T,,M,0.152,N,0.281,K,A*30
$SMGPS,-0.0 m,+0.02 m/s,5.17 VRx,0.000 km,2 m,35.8 °,1:-- ( 21.5 km/h)*DB
$SMGPS2,-0.17 X,+0.62 Y,+0.72 Z,3 ENL,0 us*49
$GNRMC,152127.70,A,4816.07144,N,01139.77867,E,0.07,,080522,,,A*5F
$GNGGA,152127.70,4816.07144,N,01139.77867,E,1,11,1.01,473.7,M,46.2,M,,*4E
$GNGSA,A,3,10,21,27,16,08,23,,,,,,,2.08,1.01,1.82*14
$GNVTG,,T,,M,0.058,N,0.107,K,A*36
$SMGPS,-0.0 m,+0.02 m/s,5.17 VRx,0.000 km,2 m,35.8 °,1:-- ( 21.5 km/h)*DB
$SMGPS2,-0.17 X,+0.62 Y,+0.72 Z,4 ENL,0 us*4E
$GNRMC,152127.80,A,4816.07145,N,01139.77868,E,0.08,,080522,,,A*51
$GNGGA,152127.80,4816.07145,N,01139.77868,E,1,11,1.01,473.7,M,46.2,M,,*4F
$GNGSA,A,3,10,21,27,16,08,23,,,,,,,2.08,1.01,1.82*14
$GNVTG,,T,,M,0.073,N,0.135,K,A*3E
$SMGPS,-0.0 m,+0.00 m/s,5.17 VRx,0.000 km,2 m,35.8 °,1:-- ( 21.5 km/h)*D9
$SMGPS2,-0.17 X,+0.62 Y,+0.72 Z,3 ENL,0 us*49
$GNRMC,152127.90,A,4816.07145,N,01139.77868,E,0.09,,080522,,,A*51
$GNGGA,152127.90,4816.07145,N,01139.77868,E,1,11,1.01,473.7,M,46.2,M,,*4E
$GNGSA,A,3,10,21,27,16,08,23,,,,,,,2.08,1.01,1.82*14
$GNVTG,,T,,M,0.084,N,0.155,K,A*30
$SMGPS,0.0 m,-0.01 m/s,5.17 VRx,0.000 km,2 m,35.8 °,1:-- ( 21.5 km/h)*F3
$SMGPS2,-0.17 X,+0.62 Y,+0.72 Z,3 ENL,0 us*49
$GNRMC,152128.00,A,4816.07146,N,01139.77869,E,0.10,,080522,,,A*5D
$GNGGA,152128.00,4816.07146,N,01139.77869,E,1,11,1.01,473.7,M,46.2,M,,*4A
$GNGSA,A,3,10,21,27,16,08,23,,,,,,,2.08,1.01,1.82*14
$GNVTG,,T,,M,0.085,N,0.157,K,A*33
$SMGPS,-0.0 m,-0.02 m/s,5.17 VRx,0.000 km,2 m,35.8 °,1:-- ( 21.5 km/h)*DD
$SMGPS2,-0.17 X,+0.62 Y,+0.72 Z,4 ENL,0 us*4E
$GNRMC,152128.10,A,4816.07146,N,01139.77870,E,0.11,,080522,,,A*55
$GNGGA,152128.10,4816.07146,N,01139.77870,E,1,11,1.01,473.7,M,46.2,M,,*43
$GNGSA,A,3,10,21,27,16,08,23,,,,,,,2.08,1.01,1.82*14
$GNVTG,,T,,M,0.098,N,0.182,K,A*37
$SMGPS,-0.0 m,+0.00 m/s,5.17 VRx,0.000 km,2 m,35.8 °,1:-- ( 21.5 km/h)*D9
$SMGPS2,-0.16 X,+0.61 Y,+0.72 Z,4 ENL,0 us*4C
$GNRMC,152128.20,A,4816.07147,N,01139.77870,E,0.14,,080522,,,A*52
$GNGGA,152128.20,4816.07147,N,01139.77870,E,1,11,1.01,473.7,M,46.2,M,,*41
$GNGSA,A,3,10,21,27,16,08,23,,,,,,,2.08,1.01,1.82*14
$GNVTG,,T,,M,0.135,N,0.250,K,A*3D
$SMGPS,0.0 m,+0.03 m/s,5.17 VRx,0.000 km,2 m,35.8 °,1:-- ( 21.5 km/h)*F7
$SMGPS2,-0.17 X,+0.62 Y,+0.74 Z,3 ENL,0 us*4F
$GNRMC,152128.30,A,4816.07147,N,01139.77870,E,0.07,,080522,,,A*51
$GNGGA,152128.30,4816.07147,N,01139.77870,E,1,11,1.01,473.7,M,46.2,M,,*40
$GNGSA,A,3,10,21,27,16,08,23,,,,,,,2.08,1.01,1.82*14
$GNVTG,,T,,M,0.052,N,0.095,K,A*36
$SMGPS,0.0 m,+0.01 m/s,5.17 VRx,0.000 km,2 m,35.8 °,1:-- ( 21.5 km/h)*F5
$SMGPS2,-0.17 X,+0.62 Y,+0.72 Z,3 ENL,0 us*49
$GNRMC,152128.40,A,4816.07148,N,01139.77870,E,0.14,,080522,,,A*5B
$GNGGA,152128.40,4816.07148,N,01139.77870,E,1,11,1.01,473.7,M,46.2,M,,*48
$GNGSA,A,3,10,21,27,16,08,23,,,,,,,2.08,1.01,1.82*14
$GNVTG,,T,,M,0.136,N,0.252,K,A*3C
$SMGPS,-0.0 m,+0.00 m/s,5.17 VRx,0.000 km,2 m,35.8 °,1:-- ( 21.5 km/h)*D9
$SMGPS2,-0.16 X,+0.62 Y,+0.73 Z,2 ENL,0 us*48
$GNRMC,152128.50,A,4816.07148,N,01139.77871,E,0.04,,080522,,,A*5A
$GNGGA,152128.50,4816.07148,N,01139.77871,E,1,11,1.01,473.7,M,46.2,M,,*48
$GNGSA,A,3,10,21,27,16,08,23,,,,,,,2.08,1.01,1.82*14
$GNVTG,,T,,M,0.012,N,0.022,K,A*3E
$SMGPS,0.0 m,-0.02 m/s,5.17 VRx,0.000 km,2 m,35.8 °,1:-- ( 21.5 km/h)*F0
$SMGPS2,-0.17 X,+0.62 Y,+0.72 Z,2 ENL,0 us*48
$GNRMC,152128.60,A,4816.07149,N,01139.77871,E,0.10,,080522,,,A*5D
$GNGGA,152128.60,4816.07149,N,01139.77871,E,1,11,1.01,473.7,M,46.2,M,,*4A
$GNGSA,A,3,10,21,27,16,08,23,,,,,,,2.08,1.01,1.82*14
$GNVTG,,T,,M,0.097,N,0.179,K,A*3C
$SMGPS,0.0 m,-0.05 m/s,5.17 VRx,0.000 km,2 m,35.8 °,1:-- ( 21.5 km/h)*F7
$SMGPS2,-0.16 X,+0.63 Y,+0.72 Z,4 ENL,0 us*4E
$GNRMC,152128.70,A,4816.07149,N,01139.77872,E,0.09,,080522,,,A*57
$GNGGA,152128.70,4816.07149,N,01139.77872,E,1,11,1.01,473.7,M,46.2,M,,*48
$GNGSA,A,3,10,21,27,16,08,23,,,,,,,2.08,1.01,1.82*14
$GNVTG,,T,,M,0.085,N,0.158,K,A*3C
$SMGPS,-0.0 m,-0.04 m/s,5.17 VRx,0.000 km,2 m,35.8 °,1:-- ( 21.5 km/h)*DB
$SMGPS2,-0.16 X,+0.62 Y,+0.72 Z,4 ENL,0 us*4F
$GNRMC,152128.80,A,4816.07149,N,01139.77873,E,0.07,,080522,,,A*57
$GNGGA,152128.80,4816.07149,N,01139.77873,E,1,11,1.01,473.7,M,46.2,M,,*46
$GNGSA,A,3,10,21,27,16,08,23,,,,,,,2.08,1.01,1.82*14
$GNVTG,,T,,M,0.068,N,0.125,K,A*35
$SMGPS,-0.0 m,-0.06 m/s,5.17 VRx,0.000 km,2 m,35.8 °,1:-- ( 21.5 km/h)*D9
$SMGPS2,-0.17 X,+0.62 Y,+0.72 Z,3 ENL,0 us*49
$GNRMC,152128.90,A,4816.07150,N,01139.77873,E,0.03,,080522,,,A*5A
$GNGGA,152128.90,4816.07150,N,01139.77873,E,1,11,1.01,473.7,M,46.2,M,,*4F
$GNGSA,A,3,10,21,27,16,08,23,,,,,,,2.08,1.01,1.82*14
$GNVTG,,T,,M,0.013,N,0.025,K,A*38
$SMGPS,0.0 m,-0.08 m/s,5.17 VRx,0.000 km,2 m,35.8 °,1:-- ( 21.5 km/h)*FA
$SMGPS2,-0.17 X,+0.62 Y,+0.72 Z,2 ENL,0 us*48
$GNRMC,152129.00,A,4816.07150,N,01139.77874,E,0.13,,080522,,,A*54
$GNGGA,152129.00,4816.07150,N,01139.77874,E,1,11,1.01,473.7,M,46.2,M,,*40
$GNGSA,A,3,10,21,27,16,08,23,,,,,,,2.08,1.01,1.82*14
$GNVTG,,T,,M,0.127,N,0.236,K,A*3E
$SMGPS,0.0 m,-0.07 m/s,5.17 VRx,0.000 km,2 m,35.8 °,1:-- ( 21.5 km/h)*F5
$SMGPS2,-0.16 X,+0.62 Y,+0.72 Z,2 ENL,0 us*49
$GNRMC,152129.10,A,4816.07151,N,01139.77874,E,0.06,,080522,,,A*50
$GNGGA,152129.10,4816.07151,N,01139.77874,E,1,11,1.01,473.7,M,46.2,M,,*40
$GNGSA,A,3,10,21,27,16,08,23,,,,,,,2.08,1.01,1.82*14
$GNVTG,,T,,M,0.056,N,0.103,K,A*3C
$SMGPS,0.0 m,-0.06 m/s,5.17 VRx,0.000 km,2 m,35.8 °,1:-- ( 21.5 km/h)*F4
$SMGPS2,-0.17 X,+0.61 Y,+0.72 Z,5 ENL,0 us*4C
$GNRMC,152129.20,A,4816.07151,N,01139.77874,E,0.08,,080522,,,A*5D
$GNGGA,152129.20,4816.07151,N,01139.77874,E,1,11,1.01,473.7,M,46.2,M,,*43
$GNGSA,A,3,10,21,27,16,08,23,,,,,,,2.08,1.01,1.82*14
$GNVTG,,T,,M,0.067,N,0.125,K,A*3A
$SMGPS,-0.0 m,-0.04 m/s,5.17 VRx,0.000 km,2 m,35.8 °,1:-- ( 21.5 km/h)*DB
$SMGPS2,-0.17 X,+0.62 Y,+0.72 Z,2 ENL,0 us*48
$GNRMC,152129.30,A,4816.07151,N,01139.77875,E,0.11,,080522,,,A*55
$GNGGA,152129.30,4816.07151,N,01139.77875,E,1,11,1.01,473.7,M,46.2,M,,*43
$GNGSA,A,3,10,21,27,16,08,23,,,,,,,2.08,1.01,1.82*14
$GNVTG,,T,,M,0.107,N,0.198,K,A*3B
$SMGPS,-0.0 m,-0.03 m/s,5.17 VRx,0.000 km,2 m,35.8 °,1:-- ( 21.5 km/h)*DC
$SMGPS2,-0.16 X,+0.62 Y,+0.72 Z,4 ENL,0 us*4F
$GNRMC,152129.40,A,4816.07151,N,01139.77875,E,0.11,,080522,,,A*52
$GNGGA,152129.40,4816.07151,N,01139.77875,E,1,11,1.01,473.7,M,46.2,M,,*44
$GNGSA,A,3,10,21,27,16,08,23,,,,,,,2.08,1.01,1.82*14
$GNVTG,,T,,M,0.104,N,0.192,K,A*32
$SMGPS,-0.0 m,-0.05 m/s,5.17 VRx,0.000 km,2 m,39.8 °,1:-- ( 21.5 km/h)*D6
$SMGPS2,-0.16 X,+0.62 Y,+0.73 Z,3 ENL,0 us*49
$GNRMC,152129.50,A,4816.07152,N,01139.77876,E,0.09,,080522,,,A*5A
$GNGGA,152129.50,4816.07152,N,01139.77876,E,1,11,1.01,473.7,M,46.2,M,,*45
$GNGSA,A,3,10,21,27,16,08,23,,,,,,,2.08,1.01,1.82*14
$GNVTG,,T,,M,0.083,N,0.154,K,A*36
$SMGPS,0.0 m,-0.03 m/s,5.17 VRx,0.000 km,2 m,39.8 °,1:-- ( 21.5 km/h)*FD
$SMGPS2,-0.17 X,+0.62 Y,+0.78 Z,3 ENL,0 us*43
$GNRMC,152129.60,A,4816.07152,N,01139.77876,E,0.17,,080522,,,A*56
$GNGGA,152129.60,4816.07152,N,01139.77876,E,1,11,1.01,473.7,M,46.2,M,,*46
$GNGSA,A,3,10,21,27,16,08,23,,,,,,,2.08,1.01,1.82*14
$GNVTG,,T,,M,0.162,N,0.299,K,A*3A
$SMGPS,-0.0 m,-0.04 m/s,5.17 VRx,0.000 km,2 m,39.8 °,1:-- ( 21.5 km/h)*D7
$SMGPS2,-0.16 X,+0.62 Y,+0.73 Z,2 ENL,0 us*48
$GNRMC,152129.70,A,4816.07152,N,01139.77876,E,0.09,,080522,,,A*58
$GNGGA,152129.70,4816.07152,N,01139.77876,E,1,11,1.01,473.7,M,46.2,M,,*47
$GNGSA,A,3,10,21,27,16,08,23,,,,,,,2.08,1.01,1.82*14
$GNVTG,,T,,M,0.084,N,0.156,K,A*33
$SMGPS,-0.0 m,-0.05 m/s,5.17 VRx,0.000 km,2 m,39.8 °,1:-- ( 21.5 km/h)*D6
$SMGPS2,-0.16 X,+0.62 Y,+0.72 Z,2 ENL,0 us*49
$GNRMC,152129.80,A,4816.07152,N,01139.77877,E,0.06,,080522,,,A*59
$GNGGA,152129.80,4816.07152,N,01139.77877,E,1,11,1.01,473.7,M,46.2,M,,*49
$GNGSA,A,3,10,21,27,16,08,23,,,,,,,2.08,1.01,1.82*14
$GNVTG,,T,,M,0.040,N,0.074,K,A*3A
$SMGPS,-0.0 m,-0.07 m/s,5.17 VRx,0.000 km,2 m,39.8 °,1:-- ( 21.5 km/h)*D4
$SMGPS2,-0.17 X,+0.62 Y,+0.72 Z,3 ENL,0 us*49
$GNRMC,152129.90,A,4816.07153,N,01139.77877,E,0.05,,080522,,,A*5A
$GNGGA,152129.90,4816.07153,N,01139.77877,E,1,11,1.01,473.7,M,46.2,M,,*49
$GNGSA,A,3,10,21,27,16,08,23,,,,,,,2.08,1.01,1.82*14
$GNVTG,,T,,M,0.033,N,0.061,K,A*3A
$SMGPS,-0.0 m,-0.08 m/s,5.17 VRx,0.000 km,2 m,39.8 °,1:-- ( 21.5 km/h)*DB
$SMGPS2,-0.17 X,+0.62 Y,+0.73 Z,2 ENL,0 us*49
$GNRMC,152130.00,A,4816.07153,N,01139.77878,E,0.07,,080522,,,A*56
$GNGGA,152130.00,4816.07153,N,01139.77878,E,1,11,1.01,473.7,M,46.2,M,,*47
$GNGSA,A,3,10,21,27,16,08,23,,,,,,,2.08,1.01,1.82*14
$GNVTG,,T,,M,0.057,N,0.106,K,A*38
$SMGPS,-0.0 m,-0.08 m/s,5.17 VRx,0.000 km,2 m,39.8 °,1:-- ( 21.5 km/h)*DB
$SMGPS2,-0.16 X,+0.62 Y,+0.72 Z,3 ENL,0 us*48
$GNRMC,152130.10,A,4816.07153,N,01139.77878,E,0.06,,080522,,,A*56
$GNGGA,152130.10,4816.07153,N,01139.77878,E,1,12,0.97,473.7,M,46.2,M,,*4B
$GNGSA,A,3,10,21,27,16,08,23,01,,,,,,1.79,0.97,1.51*10
$GNVTG,,T,,M,0.050,N,0.092,K,A*33
$SMGPS,-0.0 m,-0.07 m/s,5.17 VRx,0.000 km,2 m,39.8 °,1:-- ( 21.5 km/h)*D4
$SMGPS2,-0.16 X,+0.61 Y,+0.72 Z,3 ENL,0 us*4B
$GNRMC,152130.20,A,4816.07154,N,01139.77879,E,0.09,,080522,,,A*5C
$GNGGA,152130.20,4816.07154,N,01139.77879,E,1,12,0.97,473.7,M,46.2,M,,*4E
$GNGSA,A,3,10,21,27,16,08,23,01,,,,,,1.79,0.97,1.51*10
$GNVTG,,T,,M,0.076,N,0.141,K,A*38
$SMGPS,-0.0 m,-0.08 m/s,5.17 VRx,0.000 km,2 m,39.8 °,1:-- ( 21.5 km/h)*DB
$SMGPS2,-0.17 X,+0.62 Y,+0.72 Z,3 ENL,0 us*49
$GNRMC,152130.30,A,4816.07154,N,01139.77879,E,0.15,,080522,,,A*50
$GNGGA,152130.30,4816.07154,N,01139.77879,E,1,12,0.97,473.6,M,46.2,M,,*4E
$GNGSA,A,3,10,21,27,16,08,23,01,,,,,,1.79,0.97,1.51*10
$GNVTG,,T,,M,0.141,N,0.262,K,A*3F
$SMGPS,-0.1 m,-0.08 m/s,5.17 VRx,0.000 km,2 m,26.5 °,1:-- ( 21.5 km/h)*D9
$SMGPS2,-0.17 X,+0.62 Y,+0.72 Z,3 ENL,0 us*49
$GNRMC,152130.40,A,4816.07154,N,01139.77880,E,0.06,,080522,,,A*53
$GNGGA,152130.40,4816.07154,N,01139.77880,E,1,12,0.97,473.7,M,46.2,M,,*4E
$GNGSA,A,3,10,21,27,16,08,23,01,,,,,,1.79,0.97,1.51*10
$GNVTG,,T,,M,0.051,N,0.094,K,A*34
$SMGPS,-0.0 m,-0.04 m/s,5.17 VRx,0.000 km,2 m,26.5 °,1:-- ( 21.5 km/h)*D4
$SMGPS2,-0.17 X,+0.63 Y,+0.72 Z,3 ENL,0 us*48
$GNRMC,152130.50,A,4816.07155,N,01139.77880,E,0.09,,080522,,,A*5C
$GNGGA,152130.50,4816.07155,N,01139.77880,E,1,12,0.97,473.7,M,46.2,M,,*4E
$GNGSA,A,3,10,21,27,16,08,23,01,,,,,,1.79,0.97,1.51*10
$GNVTG,,T,,M,0.078,N,0.144,K,A*33
$SMGPS,0.0 m,-0.02 m/s,5.17 VRx,0.000 km,2 m,26.5 °,1:-- ( 21.5 km/h)*FF
$SMGPS2,-0.17 X,+0.62 Y,+0.72 Z,3 ENL,0 us*49
$GNRMC,152130.60,A,4816.07155,N,01139.77880,E,0.08,,080522,,,A*5E
$GNGGA,152130.60,4816.07155,N,01139.77880,E,1,12,0.97,473.7,M,46.2,M,,*4D
$GNGSA,A,3,10,21,27,16,08,23,01,,,,,,1.79,0.97,1.51*10
$GNVTG,,T,,M,0.067,N,0.124,K,A*3B
$SMGPS,-0.0 m,-0.01 m/s,5.17 VRx,0.000 km,2 m,26.5 °,1:-- ( 21.5 km/h)*D1
$SMGPS2,-0.17 X,+0.62 Y,+0.72 Z,3 ENL,0 us*49
$GNRMC,152130.70,A,4816.07155,N,01139.77881,E,0.06,,080522,,,A*50
$GNGGA,152130.70,4816.07155,N,01139.77881,E,1,12,0.97,473.7,M,46.2,M,,*4D
$GNGSA,A,3,10,21,27,16,08,23,01,,,,,,1.79,0.97,1.51*10
$GNVTG,,T,,M,0.044,N,0.082,K,A*37
$SMGPS,-0.0 m,+0.01 m/s,5.17 VRx,0.000 km,2 m,26.5 °,1:-- ( 21.5 km/h)*D7
$SMGPS2,-0.17 X,+0.62 Y,+0.72 Z,4 ENL,0 us*4E
$GNRMC,152130.80,A,4816.07155,N,01139.77881,E,0.12,,080522,,,A*5A
$GNGGA,152130.80,4816.07155,N,01139.77881,E,1,12,0.97,473.7,M,46.2,M,,*42
$GNGSA,A,3,10,21,27,16,08,23,01,,,,,,1.79,0.97,1.51*10
$GNVTG,,T,,M,0.109,N,0.202,K,A*35
$SMGPS,0.0 m,+0.02 m/s,5.17 VRx,0.000 km,2 m,26.5 °,1:-- ( 21.5 km/h)*F9
$SMGPS2,-0.17 X,+0.62 Y,+0.73 Z,3 ENL,0 us*48
$GNRMC,152130.90,A,4816.07155,N,01139.77881,E,0.13,,080522,,,A*5A
$GNGGA,152130.90,4816.07155,N,01139.77881,E,1,12,0.97,473.7,M,46.2,M,,*43
$GNGSA,A,3,10,21,27,16,08,23,01,,,,,,1.79,0.97,1.51*10
$GNVTG,,T,,M,0.127,N,0.235,K,A*3D
$SMGPS,-0.0 m,+0.04 m/s,5.17 VRx,0.000 km,2 m,26.5 °,1:-- ( 21.5 km/h)*D2
$SMGPS2,-0.16 X,+0.63 Y,+0.73 Z,3 ENL,0 us*48
$GNRMC,152131.00,A,4816.07155,N,01139.77882,E,0.07,,080522,,,A*54
$GNGGA,152131.00,4816.07155,N,01139.77882,E,1,12,0.97,473.7,M,46.2,M,,*48
$GNGSA,A,3,10,21,27,16,08,23,01,,,,,,1.79,0.97,1.51*10
$GNVTG,,T,,M,0.064,N,0.119,K,A*36
$SMGPS,-0.0 m,+0.04 m/s,5.17 VRx,0.000 km,2 m,26.5 °,1:-- ( 21.5 km/h)*D2
$SMGPS2,-0.17 X,+0.61 Y,+0.72 Z,3 ENL,0 us*4A
$GNRMC,152131.10,A,4816.07155,N,01139.77883,E,0.21,,080522,,,A*50
$GNGGA,152131.10,4816.07155,N,01139.77883,E,1,12,0.97,473.7,M,46.2,M,,*48
$GNGSA,A,3,10,21,27,16,08,23,01,,,,,,1.79,0.97,1.51*10
$GNVTG,,T,,M,0.207,N,0.382,K,A*31
$SMGPS,0.0 m,+0.04 m/s,5.17 VRx,0.000 km,2 m,26.5 °,1:-- ( 21.5 km/h)*FF
$SMGPS2,-0.17 X,+0.62 Y,+0.72 Z,3 ENL,0 us*49
$GNRMC,152131.20,A,4816.07155,N,01139.77883,E,0.06,,080522,,,A*56
$GNGGA,152131.20,4816.07155,N,01139.77883,E,1,12,0.97,473.7,M,46.2,M,,*4B
$GNGSA,A,3,10,21,27,16,08,23,01,,,,,,1.79,0.97,1.51*10
$GNVTG,,T,,M,0.054,N,0.099,K,A*3C
$SMGPS,-0.0 m,+0.04 m/s,5.17 VRx,0.000 km,2 m,26.5 °,1:-- ( 21.5 km/h)*D2
$SMGPS2,-0.16 X,+0.62 Y,+0.71 Z,3 ENL,0 us*4B
$GNRMC,152131.30,A,4816.07156,N,01139.77884,E,0.03,,080522,,,A*56
$GNGGA,152131.30,4816.07156,N,01139.77884,E,1,12,0.97,473.7,M,46.2,M,,*4E
$GNGSA,A,3,10,21,27,16,08,23,01,,,,,,1.79,0.97,1.51*10
$GNVTG,,T,,M,0.020,N,0.037,K,A*3B
$SMGPS,-0.0 m,+0.06 m/s,5.17 VRx,0.000 km,2 m,26.5 °,1:-- ( 21.5 km/h)*D0
$SMGPS2,-0.16 X,+0.62 Y,+0.72 Z,3 ENL,0 us*48
$GNRMC,152131.40,A,4816.07156,N,01139.77884,E,0.13,,080522,,,A*50
$GNGGA,152131.40,4816.07156,N,01139.77884,E,1,12,0.97,473.7,M,46.2,M,,*49
$GNGSA,A,3,10,21,27,16,08,23,01,,,,,,1.79,0.97,1.51*10
$GNVTG,,T,,M,0.130,N,0.240,K,A*39
$SMGPS,-0.0 m,+0.05 m/s,5.17 VRx,0.000 km,2 m,26.5 °,1:-- ( 21.5 km/h)*D3
$SMGPS2,-0.16 X,+0.62 Y,+0.72 Z,4 ENL,0 us*4F
$GNRMC,152131.50,A,4816.07156,N,01139.77885,E,0.05,,080522,,,A*57
$GNGGA,152131.50,4816.07156,N,01139.77885,E,1,12,0.97,473.7,M,46.2,M,,*49
$GNGSA,A,3,10,21,27,16,08,23,01,,,,,,1.79,0.97,1.51*10
$GNVTG,,T,,M,0.045,N,0.084,K,A*30
$SMGPS,-0.0 m,+0.05 m/s,5.17 VRx,0.000 km,2 m,26.5 °,1:-- ( 21.5 km/h)*D3
$SMGPS2,-0.16 X,+0.63 Y,+0.72 Z,3 ENL,0 us*49
$GNRMC,152131.60,A,4816.07156,N,01139.77885,E,0.07,,080522,,,A*56
$GNGGA,152131.60,4816.07156,N,01139.77885,E,1,12,0.97,473.7,M,46.2,M,,*4A
$GNGSA,A,3,10,21,27,16,08,23,01,,,,,,1.79,0.97,1.51*10
$GNVTG,,T,,M,0.065,N,0.120,K,A*3D
$SMGPS,-0.0 m,+0.03 m/s,5.17 VRx,0.000 km,2 m,26.5 °,1:-- ( 21.5 km/h)*D5
$SMGPS2,-0.17 X,+0.62 Y,+0.72 Z,2 ENL,0 us*48
$GNRMC,152131.70,A,4816.07156,N,01139.77886,E,0.04,,080522,,,A*57
$GNGGA,152131.70,4816.07156,N,01139.77886,E,1,12,0.97,473.7,M,46.2,M,,*48
$GNGSA,A,3,10,21,27,16,08,23,01,,,,,,1.79,0.97,1.51*10
$GNVTG,,T,,M,0.026,N,0.048,K,A*35
$SMGPS,-0.0 m,+0.05 m/s,5.17 VRx,0.000 km,2 m,26.5 °,1:-- ( 21.5 km/h)*D3
$SMGPS2,-0.17 X,+0.62 Y,+0.73 Z,4 ENL,0 us*4F
$GNRMC,152131.80,A,4816.07156,N,01139.77886,E,0.07,,080522,,,A*5B
$GNGGA,152131.80,4816.07156,N,01139.77886,E,1,12,0.97,473.7,M,46.2,M,,*47
$GNGSA,A,3,10,21,27,16,08,23,01,,,,,,1.79,0.97,1.51*10
$GNVTG,,T,,M,0.062,N,0.115,K,A*3C
$SMGPS,0.0 m,+0.05 m/s,5.17 VRx,0.000 km,2 m,26.5 °,1:-- ( 21.5 km/h)*FE
$SMGPS2,-0.16 X,+0.62 Y,+0.72 Z,5 ENL,0 us*4E
$GNRMC,152131.90,A,4816.07157,N,01139.77887,E,0.09,,080522,,,A*54
$GNGGA,152131.90,4816.07157,N,01139.77887,E,1,12,0.97,473.7,M,46.2,M,,*46
$GNGSA,A,3,10,21,27,16,08,23,01,,,,,,1.79,0.97,1.51*10
$GNVTG,,T,,M,0.076,N,0.140,K,A*39
$SMGPS,-0.0 m,+0.05 m/s,5.17 VRx,0.000 km,2 m,26.5 °,1:-- ( 21.5 km/h)*D3
$SMGPS2,-0.17 X,+0.62 Y,+0.73 Z,4 ENL,0 us*4F
$GNRMC,152132.00,A,4816.07157,N,01139.77887,E,0.06,,080522,,,A*51
$GNGGA,152132.00,4816.07157,N,01139.77887,E,1,12,0.97,473.7,M,46.2,M,,*4C
$GNGSA,A,3,10,21,27,16,08,23,01,,,,,,1.79,0.97,1.51*10
$GNVTG,,T,,M,0.051,N,0.095,K,A*35
$SMGPS,-0.0 m,+0.04 m/s,5.17 VRx,0.000 km,2 m,29.5 °,1:-- ( 21.5 km/h)*DD
$SMGPS2,-0.17 X,+0.62 Y,+0.73 Z,4 ENL,0 us*4F
$GNRMC,152132.10,A,4816.07157,N,01139.77887,E,0.10,,080522,,,A*57
$GNGGA,152132.10,4816.07157,N,01139.77887,E,1,12,0.97,473.7,M,46.2,M,,*4D
$GNGSA,A,3,10,21,27,16,08,23,01,,,,,,1.79,0.97,1.51*10
$GNVTG,,T,,M,0.088,N,0.163,K,A*39
$SMGPS,-0.0 m,+0.03 m/s,5.17 VRx,0.000 km,2 m,29.5 °,1:-- ( 21.5 km/h)*DA
$SMGPS2,-0.17 X,+0.62 Y,+0.72 Z,3 ENL,0 us*49
$GNRMC,152132.20,A,4816.07157,N,01139.77888,E,0.13,,080522,,,A*58
$GNGGA,152132.20,4816.07157,N,01139.77888,E,1,12,0.97,473.6,M,46.2,M,,*40
$GNGSA,A,3,10,21,27,16,08,23,01,,,,,,1.79,0.97,1.51*10
$GNVTG,,T,,M,0.121,N,0.224,K,A*3B
$SMGPS,-0.1 m,+0.02 m/s,5.17 VRx,0.000 km,2 m,29.5 °,1:-- ( 21.5 km/h)*DA
$SMGPS2,-0.16 X,+0.62 Y,+0.72 Z,3 ENL,0 us*48
$GNRMC,152132.30,A,4816.07158,N,01139.77888,E,0.07,,080522,,,A*53
$GNGGA,152132.30,4816.07158,N,01139.77888,E,1,12,0.97,473.7,M,46.2,M,,*4F
$GNGSA,A,3,10,21,27,16,08,23,01,,,,,,1.79,0.97,1.51*10
$GNVTG,,T,,M,0.048,N,0.089,K,A*30
$SMGPS,0.0 m,+0.02 m/s,5.17 VRx,0.000 km,2 m,29.5 °,1:-- ( 21.5 km/h)*F6
$SMGPS2,-0.17 X,+0.62 Y,+0.72 Z,3 ENL,0 us*49
$GNRMC,152132.40,A,4816.07157,N,01139.77889,E,0.14,,080522,,,A*58
$GNGGA,152132.40,4816.07157,N,01139.77889,E,1,12,0.97,473.7,M,46.2,M,,*46
$GNGSA,A,3,10,21,27,16,08,23,01,,,,,,1.79,0.97,1.51*10
$GNVTG,,T,,M,0.137,N,0.254,K,A*3B
$SMGPS,0.0 m,+0.01 m/s,5.17 VRx,0.000 km,2 m,29.5 °,1:-- ( 21.5 km/h)*F5
$SMGPS2,-0.16 X,+0.62 Y,+0.72 Z,3 ENL,0 us*48
$GNRMC,152132.50,A,4816.07158,N,01139.77889,E,0.10,,080522,,,A*52
$GNGGA,152132.50,4816.07158,N,01139.77889,E,1,12,0.97,473.6,M,46.2,M,,*49
$GNGSA,A,3,10,21,27,16,08,23,01,,,,,,1.79,0.97,1.51*10
$GNVTG,,T,,M,0.091,N,0.169,K,A*3B
$SMGPS,-0.1 m,-0.01 m/s,5.17 VRx,0.000 km,2 m,29.5 °,1:-- ( 21.5 km/h)*DF
$SMGPS2,-0.17 X,+0.62 Y,+0.72 Z,4 ENL,0 us*4E
$GNRMC,152132.60,A,4816.07158,N,01139.77889,E,0.07,,080522,,,A*57
$GNGGA,152132.60,4816.07158,N,01139.77889,E,1,12,0.97,473.7,M,46.2,M,,*4B
$GNGSA,A,3,10,21,27,16,08,23,01,,,,,,1.79,0.97,1.51*10
$GNVTG,,T,,M,0.054,N,0.099,K,A*3C
$SMGPS,0.0 m,-0.02 m/s,5.17 VRx,0.000 km,2 m,29.5 °,1:-- ( 21.5 km/h)*F0
$SMGPS2,-0.16 X,+0.62 Y,+0.72 Z,3 ENL,0 us*48
$GNRMC,152132.70,A,4816.07158,N,01139.77890,E,0.13,,080522,,,A*5B
$GNGGA,152132.70,4816.07158,N,01139.77890,E,1,12,0.97,473.7,M,46.2,M,,*42
$GNGSA,A,3,88,87,65,72,78,,,,,,,,1.79,0.97,1.51*1E
$GNVTG,,T,,M,0.124,N,0.230,K,A*3B
$SMGPS,0.0 m,-0.05 m/s,5.17 VRx,0.000 km,2 m,29.5 °,1:-- ( 21.5 km/h)*F7
$SMGPS2,-0.17 X,+0.62 Y,+0.73 Z,2 ENL,0 us*49
$GNRMC,152132.80,A,4816.07158,N,01139.77890,E,0.08,,080522,,,A*5E
$GNGGA,152132.80,4816.07158,N,01139.77890,E,1,12,0.97,473.7,M,46.2,M,,*4D
$GNGSA,A,3,10,21,27,16,08,23,01,,,,,,1.79,0.97,1.51*10
$GNVTG,,T,,M,0.081,N,0.151,K,A*31
$SMGPS,-0.0 m,-0.08 m/s,5.17 VRx,0.000 km,2 m,29.5 °,1:-- ( 21.5 km/h)*D7
$SMGPS2,-0.16 X,+0.63 Y,+0.72 Z,3 ENL,0 us*49
$GNRMC,152132.90,A,4816.07159,N,01139.77891,E,0.13,,080522,,,A*55
$GNGGA,152132.90,4816.07159,N,01139.77891,E,1,12,0.97,473.7,M,46.2,M,,*4C
$GNGSA,A,3,10,21,27,16,08,23,01,,,,,,1.79,0.97,1.51*10
$GNVTG,,T,,M,0.127,N,0.236,K,A*3E
$SMGPS,-0.0 m,-0.08 m/s,5.17 VRx,0.000 km,2 m,29.5 °,1:-- ( 21.5 km/h)*D7
$SMGPS2,-0.16 X,+0.63 Y,+0.72 Z,3 ENL,0 us*49
$GNRMC,152133.00,A,4816.07159,N,01139.77891,E,0.07,,080522,,,A*58
$GNGGA,152133.00,4816.07159,N,01139.77891,E,1,12,0.97,473.7,M,46.2,M,,*44
$GNGSA,A,3,10,21,27,16,08,23,01,,,,,,1.79,0.97,1.51*10
$GNVTG,,T,,M,0.070,N,0.129,K,A*30
$SMGPS,-0.0 m,-0.09 m/s,5.17 VRx,0.000 km,2 m,29.5 °,1:-- ( 21.5 km/h)*D6
$SMGPS2,-0.16 X,+0.62 Y,+0.72 Z,3 ENL,0 us*48
$GNRMC,152133.10,A,4816.07159,N,01139.77892,E,0.02,,080522,,,A*5F
$GNGGA,152133.10,4816.07159,N,01139.77892,E,1,12,0.97,473.7,M,46.2,M,,*46
$GNGSA,A,3,10,21,27,16,08,23,01,,,,,,1.79,0.97,1.51*10
$GNVTG,,T,,M,0.004,N,0.007,K,A*3E
$SMGPS,-0.0 m,-0.09 m/s,5.17 VRx,0.000 km,2 m,29.5 °,1:-- ( 21.5 km/h)*D6
$SMGPS2,-0.16 X,+0.62 Y,+0.72 Z,4 ENL,0 us*4F
$GNRMC,152133.20,A,4816.07159,N,01139.77892,E,0.04,,080522,,,A*5A
$GNGGA,152133.20,4816.07159,N,01139.77892,E,1,12,0.97,473.7,M,46.2,M,,*45
$GNGSA,A,3,10,21,27,16,08,23,01,,,,,,1.79,0.97,1.51*10
$GNVTG,,T,,M,0.039,N,0.073,K,A*33
$SMGPS,-0.0 m,-0.08 m/s,5.17 VRx,0.000 km,2 m,29.5 °,1:-- ( 21.5 km/h)*D7
$SMGPS2,-0.16 X,+0.62 Y,+0.72 Z,2 ENL,0 us*49
$GNRMC,152133.30,A,4816.07159,N,01139.77893,E,0.07,,080522,,,A*59
$GNGGA,152133.30,4816.07159,N,01139.77893,E,1,12,0.97,473.7,M,46.2,M,,*45
$GNGSA,A,3,10,21,27,16,08,23,01,,,,,,1.79,0.97,1.51*10
$GNVTG,,T,,M,0.065,N,0.120,K,A*3D
$SMGPS,-0.0 m,-0.06 m/s,5.17 VRx,0.000 km,2 m,29.5 °,1:-- ( 21.5 km/h)*D9
$SMGPS2,-0.16 X,+0.62 Y,+0.72 Z,4 ENL,0 us*4F
$GNRMC,152133.40,A,4816.07159,N,01139.77893,E,0.15,,080522,,,A*5D
$GNGGA,152133.40,4816.07159,N,01139.77893,E,1,12,0.97,473.7,M,46.2,M,,*42
$GNGSA,A,3,10,21,27,16,08,23,01,,,,,,1.79,0.97,1.51*10
$GNVTG,,T,,M,0.143,N,0.265,K,A*3A
$SMGPS,0.0 m,-0.04 m/s,5.17 VRx,0.000 km,2 m,29.5 °,1:-- ( 21.5 km/h)*F6
$SMGPS2,-0.16 X,+0.62 Y,+0.72 Z,2 ENL,0 us*49
$GNRMC,152133.50,A,4816.07159,N,01139.77894,E,0.11,,080522,,,A*5F
$GNGGA,152133.50,4816.07159,N,01139.77894,E,1,12,0.97,473.7,M,46.2,M,,*44
$GNGSA,A,3,10,21,27,16,08,23,01,,,,,,1.79,0.97,1.51*10
$GNVTG,,T,,M,0.110,N,0.204,K,A*3B
$SMGPS,-0.0 m,-0.01 m/s,5.17 VRx,0.000 km,2 m,29.5 °,1:-- ( 21.5 km/h)*DE
$SMGPS2,-0.17 X,+0.62 Y,+0.72 Z,3 ENL,0 us*49
$GNRMC,152133.60,A,4816.07159,N,01139.77894,E,0.15,,080522,,,A*58
$GNGGA,152133.60,4816.07159,N,01139.77894,E,1,12,0.97,473.8,M,46.2,M,,*48
$GNGSA,A,3,10,21,27,16,08,23,01,,,,,,1.79,0.97,1.51*10
$GNVTG,,T,,M,0.150,N,0.277,K,A*3B
$SMGPS,0.1 m,-0.01 m/s,5.17 VRx,0.000 km,2 m,29.5 °,1:-- ( 21.5 km/h)*F2
$SMGPS2,-0.16 X,+0.62 Y,+0.73 Z,3 ENL,0 us*49
$GNRMC,152133.70,A,4816.07160,N,01139.77894,E,0.18,,080522,,,A*5E
$GNGGA,152133.70,4816.07160,N,01139.77894,E,1,12,0.97,473.7,M,46.2,M,,*4C
$GNGSA,A,3,10,21,27,16,08,23,01,,,,,,1.79,0.97,1.51*10
$GNVTG,,T,,M,0.184,N,0.342,K,A*35
$SMGPS,0.0 m,+0.01 m/s,5.17 VRx,0.000 km,2 m,29.5 °,1:-- ( 21.5 km/h)*F5
$SMGPS2,-0.17 X,+0.62 Y,+0.72 Z,2 ENL,0 us*48
$GNRMC,152133.80,A,4816.07160,N,01139.77894,E,0.05,,080522,,,A*5D
$GNGGA,152133.80,4816.07160,N,01139.77894,E,1,12,0.97,473.7,M,46.2,M,,*43
$GNGSA,A,3,10,21,27,16,08,23,01,,,,,,1.79,0.97,1.51*10
$GNVTG,,T,,M,0.050,N,0.093,K,A*32
$SMGPS,-0.0 m,-0.00 m/s,5.17 VRx,0.000 km,2 m,29.5 °,1:-- ( 21.5 km/h)*DF
$SMGPS2,-0.16 X,+0.63 Y,+0.72 Z,3 ENL,0 us*49
$GNRMC,152133.90,A,4816.07160,N,01139.77895,E,0.12,,080522,,,A*5B
$GNGGA,152133.90,4816.07160,N,01139.77895,E,1,12,0.97,473.7,M,46.2,M,,*43
$GNGSA,A,3,10,21,27,16,08,23,01,,,,,,1.79,0.97,1.51*10
$GNVTG,,T,,M,0.118,N,0.219,K,A*3F
$SMGPS,0.0 m,+0.00 m/s,5.17 VRx,0.000 km,2 m,29.5 °,1:-- ( 21.5 km/h)*F4
$SMGPS2,-0.17 X,+0.63 Y,+0.72 Z,3 ENL,0 us*48
$GNRMC,152134.00,A,4816.07160,N,01139.77895,E,0.04,,080522,,,A*52
$GNGGA,152134.00,4816.07160,N,01139.77895,E,1,12,0.97,473.7,M,46.2,M,,*4D
$GNGSA,A,3,10,21,27,16,08,23,01,,,,,,1.79,0.97,1.51*10
$GNVTG,,T,,M,0.036,N,0.068,K,A*36
$SMGPS,-0.0 m,-0.01 m/s,5.17 VRx,0.000 km,2 m,29.5 °,1:-- ( 21.5 km/h)*DE
$SMGPS2,-0.16 X,+0.62 Y,+0.72 Z,3 ENL,0 us*48
$GNRMC,152134.10,A,4816.07160,N,01139.77895,E,0.12,,080522,,,A*54
$GNGGA,152134.10,4816.07160,N,01139.77895,E,1,12,0.97,473.7,M,46.2,M,,*4C
$GNGSA,A,3,10,21,27,16,08,23,01,,,,,,1.79,0.97,1.51*10
$GNVTG,,T,,M,0.123,N,0.227,K,A*3A
$SMGPS,-0.0 m,-0.02 m/s,5.17 VRx,0.000 km,2 m,29.5 °,1:-- ( 21.5 km/h)*DD
$SMGPS2,-0.17 X,+0.62 Y,+0.72 Z,3 ENL,0 us*49
$GNRMC,152134.20,A,4816.07160,N,01139.77895,E,0.10,,080522,,,A*55
$GNGGA,152134.20,4816.07160,N,01139.77895,E,1,12,0.97,473.7,M,46.2,M,,*4F
$GNGSA,A,3,10,21,27,16,08,23,01,,,,,,1.79,0.97,1.51*10
$GNVTG,,T,,M,0.098,N,0.182,K,A*37
$SMGPS,-0.0 m,-0.02 m/s,5.17 VRx,0.000 km,2 m,29.5 °,1:-- ( 21.5 km/h)*DD
$SMGPS2,-0.17 X,+0.63 Y,+0.73 Z,2 ENL,0 us*48
$GNRMC,152134.30,A,4816.07160,N,01139.77896,E,0.07,,080522,,,A*51
$GNGGA,152134.30,4816.07160,N,01139.77896,E,1,12,0.97,473.8,M,46.2,M,,*42
$GNGSA,A,3,10,21,27,16,08,23,01,,,,,,1.79,0.97,1.51*10
$GNVTG,,T,,M,0.065,N,0.120,K,A*3D
$SMGPS,0.1 m,-0.00 m/s,5.17 VRx,0.000 km,2 m,29.5 °,1:-- ( 21.5 km/h)*F3
$SMGPS2,-0.16 X,+0.62 Y,+0.72 Z,3 ENL,0 us*48
$GNRMC,152134.40,A,4816.07160,N,01139.77896,E,0.11,,080522,,,A*51
$GNGGA,152134.40,4816.07160,N,01139.77896,E,1,12,0.97,473.7,M,46.2,M,,*4A
$GNGSA,A,3,10,21,27,16,08,23,01,,,,,,1.79,0.97,1.51*10
$GNVTG,,T,,M,0.105,N,0.194,K,A*35
$SMGPS,0.0 m,+0.01 m/s,5.17 VRx,0.000 km,2 m,29.5 °,1:-- ( 21.5 km/h)*F5
$SMGPS2,-0.17 X,+0.62 Y,+0.72 Z,3 ENL,0 us*49
$GNRMC,152134.50,A,4816.07161,N,01139.77896,E,0.08,,080522,,,A*59
$GNGGA,152134.50,4816.07161,N,01139.77896,E,1,12,0.97,473.7,M,46.2,M,,*4A
$GNGSA,A,3,10,21,27,16,08,23,01,,,,,,1.79,0.97,1.51*10
$GNVTG,,T,,M,0.078,N,0.144,K,A*33
$SMGPS,0.0 m,+0.02 m/s,5.17 VRx,0.000 km,2 m,29.5 °,1:-- ( 21.5 km/h)*F6
$SMGPS2,-0.17 X,+0.62 Y,+0.72 Z,3 ENL,0 us*49
$GNRMC,152134.60,A,4816.07161,N,01139.77897,E,0.12,,080522,,,A*50
$GNGGA,152134.60,4816.07161,N,01139.77897,E,1,12,0.97,473.7,M,46.2,M,,*48
$GNGSA,A,3,10,21,27,16,08,23,01,,,,,,1.79,0.97,1.51*10
$GNVTG,,T,,M,0.117,N,0.217,K,A*3E
$SMGPS,0.0 m,+0.03 m/s,5.17 VRx,0.000 km,2 m,29.5 °,1:-- ( 21.5 km/h)*F7
$SMGPS2,-0.17 X,+0.62 Y,+0.73 Z,3 ENL,0 us*48
$GNRMC,152134.70,A,4816.07161,N,01139.77897,E,0.11,,080522,,,A*52
$GNGGA,152134.70,4816.07161,N,01139.77897,E,1,12,0.97,473.6,M,46.2,M,,*48
$GNGSA,A,3,10,21,27,16,08,23,01,,,,,,1.79,0.97,1.51*10
$GNVTG,,T,,M,0.112,N,0.207,K,A*3A
$SMGPS,-0.1 m,+0.03 m/s,5.17 VRx,0.000 km,2 m,29.5 °,1:-- ( 21.5 km/h)*DB
$SMGPS2,-0.17 X,+0.62 Y,+0.72 Z,3 ENL,0 us*49
$GNRMC,152134.80,A,4816.07161,N,01139.77897,E,0.18,,080522,,,A*54
$GNGGA,152134.80,4816.07161,N,01139.77897,E,1,12,0.97,473.7,M,46.2,M,,*46
$GNGSA,A,3,10,21,27,16,08,23,01,,,,,,1.79,0.97,1.51*10
$GNVTG,,T,,M,0.176,N,0.326,K,A*3A
$SMGPS,0.0 m,+0.03 m/s,5.17 VRx,0.000 km,2 m,29.5 °,1:-- ( 21.5 km/h)*F7
$SMGPS2,-0.16 X,+0.62 Y,+0.73 Z,2 ENL,0 us*48
$GNRMC,152134.90,A,4816.07161,N,01139.77898,E,0.02,,080522,,,A*51
$GNGGA,152134.90,4816.07161,N,01139.77898,E,1,12,0.97,473.7,M,46.2,M,,*48
$GNGSA,A,3,10,21,27,16,08,23,01,,,,,,1.79,0.97,1.51*10
$GNVTG,,T,,M,0.021,N,0.038,K,A*35
$SMGPS,0.0 m,+0.01 m/s,5.17 VRx,0.000 km,2 m,29.5 °,1:-- ( 21.5 km/h)*F5
$SMGPS2,-0.16 X,+0.62 Y,+0.72 Z,3 ENL,0 us*48
$GNRMC,152135.00,A,4816.07161,N,01139.77898,E,0.11,,080522,,,A*5B
$GNGGA,152135.00,4816.07161,N,01139.77898,E,1,12,0.97,473.7,M,46.2,M,,*40
$GNGSA,A,3,10,21,27,16,08,23,01,,,,,,1.79,0.97,1.51*10
$GNVTG,,T,,M,0.109,N,0.203,K,A*34
$SMGPS,0.0 m,+0.02 m/s,5.17 VRx,0.000 km,2 m,29.5 °,1:-- ( 21.5 km/h)*F6
$SMGPS2,-0.17 X,+0.62 Y,+0.72 Z,3 ENL,0 us*49
$GNRMC,152135.10,A,4816.07161,N,01139.77898,E,0.06,,080522,,,A*5C
$GNGGA,152135.10,4816.07161,N,01139.77898,E,1,12,0.97,473.7,M,46.2,M,,*41
$GNGSA,A,3,10,21,27,16,08,23,01,,,,,,1.79,0.97,1.51*10
$GNVTG,,T,,M,0.060,N,0.111,K,A*3A
$SMGPS,0.0 m,-0.01 m/s,5.17 VRx,0.000 km,2 m,29.5 °,1:-- ( 21.5 km/h)*F3
$SMGPS2,-0.17 X,+0.62 Y,+0.72 Z,3 ENL,0 us*49
$GNRMC,152135.20,A,4816.07161,N,01139.77898,E,0.02,,080522,,,A*5B
$GNGGA,152135.20,4816.07161,N,01139.77898,E,1,12,0.97,473.7,M,46.2,M,,*42
$GNGSA,A,3,10,21,27,16,08,23,01,,,,,,1.79,0.97,1.51*10
$GNVTG,,T,,M,0.016,N,0.030,K,A*39
$SMGPS,0.0 m,+0.00 m/s,5.17 VRx,0.000 km,2 m,29.5 °,1:-- ( 21.5 km/h)*F4
$SMGPS2,-0.17 X,+0.62 Y,+0.72 Z,2 ENL,0 us*48
$GNRMC,152135.30,A,4816.07161,N,01139.77899,E,0.16,,080522,,,A*5E
$GNGGA,152135.30,4816.07161,N,01139.77899,E,1,12,0.97,473.7,M,46.2,M,,*42
$GNGSA,A,3,10,21,27,16,08,23,01,,,,,,1.79,0.97,1.51*10
$GNVTG,,T,,M,0.158,N,0.292,K,A*38
$SMGPS,0.0 m,-0.01 m/s,5.17 VRx,0.000 km,2 m,29.5 °,1:-- ( 21.5 km/h)*F3
$SMGPS2,-0.16 X,+0.62 Y,+0.72 Z,3 ENL,0 us*48
$GNRMC,152135.40,A,4816.07162,N,01139.77899,E,0.11,,080522,,,A*5D
$GNGGA,152135.40,4816.07162,N,01139.77899,E,1,12,0.97,473.7,M,46.2,M,,*46
$GNGSA,A,3,10,21,27,16,08,23,01,,,,,,1.79,0.97,1.51*10
$GNVTG,,T,,M,0.106,N,0.196,K,A*34
$SMGPS,-0.0 m,-0.01 m/s,5.17 VRx,0.000 km,2 m,29.5 °,1:-- ( 21.5 km/h)*DE
$SMGPS2,-0.17 X,+0.62 Y,+0.72 Z,2 ENL,0 us*48
$GNRMC,152135.50,A,4816.07161,N,01139.77899,E,0.07,,080522,,,A*58
$GNGGA,152135.50,4816.07161,N,01139.77899,E,1,12,0.97,473.7,M,46.2,M,,*44
$GNGSA,A,3,10,21,27,16,08,23,01,,,,,,1.79,0.97,1.51*10
$GNVTG,,T,,M,0.071,N,0.131,K,A*38
$SMGPS,0.0 m,+0.01 m/s,5.17 VRx,0.000 km,2 m,29.5 °,1:-- ( 21.5 km/h)*F5
$SMGPS2,-0.16 X,+0.62 Y,+0.72 Z,3 ENL,0 us*48
$GNRMC,152135.60,A,4816.07161,N,01139.77899,E,0.01,,080522,,,A*5D
$GNGGA,152135.60,4816.07161,N,01139.77899,E,1,12,0.97,473.7,M,46.2,M,,*47
$GNGSA,A,3,10,21,27,16,08,23,01,,,,,,1.79,0.97,1.51*10
$GNVTG,,T,,M,0.008,N,0.016,K,A*32
$SMGPS,0.0 m,+0.03 m/s,5.17 VRx,0.000 km,2 m,29.5 °,1:-- ( 21.5 km/h)*F7
$SMGPS2,-0.17 X,+0.62 Y,+0.73 Z,4 ENL,0 us*4F
$GNRMC,152135.70,A,4816.07162,N,01139.77899,E,0.05,,080522,,,A*5B
$GNGGA,152135.70,4816.07162,N,01139.77899,E,1,12,0.97,473.7,M,46.2,M,,*45
$GNGSA,A,3,10,21,27,16,08,23,01,,,,,,1.79,0.97,1.51*10
$GNVTG,,T,,M,0.045,N,0.084,K,A*30
$SMGPS,-0.0 m,+0.03 m/s,5.17 VRx,0.000 km,2 m,29.5 °,1:-- ( 21.5 km/h)*DA
$SMGPS2,-0.16 X,+0.62 Y,+0.72 Z,2 ENL,0 us*49
$GNRMC,152135.80,A,4816.07162,N,01139.77899,E,0.02,,080522,,,A*53
$GNGGA,152135.80,4816.07162,N,01139.77899,E,1,12,0.97,473.7,M,46.2,M,,*4A
$GNGSA,A,3,10,21,27,16,08,23,01,,,,,,1.79,0.97,1.51*10
$GNVTG,,T,,M,0.022,N,0.042,K,A*3B
$SMGPS,0.0 m,+0.04 m/s,5.17 VRx,0.000 km,2 m,29.5 °,1:-- ( 21.5 km/h)*F0
$SMGPS2,-0.17 X,+0.62 Y,+0.72 Z,3 ENL,0 us*49
$GNRMC,152135.90,A,4816.07162,N,01139.77900,E,0.09,,080522,,,A*58
$GNGGA,152135.90,4816.07162,N,01139.77900,E,1,12,0.97,473.7,M,46.2,M,,*4A
$GNGSA,A,3,10,21,27,16,08,23,01,,,,,,1.79,0.97,1.51*10
$GNVTG,,T,,M,0.091,N,0.169,K,A*3B
$SMGPS,0.0 m,+0.04 m/s,5.17 VRx,0.000 km,2 m,29.5 °,1:-- ( 21.5 km/h)*F0
$SMGPS2,-0.17 X,+0.62 Y,+0.71 Z,3 ENL,0 us*4A
