$GPSSETUP,8AE8,0,1,1,0,0,1,0,0,0,1,3,0,0,0,0,6,0,C8,C8,1F4,1C2,32,64,7C,64,7D0,5,1,1,1E,0,0,0,0,0,0,1003,4,10,5,6,10,10,10,10,10,10,10,10,10,BC10,0,7C,0,108,302,604,0,20F,0,0,0,0,0,0,0,0,0,0,0,0,0,0,0,0,0,0,0,0,0,0,0,0,0,0,0,0,0,0,0,0,0,20,12C,877D*47
$GNRMC,155850.20,A,4816.48644,N,01139.86791,E,0.75,,080522,,,A*55
$GNGGA,155850.20,4816.48644,N,01139.86791,E,1,12,0.90,464.6,M,46.2,M,,*4C
$GNGSA,A,3,21,32,01,08,27,10,22,,,,,,1.54,0.90,1.26*1F
$GNVTG,,T,,M,0.751,N,1.391,K,A*34
$SMGPS,0.0 m,-0.00 m/s,7.67 VRx,0.000 km,1 m,9.4 °,1:-- (  0.0 km/h)*D1
$SMGPS2,-0.25 X,+0.15 Y,+0.92 Z,0 ENL,0 us*45
$GNRMC,155850.30,A,4816.48586,N,01139.86769,E,0.44,,080522,,,A*5C
$GNGGA,155850.30,4816.48586,N,01139.86769,E,1,12,0.90,464.6,M,46.2,M,,*47
$GNGSA,A,3,21,32,01,08,27,10,22,,,,,,1.54,0.90,1.26*1F
$GNVTG,,T,,M,0.436,N,0.808,K,A*3C
$SMGPS,-0.0 m,-0.01 m/s,7.61 VRx,0.000 km,0 m,90.0 °,1:-- (  0.0 km/h)*CE
$SMGPS2,-0.25 X,+0.15 Y,+0.92 Z,0 ENL,0 us*45
$GNRMC,155850.40,A,4816.48514,N,01139.86739,E,0.65,,080522,,,A*56
$GNGGA,155850.40,4816.48514,N,01139.86739,E,1,12,0.90,464.6,M,46.2,M,,*4E
$GNGSA,A,3,21,32,01,08,27,10,22,,,,,,1.54,0.90,1.26*1F
$GNVTG,,T,,M,0.650,N,1.203,K,A*3E
$SMGPS,-0.0 m,-0.01 m/s,7.62 VRx,0.000 km,1 m,180.0 °,1:-- (  0.0 km/h)*FC
$SMGPS2,-0.26 X,+0.14 Y,+0.92 Z,1 ENL,0 us*46
$GNRMC,155850.50,A,4816.48473,N,01139.86728,E,1.35,216.29,080522,,,A*43
$GNGGA,155850.50,4816.48473,N,01139.86728,E,1,12,0.90,464.6,M,46.2,M,,*4F
$GNGSA,A,3,21,32,01,08,27,10,22,,,,,,1.54,0.90,1.26*1F
$GNVTG,216.29,T,,M,1.345,N,2.491,K,A*20
$SMGPS,-0.0 m,-0.01 m/s,7.60 VRx,0.000 km,2 m,189.4 °,1:-- (  0.0 km/h)*F0
$SMGPS2,-0.26 X,+0.14 Y,+0.92 Z,2 ENL,0 us*45
$GNRMC,155850.60,A,4816.48447,N,01139.86731,E,0.74,,080522,,,A*5B
$GNGGA,155850.60,4816.48447,N,01139.86731,E,1,12,0.70,464.6,M,46.2,M,,*4D
$GNGSA,A,3,21,32,01,08,27,10,22,23,,,,,1.24,0.70,1.02*11
$GNVTG,,T,,M,0.736,N,1.363,K,A*38
$SMGPS,-0.0 m,-0.01 m/s,7.62 VRx,0.001 km,3 m,188.1 °,1:-- (  0.0 km/h)*F6
$SMGPS2,-0.25 X,+0.15 Y,+0.92 Z,0 ENL,0 us*45
$GNRMC,155850.70,A,4816.48403,N,01139.86719,E,0.07,,080522,,,A*54
$GNGGA,155850.70,4816.48403,N,01139.86719,E,1,12,0.70,464.7,M,46.2,M,,*47
$GNGSA,A,3,21,32,01,08,27,10,22,23,,,,,1.24,0.70,1.02*11
$GNVTG,,T,,M,0.064,N,0.119,K,A*36
$SMGPS,0.1 m,-0.01 m/s,7.62 VRx,0.001 km,4 m,186.3 °,1:-- (  0.0 km/h)*D1
$SMGPS2,-0.26 X,+0.15 Y,+0.92 Z,0 ENL,0 us*46
$GNRMC,155850.80,A,4816.48371,N,01139.86714,E,0.61,,080522,,,A*54
$GNGGA,155850.80,4816.48371,N,01139.86714,E,1,12,0.70,464.6,M,46.2,M,,*46
$GNGSA,A,3,21,32,01,08,27,10,22,23,,,,,1.24,0.70,1.02*11
$GNVTG,,T,,M,0.606,N,1.123,K,A*3C
$SMGPS,0.0 m,-0.01 m/s,7.63 VRx,0.001 km,5 m,186.9 °,1:-- (  0.0 km/h)*DA
$SMGPS2,-0.25 X,+0.14 Y,+0.92 Z,1 ENL,0 us*45
$GNRMC,155850.90,A,4816.48348,N,01139.86714,E,0.11,,080522,,,A*58
$GNGGA,155850.90,4816.48348,N,01139.86714,E,1,12,0.70,464.6,M,46.2,M,,*4D
$GNGSA,A,3,21,32,01,08,27,10,22,23,,,,,1.24,0.70,1.02*11
$GNVTG,,T,,M,0.112,N,0.207,K,A*3A
$SMGPS,0.0 m,-0.01 m/s,7.60 VRx,0.001 km,5 m,186.9 °,1:-- (  0.0 km/h)*D9
$SMGPS2,-0.25 X,+0.15 Y,+0.92 Z,0 ENL,0 us*45
$GNRMC,155851.00,A,4816.48328,N,01139.86714,E,0.20,,080522,,,A*54
$GNGGA,155851.00,4816.48328,N,01139.86714,E,1,12,0.70,464.6,M,46.2,M,,*43
$GNGSA,A,3,21,32,01,08,27,10,22,23,,,,,1.24,0.70,1.02*11
$GNVTG,,T,,M,0.201,N,0.372,K,A*38
$SMGPS,-0.0 m,-0.00 m/s,7.63 VRx,0.001 km,6 m,185.8 °,1:-- (  0.0 km/h)*F7
$SMGPS2,-0.26 X,+0.14 Y,+0.92 Z,0 ENL,0 us*47
$GNRMC,155851.10,A,4816.48311,N,01139.86720,E,0.22,,080522,,,A*5A
$GNGGA,155851.10,4816.48311,N,01139.86720,E,1,12,0.73,464.6,M,46.2,M,,*4C
$GNGSA,A,3,21,32,01,08,27,10,22,23,,,,,1.28,0.73,1.05*19
$GNVTG,,T,,M,0.218,N,0.405,K,A*37
$SMGPS,0.0 m,+0.00 m/s,7.60 VRx,0.001 km,6 m,185.8 °,1:-- (  0.0 km/h)*DF
$SMGPS2,-0.25 X,+0.14 Y,+0.92 Z,1 ENL,0 us*45
$GNRMC,155851.20,A,4816.48301,N,01139.86728,E,0.36,,080522,,,A*55
$GNGGA,155851.20,4816.48301,N,01139.86728,E,1,12,0.73,464.6,M,46.2,M,,*46
$GNGSA,A,3,21,32,01,08,27,10,22,23,,,,,1.28,0.73,1.05*19
$GNVTG,,T,,M,0.364,N,0.674,K,A*39
$SMGPS,0.0 m,+0.01 m/s,7.63 VRx,0.001 km,6 m,185.1 °,1:-- (  0.0 km/h)*D4
$SMGPS2,-0.25 X,+0.15 Y,+0.92 Z,1 ENL,0 us*44
$GNRMC,155851.30,A,4816.48313,N,01139.86747,E,0.15,,080522,,,A*5F
$GNGGA,155851.30,4816.48313,N,01139.86747,E,1,12,0.73,464.6,M,46.2,M,,*4D
$GNGSA,A,3,21,32,01,08,27,10,22,23,,,,,1.28,0.73,1.05*19
$GNVTG,,T,,M,0.150,N,0.277,K,A*3B
$SMGPS,0.0 m,+0.01 m/s,7.60 VRx,0.001 km,6 m,183.8 °,1:-- (  0.0 km/h)*D8
$SMGPS2,-0.25 X,+0.14 Y,+0.92 Z,1 ENL,0 us*45
$GNRMC,155851.40,A,4816.48324,N,01139.86764,E,0.08,,080522,,,A*51
$GNGGA,155851.40,4816.48324,N,01139.86764,E,1,12,0.71,464.6,M,46.2,M,,*4D
$GNGSA,A,3,21,32,01,08,27,10,22,23,16,,,,1.23,0.71,1.01*13
$GNVTG,,T,,M,0.076,N,0.141,K,A*38
$SMGPS,0.0 m,+0.01 m/s,7.63 VRx,0.001 km,6 m,182.5 °,1:-- (  0.0 km/h)*D7
$SMGPS2,-0.25 X,+0.15 Y,+0.92 Z,0 ENL,0 us*45
$GNRMC,155851.50,A,4816.48332,N,01139.86782,E,0.19,,080522,,,A*5F
$GNGGA,155851.50,4816.48332,N,01139.86782,E,1,12,0.71,464.6,M,46.2,M,,*43
$GNGSA,A,3,21,32,01,08,27,10,22,23,16,,,,1.23,0.71,1.01*13
$GNVTG,,T,,M,0.194,N,0.360,K,A*34
$SMGPS,0.0 m,+0.01 m/s,7.61 VRx,0.001 km,6 m,180.0 °,1:-- (  0.0 km/h)*D2
$SMGPS2,-0.25 X,+0.14 Y,+0.92 Z,1 ENL,0 us*45
$GNRMC,155851.60,A,4816.48325,N,01139.86793,E,0.05,,080522,,,A*57
$GNGGA,155851.60,4816.48325,N,01139.86793,E,1,12,0.71,464.6,M,46.2,M,,*46
$GNGSA,A,3,21,32,01,08,27,10,22,23,16,,,,1.23,0.71,1.01*13
$GNVTG,,T,,M,0.041,N,0.075,K,A*3A
$SMGPS,0.0 m,+0.01 m/s,7.62 VRx,0.001 km,6 m,178.5 °,1:-- (  0.0 km/h)*D3
$SMGPS2,-0.25 X,+0.15 Y,+0.92 Z,1 ENL,0 us*44
$GNRMC,155851.70,A,4816.48332,N,01139.86809,E,0.15,,080522,,,A*5D
$GNGGA,155851.70,4816.48332,N,01139.86809,E,1,12,0.71,464.6,M,46.2,M,,*4D
$GNGSA,A,3,21,32,01,08,27,10,22,23,16,,,,1.23,0.71,1.01*13
$GNVTG,,T,,M,0.146,N,0.271,K,A*3A
$SMGPS,0.0 m,+0.00 m/s,7.60 VRx,0.001 km,6 m,177.1 °,1:-- (  0.0 km/h)*DB
$SMGPS2,-0.25 X,+0.14 Y,+0.92 Z,0 ENL,0 us*44
$GNRMC,155851.80,A,4816.48343,N,01139.86821,E,0.22,,080522,,,A*5A
$GNGGA,155851.80,4816.48343,N,01139.86821,E,1,12,0.71,464.6,M,46.2,M,,*4E
$GNGSA,A,3,21,32,01,08,27,10,22,23,16,,,,1.23,0.71,1.01*13
$GNVTG,,T,,M,0.221,N,0.410,K,A*39
$SMGPS,0.0 m,+0.00 m/s,7.62 VRx,0.001 km,6 m,174.9 °,1:-- (  0.0 km/h)*D2
$SMGPS2,-0.25 X,+0.14 Y,+0.92 Z,0 ENL,0 us*44
$GNRMC,155851.90,A,4816.48348,N,01139.86826,E,0.37,,080522,,,A*53
$GNGGA,155851.90,4816.48348,N,01139.86826,E,1,12,0.68,464.6,M,46.2,M,,*4B
$GNGSA,A,3,21,32,01,08,27,10,22,23,16,,,,1.20,0.68,0.99*18
$GNVTG,,T,,M,0.373,N,0.691,K,A*34
$SMGPS,0.0 m,-0.00 m/s,7.67 VRx,0.001 km,6 m,173.4 °,1:-- (  0.0 km/h)*DB
$SMGPS2,-0.25 X,+0.15 Y,+0.92 Z,0 ENL,0 us*45
$GNRMC,155852.00,A,4816.48354,N,01139.86831,E,0.06,,080522,,,A*50
$GNGGA,155852.00,4816.48354,N,01139.86831,E,1,12,0.68,464.6,M,46.2,M,,*4A
$GNGSA,A,3,21,32,01,08,27,10,22,23,16,,,,1.20,0.68,0.99*18
$GNVTG,,T,,M,0.060,N,0.111,K,A*3A
$SMGPS,-0.0 m,-0.01 m/s,7.63 VRx,0.001 km,6 m,172.0 °,1:-- (  0.0 km/h)*F6
$SMGPS2,-0.25 X,+0.15 Y,+0.92 Z,1 ENL,0 us*44
$GNRMC,155852.10,A,4816.48360,N,01139.86834,E,0.11,,080522,,,A*55
$GNGGA,155852.10,4816.48360,N,01139.86834,E,1,12,0.68,464.6,M,46.2,M,,*49
$GNGSA,A,3,21,32,01,08,27,10,22,23,16,,,,1.20,0.68,0.99*18
$GNVTG,,T,,M,0.110,N,0.203,K,A*3C
$SMGPS,-0.0 m,-0.01 m/s,7.60 VRx,0.001 km,6 m,172.0 °,1:-- (  0.0 km/h)*F5
$SMGPS2,-0.25 X,+0.14 Y,+0.92 Z,0 ENL,0 us*44
$GNRMC,155852.20,A,4816.48370,N,01139.86837,E,0.15,,080522,,,A*50
$GNGGA,155852.20,4816.48370,N,01139.86837,E,1,12,0.68,464.6,M,46.2,M,,*48
$GNGSA,A,3,21,32,01,08,27,10,22,23,16,,,,1.20,0.68,0.99*18
$GNVTG,,T,,M,0.148,N,0.275,K,A*30
$SMGPS,0.0 m,-0.01 m/s,7.63 VRx,0.001 km,6 m,172.0 °,1:-- (  0.0 km/h)*DB
$SMGPS2,-0.25 X,+0.14 Y,+0.93 Z,0 ENL,0 us*45
$GNRMC,155852.30,A,4816.48389,N,01139.86847,E,0.13,,080522,,,A*56
$GNGGA,155852.30,4816.48389,N,01139.86847,E,1,12,0.68,464.6,M,46.2,M,,*48
$GNGSA,A,3,21,32,01,08,27,10,22,23,16,,,,1.20,0.68,0.99*18
$GNVTG,,T,,M,0.128,N,0.236,K,A*31
$SMGPS,-0.0 m,-0.01 m/s,7.59 VRx,0.001 km,5 m,168.9 °,1:-- (  0.0 km/h)*FE
$SMGPS2,-0.26 X,+0.15 Y,+0.92 Z,0 ENL,0 us*46
$GNRMC,155852.40,A,4816.48401,N,01139.86853,E,0.15,,080522,,,A*55
$GNGGA,155852.40,4816.48401,N,01139.86853,E,1,12,0.68,464.6,M,46.2,M,,*4D
$GNGSA,A,3,21,32,01,08,27,10,22,23,16,,,,1.20,0.68,0.99*18
$GNVTG,,T,,M,0.150,N,0.278,K,A*34
$SMGPS,-0.0 m,-0.01 m/s,7.64 VRx,0.001 km,5 m,167.2 °,1:-- (  0.0 km/h)*F4
$SMGPS2,-0.25 X,+0.15 Y,+0.92 Z,1 ENL,0 us*44
$GNRMC,155852.50,A,4816.48409,N,01139.86854,E,0.09,,080522,,,A*56
$GNGGA,155852.50,4816.48409,N,01139.86854,E,1,12,0.68,464.6,M,46.2,M,,*43
$GNGSA,A,3,21,32,01,08,27,10,22,23,16,,,,1.20,0.68,0.99*18
$GNVTG,,T,,M,0.087,N,0.161,K,A*34
$SMGPS,-0.0 m,-0.02 m/s,7.60 VRx,0.001 km,5 m,167.2 °,1:-- (  0.0 km/h)*F3
$SMGPS2,-0.26 X,+0.14 Y,+0.92 Z,0 ENL,0 us*47
$GNRMC,155852.60,A,4816.48420,N,01139.86857,E,0.05,,080522,,,A*51
$GNGGA,155852.60,4816.48420,N,01139.86857,E,1,12,0.68,464.6,M,46.2,M,,*48
$GNGSA,A,3,21,32,01,08,27,10,22,23,16,,,,1.20,0.68,0.99*18
$GNVTG,,T,,M,0.052,N,0.096,K,A*35
$SMGPS,-0.0 m,-0.01 m/s,7.63 VRx,0.001 km,5 m,167.2 °,1:-- (  0.0 km/h)*F3
$SMGPS2,-0.26 X,+0.15 Y,+0.92 Z,0 ENL,0 us*46
$GNRMC,155852.70,A,4816.48425,N,01139.86856,E,0.05,,080522,,,A*54
$GNGGA,155852.70,4816.48425,N,01139.86856,E,1,12,0.68,464.6,M,46.2,M,,*4D
$GNGSA,A,3,21,32,01,08,27,10,22,23,16,,,,1.20,0.68,0.99*18
$GNVTG,,T,,M,0.050,N,0.093,K,A*32
$SMGPS,-0.0 m,-0.01 m/s,7.61 VRx,0.001 km,4 m,164.5 °,1:-- (  0.0 km/h)*F4
$SMGPS2,-0.25 X,+0.14 Y,+0.92 Z,0 ENL,0 us*44
$GNRMC,155852.80,A,4816.48430,N,01139.86859,E,0.16,,080522,,,A*52
$GNGGA,155852.80,4816.48430,N,01139.86859,E,1,12,0.68,464.6,M,46.2,M,,*49
$GNGSA,A,3,21,32,01,08,27,10,22,23,16,,,,1.20,0.68,0.99*18
$GNVTG,,T,,M,0.155,N,0.286,K,A*30
$SMGPS,0.0 m,-0.01 m/s,7.62 VRx,0.001 km,4 m,164.5 °,1:-- (  0.0 km/h)*DA
$SMGPS2,-0.25 X,+0.15 Y,+0.92 Z,0 ENL,0 us*45
$GNRMC,155852.90,A,4816.48437,N,01139.86865,E,0.15,,080522,,,A*58
$GNGGA,155852.90,4816.48437,N,01139.86865,E,1,12,0.68,464.6,M,46.2,M,,*40
$GNGSA,A,3,21,32,01,08,27,10,22,23,16,,,,1.20,0.68,0.99*18
$GNVTG,,T,,M,0.149,N,0.276,K,A*32
$SMGPS,0.0 m,-0.01 m/s,7.60 VRx,0.001 km,4 m,164.5 °,1:-- (  0.0 km/h)*D8
$SMGPS2,-0.25 X,+0.14 Y,+0.92 Z,0 ENL,0 us*44
$GNRMC,155853.00,A,4816.48436,N,01139.86868,E,0.15,,080522,,,A*5C
$GNGGA,155853.00,4816.48436,N,01139.86868,E,1,12,0.68,464.6,M,46.2,M,,*44
$GNGSA,A,3,21,32,01,08,27,10,22,23,16,,,,1.20,0.68,0.99*18
$GNVTG,,T,,M,0.153,N,0.284,K,A*34
$SMGPS,-0.0 m,-0.00 m/s,7.62 VRx,0.001 km,4 m,162.6 °,1:-- (  0.0 km/h)*F3
$SMGPS2,-0.26 X,+0.14 Y,+0.92 Z,0 ENL,0 us*47
$GNRMC,155853.10,A,4816.48437,N,01139.86873,E,0.12,,080522,,,A*51
$GNGGA,155853.10,4816.48437,N,01139.86873,E,1,12,0.68,464.6,M,46.2,M,,*4E
$GNGSA,A,3,21,32,01,08,27,10,22,23,16,,,,1.20,0.68,0.99*18
$GNVTG,,T,,M,0.117,N,0.216,K,A*3F
$SMGPS,-0.0 m,-0.00 m/s,7.62 VRx,0.001 km,4 m,162.6 °,1:-- (  0.0 km/h)*F3
$SMGPS2,-0.25 X,+0.14 Y,+0.92 Z,1 ENL,0 us*45
$GNRMC,155853.20,A,4816.48435,N,01139.86874,E,0.03,,080522,,,A*57
$GNGGA,155853.20,4816.48435,N,01139.86874,E,1,12,0.68,464.6,M,46.2,M,,*48
$GNGSA,A,3,21,32,01,08,27,10,22,23,16,,,,1.20,0.68,0.99*18
$GNVTG,,T,,M,0.027,N,0.050,K,A*3D
$SMGPS,0.0 m,+0.00 m/s,7.63 VRx,0.001 km,4 m,160.6 °,1:-- (  0.0 km/h)*DB
$SMGPS2,-0.25 X,+0.14 Y,+0.92 Z,1 ENL,0 us*45
$GNRMC,155853.30,A,4816.48430,N,01139.86872,E,0.28,,080522,,,A*5C
$GNGGA,155853.30,4816.48430,N,01139.86872,E,1,12,0.68,464.6,M,46.2,M,,*4A
$GNGSA,A,3,21,32,01,08,27,10,22,23,16,,,,1.20,0.68,0.99*18
$GNVTG,,T,,M,0.280,N,0.518,K,A*3B
$SMGPS,0.0 m,-0.00 m/s,7.61 VRx,0.001 km,4 m,160.6 °,1:-- (  0.0 km/h)*DF
$SMGPS2,-0.25 X,+0.14 Y,+0.92 Z,0 ENL,0 us*44
$GNRMC,155853.40,A,4816.48424,N,01139.86870,E,0.17,,080522,,,A*50
$GNGGA,155853.40,4816.48424,N,01139.86870,E,1,12,0.68,464.6,M,46.2,M,,*4A
$GNGSA,A,3,21,32,01,08,27,10,22,23,16,,,,1.20,0.68,0.99*18
$GNVTG,,T,,M,0.171,N,0.316,K,A*3E
$SMGPS,-0.0 m,-0.00 m/s,7.64 VRx,0.001 km,4 m,160.6 °,1:-- (  0.0 km/h)*F7
$SMGPS2,-0.25 X,+0.15 Y,+0.92 Z,0 ENL,0 us*45
$GNRMC,155853.50,A,4816.48420,N,01139.86869,E,0.04,,080522,,,A*5F
$GNGGA,155853.50,4816.48420,N,01139.86869,E,1,12,0.68,464.6,M,46.2,M,,*47
$GNGSA,A,3,21,32,01,08,27,10,22,23,16,,,,1.20,0.68,0.99*18
$GNVTG,,T,,M,0.040,N,0.074,K,A*3A
$SMGPS,-0.0 m,-0.00 m/s,7.61 VRx,0.001 km,4 m,162.6 °,1:-- (  0.0 km/h)*F0
$SMGPS2,-0.25 X,+0.14 Y,+0.92 Z,1 ENL,0 us*45
$GNRMC,155853.60,A,4816.48414,N,01139.86869,E,0.13,,080522,,,A*5D
$GNGGA,155853.60,4816.48414,N,01139.86869,E,1,12,0.68,464.6,M,46.2,M,,*43
$GNGSA,A,3,21,32,01,08,27,10,22,23,16,,,,1.20,0.68,0.99*18
$GNVTG,,T,,M,0.129,N,0.239,K,A*3F
$SMGPS,-0.0 m,-0.00 m/s,7.64 VRx,0.001 km,4 m,162.6 °,1:-- (  0.0 km/h)*F5
$SMGPS2,-0.25 X,+0.14 Y,+0.92 Z,0 ENL,0 us*44
$GNRMC,155853.70,A,4816.48409,N,01139.86870,E,0.18,,080522,,,A*53
$GNGGA,155853.70,4816.48409,N,01139.86870,E,1,12,0.68,464.6,M,46.2,M,,*46
$GNGSA,A,3,21,32,01,08,27,10,22,23,16,,,,1.20,0.68,0.99*18
$GNVTG,,T,,M,0.177,N,0.328,K,A*35
$SMGPS,-0.0 m,-0.00 m/s,7.61 VRx,0.001 km,4 m,162.6 °,1:-- (  0.0 km/h)*F0
$SMGPS2,-0.25 X,+0.14 Y,+0.92 Z,0 ENL,0 us*44
$GNRMC,155853.80,A,4816.48404,N,01139.86870,E,0.05,,080522,,,A*5D
$GNGGA,155853.80,4816.48404,N,01139.86870,E,1,12,0.68,464.6,M,46.2,M,,*44
$GNGSA,A,3,21,32,01,08,27,10,22,23,16,,,,1.20,0.68,0.99*18
$GNVTG,,T,,M,0.052,N,0.097,K,A*34
$SMGPS,0.0 m,-0.01 m/s,7.64 VRx,0.001 km,5 m,165.6 °,1:-- (  0.0 km/h)*DF
$SMGPS2,-0.26 X,+0.14 Y,+0.93 Z,2 ENL,0 us*44
$GNRMC,155853.90,A,4816.48397,N,01139.86868,E,0.10,,080522,,,A*5C
$GNGGA,155853.90,4816.48397,N,01139.86868,E,1,12,0.68,464.6,M,46.2,M,,*41
$GNGSA,A,3,21,32,01,08,27,10,22,23,16,,,,1.20,0.68,0.99*18
$GNVTG,,T,,M,0.098,N,0.181,K,A*34
$SMGPS,0.0 m,-0.01 m/s,7.61 VRx,0.001 km,5 m,165.6 °,1:-- (  0.0 km/h)*DA
$SMGPS2,-0.25 X,+0.15 Y,+0.92 Z,0 ENL,0 us*45
$GNRMC,155854.00,A,4816.48392,N,01139.86867,E,0.22,,080522,,,A*59
$GNGGA,155854.00,4816.48392,N,01139.86867,E,1,12,0.68,464.6,M,46.2,M,,*45
$GNGSA,A,3,21,32,01,08,27,10,22,23,16,,,,1.20,0.68,0.99*18
$GNVTG,,T,,M,0.219,N,0.405,K,A*36
$SMGPS,0.0 m,-0.01 m/s,7.64 VRx,0.001 km,5 m,165.6 °,1:-- (  0.0 km/h)*DF
$SMGPS2,-0.25 X,+0.15 Y,+0.92 Z,0 ENL,0 us*45
$GNRMC,155854.10,A,4816.48384,N,01139.86864,E,0.13,,080522,,,A*5E
$GNGGA,155854.10,4816.48384,N,01139.86864,E,1,12,0.68,464.6,M,46.2,M,,*40
$GNGSA,A,3,21,32,01,08,27,10,22,23,16,,,,1.20,0.68,0.99*18
$GNVTG,,T,,M,0.128,N,0.238,K,A*3F
$SMGPS,-0.0 m,-0.01 m/s,7.62 VRx,0.001 km,5 m,165.6 °,1:-- (  0.0 km/h)*F4
$SMGPS2,-0.25 X,+0.14 Y,+0.92 Z,0 ENL,0 us*44
$GNRMC,155854.20,A,4816.48380,N,01139.86862,E,0.09,,080522,,,A*54
$GNGGA,155854.20,4816.48380,N,01139.86862,E,1,12,0.68,464.6,M,46.2,M,,*41
$GNGSA,A,3,21,32,01,08,27,10,22,23,16,,,,1.20,0.68,0.99*18
$GNVTG,,T,,M,0.087,N,0.161,K,A*34
$SMGPS,0.0 m,-0.00 m/s,7.63 VRx,0.001 km,5 m,165.6 °,1:-- (  0.0 km/h)*D9
$SMGPS2,-0.25 X,+0.14 Y,+0.92 Z,0 ENL,0 us*44
$GNRMC,155854.30,A,4816.48377,N,01139.86861,E,0.16,,080522,,,A*50
$GNGGA,155854.30,4816.48377,N,01139.86861,E,1,12,0.68,464.6,M,46.2,M,,*4B
$GNGSA,A,3,21,32,01,08,27,10,22,23,16,,,,1.20,0.68,0.99*18
$GNVTG,,T,,M,0.161,N,0.297,K,A*37
$SMGPS,0.0 m,-0.00 m/s,7.62 VRx,0.001 km,5 m,165.6 °,1:-- (  0.0 km/h)*D8
$SMGPS2,-0.25 X,+0.14 Y,+0.92 Z,0 ENL,0 us*44
$GNRMC,155854.40,A,4816.48374,N,01139.86860,E,0.17,,080522,,,A*54
$GNGGA,155854.40,4816.48374,N,01139.86860,E,1,12,0.68,464.6,M,46.2,M,,*4E
$GNGSA,A,3,21,32,01,08,27,10,22,23,16,,,,1.20,0.68,0.99*18
$GNVTG,,T,,M,0.166,N,0.307,K,A*38
$SMGPS,0.0 m,-0.00 m/s,7.65 VRx,0.001 km,5 m,165.6 °,1:-- (  0.0 km/h)*DF
$SMGPS2,-0.25 X,+0.14 Y,+0.92 Z,2 ENL,0 us*46
$GNRMC,155854.50,A,4816.48372,N,01139.86860,E,0.11,,080522,,,A*55
$GNGGA,155854.50,4816.48372,N,01139.86860,E,1,12,0.68,464.6,M,46.2,M,,*49
$GNGSA,A,3,21,32,01,08,27,10,22,23,16,,,,1.20,0.68,0.99*18
$GNVTG,,T,,M,0.107,N,0.197,K,A*34
$SMGPS,0.0 m,-0.00 m/s,7.62 VRx,0.001 km,5 m,165.6 °,1:-- (  0.0 km/h)*D8
$SMGPS2,-0.25 X,+0.14 Y,+0.91 Z,0 ENL,0 us*47
$GNRMC,155854.60,A,4816.48370,N,01139.86860,E,0.01,,080522,,,A*55
$GNGGA,155854.60,4816.48370,N,01139.86860,E,1,12,0.68,464.6,M,46.2,M,,*48
$GNGSA,A,3,21,32,01,08,27,10,22,23,16,,,,1.20,0.68,0.99*18
$GNVTG,,T,,M,0.009,N,0.017,K,A*32
$SMGPS,0.0 m,+0.00 m/s,7.63 VRx,0.001 km,5 m,165.6 °,1:-- (  0.0 km/h)*DF
$SMGPS2,-0.25 X,+0.14 Y,+0.92 Z,2 ENL,0 us*46
$GNRMC,155854.70,A,4816.48368,N,01139.86860,E,0.19,,080522,,,A*54
$GNGGA,155854.70,4816.48368,N,01139.86860,E,1,12,0.68,464.6,M,46.2,M,,*40
$GNGSA,A,3,21,32,01,08,27,10,22,23,16,,,,1.20,0.68,0.99*18
$GNVTG,,T,,M,0.186,N,0.344,K,A*31
$SMGPS,0.0 m,+0.00 m/s,7.61 VRx,0.001 km,5 m,165.6 °,1:-- (  0.0 km/h)*DD
$SMGPS2,-0.26 X,+0.14 Y,+0.92 Z,0 ENL,0 us*47
$GNRMC,155854.80,A,4816.48366,N,01139.86860,E,0.06,,080522,,,A*5B
$GNGGA,155854.80,4816.48366,N,01139.86860,E,1,12,0.68,464.6,M,46.2,M,,*41
$GNGSA,A,3,21,32,01,08,27,10,22,23,16,,,,1.20,0.68,0.99*18
$GNVTG,,T,,M,0.060,N,0.111,K,A*3A
$SMGPS,-0.0 m,-0.00 m/s,7.64 VRx,0.001 km,5 m,165.6 °,1:-- (  0.0 km/h)*F3
$SMGPS2,-0.26 X,+0.15 Y,+0.92 Z,0 ENL,0 us*46
$GNRMC,155854.90,A,4816.48365,N,01139.86861,E,0.21,,080522,,,A*5D
$GNGGA,155854.90,4816.48365,N,01139.86861,E,1,12,0.68,464.6,M,46.2,M,,*42
$GNGSA,A,3,21,32,01,08,27,10,22,23,16,,,,1.20,0.68,0.99*18
$GNVTG,,T,,M,0.207,N,0.383,K,A*30
$SMGPS,-0.0 m,+0.00 m/s,7.61 VRx,0.001 km,5 m,165.6 °,1:-- (  0.0 km/h)*F0
$SMGPS2,-0.26 X,+0.14 Y,+0.93 Z,1 ENL,0 us*47
$GNRMC,155855.00,A,4816.48363,N,01139.86860,E,0.06,,080522,,,A*57
$GNGGA,155855.00,4816.48363,N,01139.86860,E,1,12,0.68,464.6,M,46.2,M,,*4D
$GNGSA,A,3,21,32,01,08,27,10,22,23,16,,,,1.20,0.68,0.99*18
$GNVTG,,T,,M,0.064,N,0.118,K,A*37
$SMGPS,0.0 m,-0.00 m/s,7.64 VRx,0.001 km,5 m,165.6 °,1:-- (  0.0 km/h)*DE
$SMGPS2,-0.25 X,+0.15 Y,+0.92 Z,0 ENL,0 us*45
$GNRMC,155855.10,A,4816.48363,N,01139.86861,E,0.12,,080522,,,A*52
$GNGGA,155855.10,4816.48363,N,01139.86861,E,1,12,0.68,464.6,M,46.2,M,,*4D
$GNGSA,A,3,21,32,01,08,27,10,22,23,16,,,,1.20,0.68,0.99*18
$GNVTG,,T,,M,0.124,N,0.230,K,A*3B
$SMGPS,0.0 m,+0.00 m/s,7.60 VRx,0.001 km,6 m,167.7 °,1:-- (  0.0 km/h)*DC
$SMGPS2,-0.26 X,+0.14 Y,+0.92 Z,1 ENL,0 us*46
$GNRMC,155855.20,A,4816.48364,N,01139.86861,E,0.03,,080522,,,A*56
$GNGGA,155855.20,4816.48364,N,01139.86861,E,1,12,0.68,464.6,M,46.2,M,,*49
$GNGSA,A,3,21,32,01,08,27,10,22,23,16,,,,1.20,0.68,0.99*18
$GNVTG,,T,,M,0.023,N,0.042,K,A*3A
$SMGPS,0.0 m,+0.00 m/s,7.64 VRx,0.001 km,6 m,167.7 °,1:-- (  0.0 km/h)*D8
$SMGPS2,-0.25 X,+0.14 Y,+0.92 Z,0 ENL,0 us*44
$GNRMC,155855.30,A,4816.48364,N,01139.86860,E,0.17,,080522,,,A*53
$GNGGA,155855.30,4816.48364,N,01139.86860,E,1,12,0.68,464.6,M,46.2,M,,*49
$GNGSA,A,3,21,32,01,08,27,10,22,23,16,,,,1.20,0.68,0.99*18
$GNVTG,,T,,M,0.169,N,0.313,K,A*32
$SMGPS,0.0 m,+0.00 m/s,7.62 VRx,0.001 km,6 m,167.7 °,1:-- (  0.0 km/h)*DE
$SMGPS2,-0.26 X,+0.15 Y,+0.91 Z,0 ENL,0 us*45
$GNRMC,155855.40,A,4816.48364,N,01139.86859,E,0.12,,080522,,,A*5B
$GNGGA,155855.40,4816.48364,N,01139.86859,E,1,12,0.68,464.6,M,46.2,M,,*44
$GNGSA,A,3,21,32,01,08,27,10,22,23,16,,,,1.20,0.68,0.99*18
$GNVTG,,T,,M,0.115,N,0.213,K,A*38
$SMGPS,-0.0 m,+0.01 m/s,7.63 VRx,0.001 km,6 m,167.7 °,1:-- (  0.0 km/h)*F3
$SMGPS2,-0.25 X,+0.14 Y,+0.92 Z,0 ENL,0 us*44
$GNRMC,155855.50,A,4816.48364,N,01139.86857,E,0.25,,080522,,,A*50
$GNGGA,155855.50,4816.48364,N,01139.86857,E,1,12,0.68,464.6,M,46.2,M,,*4B
$GNGSA,A,3,21,32,01,08,27,10,22,23,16,,,,1.20,0.68,0.99*18
$GNVTG,,T,,M,0.252,N,0.466,K,A*3C
$SMGPS,0.0 m,+0.01 m/s,7.62 VRx,0.001 km,6 m,169.1 °,1:-- (  0.0 km/h)*D7
$SMGPS2,-0.25 X,+0.14 Y,+0.92 Z,0 ENL,0 us*44
$GNRMC,155855.60,A,4816.48365,N,01139.86855,E,0.05,,080522,,,A*52
$GNGGA,155855.60,4816.48365,N,01139.86855,E,1,12,0.68,464.5,M,46.2,M,,*48
$GNGSA,A,3,21,32,01,08,27,10,22,23,16,,,,1.20,0.68,0.99*18
$GNVTG,,T,,M,0.049,N,0.090,K,A*39
$SMGPS,-0.1 m,+0.00 m/s,7.63 VRx,0.001 km,6 m,169.1 °,1:-- (  0.0 km/h)*FB
$SMGPS2,-0.25 X,+0.15 Y,+0.92 Z,2 ENL,0 us*47
$GNRMC,155855.70,A,4816.48366,N,01139.86854,E,0.10,,080522,,,A*55
$GNGGA,155855.70,4816.48366,N,01139.86854,E,1,12,0.68,464.6,M,46.2,M,,*48
$GNGSA,A,3,21,32,01,08,27,10,22,23,16,,,,1.20,0.68,0.99*18
$GNVTG,,T,,M,0.100,N,0.184,K,A*31
$SMGPS,0.0 m,+0.00 m/s,7.61 VRx,0.001 km,5 m,167.2 °,1:-- (  0.0 km/h)*DB
$SMGPS2,-0.26 X,+0.14 Y,+0.92 Z,0 ENL,0 us*47
$GNRMC,155855.80,A,4816.48365,N,01139.86852,E,0.09,,080522,,,A*57
$GNGGA,155855.80,4816.48365,N,01139.86852,E,1,12,0.68,464.6,M,46.2,M,,*42
$GNGSA,A,3,21,32,01,08,27,10,22,23,16,,,,1.20,0.68,0.99*18
$GNVTG,,T,,M,0.088,N,0.162,K,A*38
$SMGPS,-0.0 m,+0.00 m/s,7.63 VRx,0.001 km,5 m,167.2 °,1:-- (  0.0 km/h)*F4
$SMGPS2,-0.25 X,+0.15 Y,+0.92 Z,0 ENL,0 us*45
$GNRMC,155855.90,A,4816.48364,N,01139.86851,E,0.07,,080522,,,A*5A
$GNGGA,155855.90,4816.48364,N,01139.86851,E,1,12,0.68,464.6,M,46.2,M,,*41
$GNGSA,A,3,21,32,01,08,27,10,22,23,16,,,,1.20,0.68,0.99*18
$GNVTG,,T,,M,0.059,N,0.109,K,A*39
$SMGPS,-0.0 m,+0.01 m/s,7.61 VRx,0.001 km,5 m,167.2 °,1:-- (  0.0 km/h)*F7
$SMGPS2,-0.25 X,+0.14 Y,+0.92 Z,1 ENL,0 us*45
$GNRMC,155856.00,A,4816.48363,N,01139.86849,E,0.12,,080522,,,A*5A
$GNGGA,155856.00,4816.48363,N,01139.86849,E,1,12,0.68,464.6,M,46.2,M,,*45
$GNGSA,A,3,21,32,01,08,27,10,22,23,16,,,,1.20,0.68,0.99*18
$GNVTG,,T,,M,0.117,N,0.216,K,A*3F
$SMGPS,0.0 m,+0.01 m/s,7.63 VRx,0.001 km,6 m,169.1 °,1:-- (  0.0 km/h)*D6
$SMGPS2,-0.26 X,+0.15 Y,+0.92 Z,1 ENL,0 us*47
$GNRMC,155856.10,A,4816.48362,N,01139.86847,E,0.08,,080522,,,A*5F
$GNGGA,155856.10,4816.48362,N,01139.86847,E,1,12,0.68,464.6,M,46.2,M,,*4B
$GNGSA,A,3,21,32,01,08,27,10,22,23,16,,,,1.20,0.68,0.99*18
$GNVTG,,T,,M,0.073,N,0.136,K,A*3D
$SMGPS,-0.0 m,+0.01 m/s,7.61 VRx,0.001 km,6 m,169.1 °,1:-- (  0.0 km/h)*F9
$SMGPS2,-0.25 X,+0.14 Y,+0.92 Z,0 ENL,0 us*44
$GNRMC,155856.20,A,4816.48362,N,01139.86845,E,0.11,,080522,,,A*56
$GNGGA,155856.20,4816.48362,N,01139.86845,E,1,12,0.68,464.6,M,46.2,M,,*4A
$GNGSA,A,3,21,32,01,08,27,10,22,23,16,,,,1.20,0.68,0.99*18
$GNVTG,,T,,M,0.110,N,0.205,K,A*3A
$SMGPS,-0.0 m,+0.01 m/s,7.64 VRx,0.001 km,6 m,169.1 °,1:-- (  0.0 km/h)*FC
$SMGPS2,-0.25 X,+0.14 Y,+0.92 Z,0 ENL,0 us*44
$GNRMC,155856.30,A,4816.48361,N,01139.86843,E,0.13,,080522,,,A*50
$GNGGA,155856.30,4816.48361,N,01139.86843,E,1,12,0.68,464.6,M,46.2,M,,*4E
$GNGSA,A,3,21,32,01,08,27,10,22,23,16,,,,1.20,0.68,0.99*18
$GNVTG,,T,,M,0.125,N,0.232,K,A*38
$SMGPS,0.0 m,+0.01 m/s,7.60 VRx,0.001 km,6 m,170.6 °,1:-- (  0.0 km/h)*DA
$SMGPS2,-0.26 X,+0.14 Y,+0.92 Z,0 ENL,0 us*47
$GNRMC,155856.40,A,4816.48361,N,01139.86842,E,0.04,,080522,,,A*50
$GNGGA,155856.40,4816.48361,N,01139.86842,E,1,12,0.68,464.6,M,46.2,M,,*48
$GNGSA,A,3,21,32,01,08,27,10,22,23,16,,,,1.20,0.68,0.99*18
$GNVTG,,T,,M,0.028,N,0.052,K,A*30
$SMGPS,-0.0 m,+0.01 m/s,7.65 VRx,0.001 km,6 m,170.6 °,1:-- (  0.0 km/h)*F2
$SMGPS2,-0.25 X,+0.15 Y,+0.92 Z,0 ENL,0 us*45
$GNRMC,155856.50,A,4816.48360,N,01139.86840,E,0.11,,080522,,,A*56
$GNGGA,155856.50,4816.48360,N,01139.86840,E,1,12,0.68,464.6,M,46.2,M,,*4A
$GNGSA,A,3,21,32,01,08,27,10,22,23,16,,,,1.20,0.68,0.99*18
$GNVTG,,T,,M,0.105,N,0.195,K,A*34
$SMGPS,0.0 m,+0.00 m/s,7.62 VRx,0.001 km,6 m,170.6 °,1:-- (  0.0 km/h)*D9
$SMGPS2,-0.26 X,+0.14 Y,+0.92 Z,0 ENL,0 us*47
$GNRMC,155856.60,A,4816.48360,N,01139.86840,E,0.19,,080522,,,A*5D
$GNGGA,155856.60,4816.48360,N,01139.86840,E,1,12,0.68,464.6,M,46.2,M,,*49
$GNGSA,A,3,21,32,01,08,27,10,22,23,16,,,,1.20,0.68,0.99*18
$GNVTG,,T,,M,0.190,N,0.352,K,A*31
$SMGPS,-0.0 m,+0.00 m/s,7.62 VRx,0.001 km,6 m,170.6 °,1:-- (  0.0 km/h)*F4
$SMGPS2,-0.25 X,+0.14 Y,+0.92 Z,1 ENL,0 us*45
$GNRMC,155856.70,A,4816.48361,N,01139.86839,E,0.15,,080522,,,A*5F
$GNGGA,155856.70,4816.48361,N,01139.86839,E,1,12,0.68,464.6,M,46.2,M,,*47
$GNGSA,A,3,21,32,01,08,27,10,22,23,16,,,,1.20,0.68,0.99*18
$GNVTG,,T,,M,0.153,N,0.284,K,A*34
$SMGPS,0.0 m,-0.00 m/s,7.62 VRx,0.001 km,6 m,170.6 °,1:-- (  0.0 km/h)*DF
$SMGPS2,-0.25 X,+0.14 Y,+0.93 Z,0 ENL,0 us*45
$GNRMC,155856.80,A,4816.48361,N,01139.86838,E,0.09,,080522,,,A*5C
$GNGGA,155856.80,4816.48361,N,01139.86838,E,1,12,0.68,464.6,M,46.2,M,,*49
$GNGSA,A,3,21,32,01,08,27,10,22,23,16,,,,1.20,0.68,0.99*18
$GNVTG,,T,,M,0.091,N,0.168,K,A*3A
$SMGPS,-0.0 m,-0.01 m/s,7.63 VRx,0.001 km,6 m,170.6 °,1:-- (  0.0 km/h)*F2
$SMGPS2,-0.25 X,+0.15 Y,+0.92 Z,0 ENL,0 us*45
$GNRMC,155856.90,A,4816.48361,N,01139.86838,E,0.05,,080522,,,A*51
$GNGGA,155856.90,4816.48361,N,01139.86838,E,1,12,0.68,464.6,M,46.2,M,,*48
$GNGSA,A,3,21,32,01,08,27,10,22,23,16,,,,1.20,0.68,0.99*18
$GNVTG,,T,,M,0.045,N,0.083,K,A*37
$SMGPS,0.0 m,-0.01 m/s,7.62 VRx,0.001 km,6 m,170.6 °,1:-- (  0.0 km/h)*DE
$SMGPS2,-0.25 X,+0.15 Y,+0.92 Z,1 ENL,0 us*44
$GNRMC,155857.00,A,4816.48362,N,01139.86837,E,0.04,,080522,,,A*54
$GNGGA,155857.00,4816.48362,N,01139.86837,E,1,12,0.68,464.6,M,46.2,M,,*4C
$GNGSA,A,3,21,32,01,08,27,10,22,23,16,,,,1.20,0.68,0.99*18
$GNVTG,,T,,M,0.043,N,0.079,K,A*34
$SMGPS,-0.0 m,-0.01 m/s,7.63 VRx,0.001 km,6 m,170.6 °,1:-- (  0.0 km/h)*F2
$SMGPS2,-0.25 X,+0.14 Y,+0.92 Z,0 ENL,0 us*44
$GNRMC,155857.10,A,4816.48363,N,01139.86837,E,0.17,,080522,,,A*56
$GNGGA,155857.10,4816.48363,N,01139.86837,E,1,12,0.68,464.6,M,46.2,M,,*4C
$GNGSA,A,3,21,32,01,08,27,10,22,23,16,,,,1.20,0.68,0.99*18
$GNVTG,,T,,M,0.165,N,0.306,K,A*3A
$SMGPS,0.0 m,-0.01 m/s,7.61 VRx,0.001 km,6 m,170.6 °,1:-- (  0.0 km/h)*DD
$SMGPS2,-0.25 X,+0.14 Y,+0.92 Z,0 ENL,0 us*44
$GNRMC,155857.20,A,4816.48364,N,01139.86837,E,0.18,,080522,,,A*5D
$GNGGA,155857.20,4816.48364,N,01139.86837,E,1,12,0.68,464.6,M,46.2,M,,*48
$GNGSA,A,3,21,32,01,08,27,10,22,23,16,,,,1.20,0.68,0.99*18
$GNVTG,,T,,M,0.178,N,0.329,K,A*3B
$SMGPS,-0.0 m,-0.01 m/s,7.64 VRx,0.001 km,6 m,170.6 °,1:-- (  0.0 km/h)*F5
$SMGPS2,-0.26 X,+0.15 Y,+0.92 Z,1 ENL,0 us*47
$GNRMC,155857.30,A,4816.48364,N,01139.86837,E,0.12,,080522,,,A*56
$GNGGA,155857.30,4816.48364,N,01139.86837,E,1,12,0.68,464.6,M,46.2,M,,*49
$GNGSA,A,3,21,32,01,08,27,10,22,23,16,,,,1.20,0.68,0.99*18
$GNVTG,,T,,M,0.124,N,0.229,K,A*33
$SMGPS,-0.0 m,-0.01 m/s,7.60 VRx,0.001 km,6 m,170.6 °,1:-- (  0.0 km/h)*F1
$SMGPS2,-0.26 X,+0.14 Y,+0.92 Z,0 ENL,0 us*47
$GNRMC,155857.40,A,4816.48365,N,01139.86836,E,0.16,,080522,,,A*55
$GNGGA,155857.40,4816.48365,N,01139.86836,E,1,12,0.68,464.6,M,46.2,M,,*4E
$GNGSA,A,3,21,32,01,08,27,10,22,23,16,,,,1.20,0.68,0.99*18
$GNVTG,,T,,M,0.160,N,0.296,K,A*37
$SMGPS,-0.0 m,-0.01 m/s,7.63 VRx,0.001 km,6 m,170.6 °,1:-- (  0.0 km/h)*F2
$SMGPS2,-0.26 X,+0.14 Y,+0.92 Z,0 ENL,0 us*47
$GNRMC,155857.50,A,4816.48366,N,01139.86835,E,0.07,,080522,,,A*54
$GNGGA,155857.50,4816.48366,N,01139.86835,E,1,12,0.68,464.6,M,46.2,M,,*4F
$GNGSA,A,3,21,32,01,08,27,10,22,23,16,,,,1.20,0.68,0.99*18
$GNVTG,,T,,M,0.067,N,0.125,K,A*3A
$SMGPS,-0.0 m,-0.01 m/s,7.60 VRx,0.001 km,5 m,168.9 °,1:-- (  0.0 km/h)*F4
$SMGPS2,-0.25 X,+0.15 Y,+0.92 Z,0 ENL,0 us*45
$GNRMC,155857.60,A,4816.48367,N,01139.86835,E,0.06,,080522,,,A*57
$GNGGA,155857.60,4816.48367,N,01139.86835,E,1,12,0.68,464.6,M,46.2,M,,*4D
$GNGSA,A,3,21,32,01,08,27,10,22,23,16,,,,1.20,0.68,0.99*18
$GNVTG,,T,,M,0.058,N,0.107,K,A*36
$SMGPS,0.0 m,-0.00 m/s,7.63 VRx,0.001 km,5 m,168.9 °,1:-- (  0.0 km/h)*DB
$SMGPS2,-0.26 X,+0.14 Y,+0.92 Z,1 ENL,0 us*46
$GNRMC,155857.70,A,4816.48367,N,01139.86834,E,0.06,,080522,,,A*57
$GNGGA,155857.70,4816.48367,N,01139.86834,E,1,12,0.68,464.6,M,46.2,M,,*4D
$GNGSA,A,3,21,32,01,08,27,10,22,23,16,,,,1.20,0.68,0.99*18
$GNVTG,,T,,M,0.057,N,0.106,K,A*38
$SMGPS,0.0 m,+0.00 m/s,7.61 VRx,0.001 km,5 m,168.9 °,1:-- (  0.0 km/h)*DF
$SMGPS2,-0.25 X,+0.15 Y,+0.92 Z,0 ENL,0 us*45
$GNRMC,155857.80,A,4816.48367,N,01139.86832,E,0.04,,080522,,,A*5C
$GNGGA,155857.80,4816.48367,N,01139.86832,E,1,12,0.63,464.6,M,46.2,M,,*4F
$GNGSA,A,3,21,32,01,08,27,10,22,23,14,16,,,1.10,0.63,0.91*1D
$GNVTG,,T,,M,0.041,N,0.076,K,A*39
$SMGPS,0.0 m,-0.00 m/s,7.64 VRx,0.001 km,5 m,170.6 °,1:-- (  0.0 km/h)*DA
$SMGPS2,-0.25 X,+0.14 Y,+0.92 Z,0 ENL,0 us*44
$GNRMC,155857.90,A,4816.48367,N,01139.86831,E,0.21,,080522,,,A*59
$GNGGA,155857.90,4816.48367,N,01139.86831,E,1,12,0.63,464.6,M,46.2,M,,*4D
$GNGSA,A,3,21,32,01,08,27,10,22,23,14,16,,,1.10,0.63,0.91*1D
$GNVTG,,T,,M,0.207,N,0.384,K,A*37
$SMGPS,0.0 m,+0.00 m/s,7.61 VRx,0.001 km,5 m,170.6 °,1:-- (  0.0 km/h)*D9
$SMGPS2,-0.25 X,+0.15 Y,+0.92 Z,1 ENL,0 us*44
$GNRMC,155858.00,A,4816.48367,N,01139.86830,E,0.14,,080522,,,A*58
$GNGGA,155858.00,4816.48367,N,01139.86830,E,1,12,0.63,464.6,M,46.2,M,,*4A
$GNGSA,A,3,21,32,01,08,27,10,22,23,14,16,,,1.10,0.63,0.91*1D
$GNVTG,,T,,M,0.136,N,0.252,K,A*3C
$SMGPS,-0.0 m,+0.01 m/s,7.63 VRx,0.001 km,5 m,170.6 °,1:-- (  0.0 km/h)*F7
$SMGPS2,-0.25 X,+0.15 Y,+0.92 Z,0 ENL,0 us*45
$GNRMC,155858.10,A,4816.48367,N,01139.86829,E,0.12,,080522,,,A*57
$GNGGA,155858.10,4816.48367,N,01139.86829,E,1,12,0.63,464.6,M,46.2,M,,*43
$GNGSA,A,3,21,32,01,08,27,10,22,23,14,16,,,1.10,0.63,0.91*1D
$GNVTG,,T,,M,0.121,N,0.225,K,A*3A
$SMGPS,-0.0 m,+0.00 m/s,7.61 VRx,0.001 km,5 m,170.6 °,1:-- (  0.0 km/h)*F4
$SMGPS2,-0.25 X,+0.14 Y,+0.92 Z,0 ENL,0 us*44
$GNRMC,155858.20,A,4816.48368,N,01139.86828,E,0.18,,080522,,,A*50
$GNGGA,155858.20,4816.48368,N,01139.86828,E,1,12,0.63,464.6,M,46.2,M,,*4E
$GNGSA,A,3,21,32,01,08,27,10,22,23,14,16,,,1.10,0.63,0.91*1D
$GNVTG,,T,,M,0.184,N,0.341,K,A*36
$SMGPS,0.0 m,+0.00 m/s,7.63 VRx,0.001 km,5 m,170.6 °,1:-- (  0.0 km/h)*DB
$SMGPS2,-0.26 X,+0.14 Y,+0.92 Z,0 ENL,0 us*47
$GNRMC,155858.30,A,4816.48368,N,01139.86827,E,0.03,,080522,,,A*54
$GNGGA,155858.30,4816.48368,N,01139.86827,E,1,12,0.63,464.6,M,46.2,M,,*40
$GNGSA,A,3,21,32,01,08,27,10,22,23,14,16,,,1.10,0.63,0.91*1D
$GNVTG,,T,,M,0.032,N,0.058,K,A*31
$SMGPS,0.0 m,+0.00 m/s,7.61 VRx,0.001 km,5 m,170.6 °,1:-- (  0.0 km/h)*D9
$SMGPS2,-0.25 X,+0.14 Y,+0.92 Z,0 ENL,0 us*44
$GNRMC,155858.40,A,4816.48367,N,01139.86825,E,0.17,,080522,,,A*5B
$GNGGA,155858.40,4816.48367,N,01139.86825,E,1,12,0.63,464.6,M,46.2,M,,*4A
$GNGSA,A,3,21,32,01,08,27,10,22,23,14,16,,,1.10,0.63,0.91*1D
$GNVTG,,T,,M,0.174,N,0.321,K,A*3F
$SMGPS,0.0 m,-0.01 m/s,7.63 VRx,0.001 km,5 m,170.6 °,1:-- (  0.0 km/h)*DC
$SMGPS2,-0.26 X,+0.15 Y,+0.92 Z,0 ENL,0 us*46
$GNRMC,155858.50,A,4816.48367,N,01139.86824,E,0.11,,080522,,,A*5D
$GNGGA,155858.50,4816.48367,N,01139.86824,E,1,12,0.63,464.6,M,46.2,M,,*4A
$GNGSA,A,3,21,32,01,08,27,10,22,23,14,16,,,1.10,0.63,0.91*1D
$GNVTG,,T,,M,0.109,N,0.202,K,A*35
$SMGPS,0.0 m,-0.00 m/s,7.61 VRx,0.001 km,5 m,170.6 °,1:-- (  0.0 km/h)*DF
$SMGPS2,-0.26 X,+0.15 Y,+0.92 Z,0 ENL,0 us*46
$GNRMC,155858.60,A,4816.48366,N,01139.86823,E,0.06,,080522,,,A*5E
$GNGGA,155858.60,4816.48366,N,01139.86823,E,1,12,0.63,464.6,M,46.2,M,,*4F
$GNGSA,A,3,21,32,01,08,27,10,22,23,14,16,,,1.10,0.63,0.91*1D
$GNVTG,,T,,M,0.058,N,0.107,K,A*36
$SMGPS,-0.0 m,-0.00 m/s,7.64 VRx,0.001 km,5 m,170.6 °,1:-- (  0.0 km/h)*F7
$SMGPS2,-0.26 X,+0.14 Y,+0.93 Z,0 ENL,0 us*46
$GNRMC,155858.70,A,4816.48366,N,01139.86822,E,0.10,,080522,,,A*59
$GNGGA,155858.70,4816.48366,N,01139.86822,E,1,12,0.63,464.6,M,46.2,M,,*4F
$GNGSA,A,3,21,32,01,08,27,10,22,23,14,16,,,1.10,0.63,0.91*1D
$GNVTG,,T,,M,0.103,N,0.192,K,A*35
$SMGPS,0.0 m,-0.01 m/s,7.60 VRx,0.001 km,5 m,170.6 °,1:-- (  0.0 km/h)*DF
$SMGPS2,-0.26 X,+0.15 Y,+0.92 Z,0 ENL,0 us*46
$GNRMC,155858.80,A,4816.48365,N,01139.86820,E,0.02,,080522,,,A*54
$GNGGA,155858.80,4816.48365,N,01139.86820,E,1,12,0.63,464.6,M,46.2,M,,*41
$GNGSA,A,3,21,32,01,08,27,10,22,23,14,16,,,1.10,0.63,0.91*1D
$GNVTG,,T,,M,0.014,N,0.025,K,A*3F
$SMGPS,-0.0 m,-0.01 m/s,7.64 VRx,0.001 km,5 m,172.2 °,1:-- (  0.0 km/h)*F0
$SMGPS2,-0.26 X,+0.14 Y,+0.92 Z,0 ENL,0 us*47
$GNRMC,155858.90,A,4816.48365,N,01139.86819,E,0.02,,080522,,,A*5F
$GNGGA,155858.90,4816.48365,N,01139.86819,E,1,12,0.63,464.6,M,46.2,M,,*4A
$GNGSA,A,3,21,32,01,08,27,10,22,23,14,16,,,1.10,0.63,0.91*1D
$GNVTG,,T,,M,0.019,N,0.035,K,A*33
$SMGPS,0.0 m,-0.01 m/s,7.61 VRx,0.001 km,5 m,172.2 °,1:-- (  0.0 km/h)*D8
$SMGPS2,-0.25 X,+0.14 Y,+0.92 Z,0 ENL,0 us*44
$GNRMC,155859.00,A,4816.48364,N,01139.86818,E,0.08,,080522,,,A*5D
$GNGGA,155859.00,4816.48364,N,01139.86818,E,1,12,0.63,464.6,M,46.2,M,,*42
$GNGSA,A,3,21,32,01,08,27,10,22,23,14,16,,,1.10,0.63,0.91*1D
$GNVTG,,T,,M,0.080,N,0.148,K,A*38
$SMGPS,-0.0 m,-0.01 m/s,7.64 VRx,0.001 km,5 m,172.2 °,1:-- (  0.0 km/h)*F0
$SMGPS2,-0.26 X,+0.14 Y,+0.92 Z,0 ENL,0 us*47
$GNRMC,155859.10,A,4816.48363,N,01139.86817,E,0.20,,080522,,,A*5E
$GNGGA,155859.10,4816.48363,N,01139.86817,E,1,12,0.63,464.6,M,46.2,M,,*4B
$GNGSA,A,3,21,32,01,08,27,10,22,23,14,16,,,1.10,0.63,0.91*1D
$GNVTG,,T,,M,0.202,N,0.374,K,A*3D
$SMGPS,0.0 m,-0.01 m/s,7.61 VRx,0.001 km,6 m,173.4 °,1:-- (  0.0 km/h)*DC
$SMGPS2,-0.26 X,+0.15 Y,+0.92 Z,0 ENL,0 us*46
$GNRMC,155859.20,A,4816.48363,N,01139.86817,E,0.07,,080522,,,A*58
$GNGGA,155859.20,4816.48363,N,01139.86817,E,1,12,0.63,464.6,M,46.2,M,,*48
$GNGSA,A,3,21,32,01,08,27,10,22,23,14,16,,,1.10,0.63,0.91*1D
$GNVTG,,T,,M,0.074,N,0.137,K,A*3B
$SMGPS,0.0 m,-0.01 m/s,7.63 VRx,0.001 km,6 m,173.4 °,1:-- (  0.0 km/h)*DE
$SMGPS2,-0.25 X,+0.15 Y,+0.92 Z,0 ENL,0 us*45
$GNRMC,155859.30,A,4816.48362,N,01139.86816,E,0.08,,080522,,,A*56
$GNGGA,155859.30,4816.48362,N,01139.86816,E,1,12,0.63,464.6,M,46.2,M,,*49
$GNGSA,A,3,21,32,01,08,27,10,22,23,14,16,,,1.10,0.63,0.91*1D
$GNVTG,,T,,M,0.077,N,0.142,K,A*3A
$SMGPS,0.0 m,-0.01 m/s,7.62 VRx,0.001 km,6 m,173.4 °,1:-- (  0.0 km/h)*DF
$SMGPS2,-0.26 X,+0.14 Y,+0.92 Z,0 ENL,0 us*47
$GNRMC,155859.40,A,4816.48362,N,01139.86815,E,0.14,,080522,,,A*5F
$GNGGA,155859.40,4816.48362,N,01139.86815,E,1,12,0.63,464.6,M,46.2,M,,*4D
$GNGSA,A,3,21,32,01,08,27,10,22,23,14,16,,,1.10,0.63,0.91*1D
$GNVTG,,T,,M,0.139,N,0.257,K,A*36
$SMGPS,0.0 m,-0.00 m/s,7.63 VRx,0.001 km,6 m,173.4 °,1:-- (  0.0 km/h)*DF
$SMGPS2,-0.25 X,+0.14 Y,+0.92 Z,0 ENL,0 us*44
$GNRMC,155859.50,A,4816.48362,N,01139.86815,E,0.26,,080522,,,A*5F
$GNGGA,155859.50,4816.48362,N,01139.86815,E,1,12,0.63,464.6,M,46.2,M,,*4C
$GNGSA,A,3,21,32,01,08,27,10,22,23,14,16,,,1.10,0.63,0.91*1D
$GNVTG,,T,,M,0.262,N,0.486,K,A*31
$SMGPS,-0.0 m,-0.00 m/s,7.61 VRx,0.001 km,6 m,173.4 °,1:-- (  0.0 km/h)*F0
$SMGPS2,-0.25 X,+0.14 Y,+0.92 Z,0 ENL,0 us*44
$GNRMC,155859.60,A,4816.48362,N,01139.86814,E,0.06,,080522,,,A*5F
$GNGGA,155859.60,4816.48362,N,01139.86814,E,1,12,0.63,464.6,M,46.2,M,,*4E
$GNGSA,A,3,21,32,01,08,27,10,22,23,14,16,,,1.10,0.63,0.91*1D
$GNVTG,,T,,M,0.056,N,0.104,K,A*3B
$SMGPS,0.0 m,+0.00 m/s,7.63 VRx,0.001 km,6 m,173.4 °,1:-- (  0.0 km/h)*D9
$SMGPS2,-0.25 X,+0.14 Y,+0.92 Z,0 ENL,0 us*44
$GNRMC,155859.70,A,4816.48361,N,01139.86814,E,0.05,,080522,,,A*5E
$GNGGA,155859.70,4816.48361,N,01139.86814,E,1,12,0.63,464.6,M,46.2,M,,*4C
$GNGSA,A,3,21,32,01,08,27,10,22,23,14,16,,,1.10,0.63,0.91*1D
$GNVTG,,T,,M,0.043,N,0.079,K,A*34
$SMGPS,-0.0 m,+0.00 m/s,7.61 VRx,0.001 km,6 m,173.4 °,1:-- (  0.0 km/h)*F6
$SMGPS2,-0.25 X,+0.14 Y,+0.92 Z,0 ENL,0 us*44
$GNRMC,155859.80,A,4816.48361,N,01139.86814,E,0.04,,080522,,,A*50
$GNGGA,155859.80,4816.48361,N,01139.86814,E,1,12,0.63,464.6,M,46.2,M,,*43
$GNGSA,A,3,21,32,01,08,27,10,22,23,14,16,,,1.10,0.63,0.91*1D
$GNVTG,,T,,M,0.031,N,0.057,K,A*3D
$SMGPS,-0.0 m,+0.01 m/s,7.64 VRx,0.001 km,6 m,173.4 °,1:-- (  0.0 km/h)*F2
$SMGPS2,-0.26 X,+0.15 Y,+0.93 Z,0 ENL,0 us*47
$GNRMC,155859.90,A,4816.48362,N,01139.86813,E,0.05,,080522,,,A*54
$GNGGA,155859.90,4816.48362,N,01139.86813,E,1,12,0.63,464.6,M,46.2,M,,*46
$GNGSA,A,3,21,32,01,08,27,10,22,23,14,16,,,1.10,0.63,0.91*1D
$GNVTG,,T,,M,0.043,N,0.080,K,A*32
$SMGPS,-0.0 m,-0.00 m/s,7.60 VRx,0.001 km,6 m,173.4 °,1:-- (  0.0 km/h)*F1
$SMGPS2,-0.25 X,+0.14 Y,+0.92 Z,0 ENL,0 us*44
$GNRMC,155900.00,A,4816.48361,N,01139.86813,E,0.10,,080522,,,A*57
$GNGGA,155900.00,4816.48361,N,01139.86813,E,1,12,0.63,464.6,M,46.2,M,,*41
$GNGSA,A,3,21,32,01,08,27,10,22,23,14,16,,,1.10,0.63,0.91*1D
$GNVTG,,T,,M,0.099,N,0.183,K,A*37
$SMGPS,-0.0 m,+0.00 m/s,7.64 VRx,0.001 km,6 m,173.4 °,1:-- (  0.0 km/h)*F3
$SMGPS2,-0.26 X,+0.14 Y,+0.92 Z,0 ENL,0 us*47
$GNRMC,155900.10,A,4816.48361,N,01139.86813,E,0.16,,080522,,,A*50
$GNGGA,155900.10,4816.48361,N,01139.86813,E,1,12,0.63,464.6,M,46.2,M,,*40
$GNGSA,A,3,21,32,01,08,27,10,22,23,14,16,,,1.10,0.63,0.91*1D
$GNVTG,,T,,M,0.162,N,0.300,K,A*3B
$SMGPS,-0.0 m,-0.00 m/s,7.60 VRx,0.001 km,6 m,173.4 °,1:-- (  0.0 km/h)*F1
$SMGPS2,-0.26 X,+0.15 Y,+0.92 Z,1 ENL,0 us*47
$GNRMC,155900.20,A,4816.48361,N,01139.86813,E,0.04,,080522,,,A*50
$GNGGA,155900.20,4816.48361,N,01139.86813,E,1,12,0.63,464.6,M,46.2,M,,*43
$GNGSA,A,3,21,32,01,08,27,10,22,23,14,16,,,1.10,0.63,0.91*1D
$GNVTG,,T,,M,0.040,N,0.073,K,A*3D
$SMGPS,-0.0 m,-0.00 m/s,7.64 VRx,0.001 km,6 m,173.4 °,1:-- (  0.0 km/h)*F5
$SMGPS2,-0.26 X,+0.14 Y,+0.92 Z,1 ENL,0 us*46
$GNRMC,155900.30,A,4816.48361,N,01139.86812,E,0.08,,080522,,,A*5C
$GNGGA,155900.30,4816.48361,N,01139.86812,E,1,12,0.63,464.6,M,46.2,M,,*43
$GNGSA,A,3,21,32,01,08,27,10,22,23,14,16,,,1.10,0.63,0.91*1D
$GNVTG,,T,,M,0.080,N,0.148,K,A*38
$SMGPS,-0.0 m,-0.00 m/s,7.62 VRx,0.001 km,6 m,173.4 °,1:-- (  0.0 km/h)*F3
$SMGPS2,-0.25 X,+0.15 Y,+0.92 Z,0 ENL,0 us*45
$GNRMC,155900.40,A,4816.48361,N,01139.86811,E,0.10,,080522,,,A*51
$GNGGA,155900.40,4816.48361,N,01139.86811,E,1,12,0.63,464.6,M,46.2,M,,*47
$GNGSA,A,3,21,32,01,08,27,10,22,23,14,16,,,1.10,0.63,0.91*1D
$GNVTG,,T,,M,0.101,N,0.187,K,A*33
$SMGPS,-0.0 m,+0.00 m/s,7.62 VRx,0.001 km,6 m,173.4 °,1:-- (  0.0 km/h)*F5
$SMGPS2,-0.26 X,+0.14 Y,+0.92 Z,0 ENL,0 us*47
$GNRMC,155900.50,A,4816.48362,N,01139.86810,E,0.09,,080522,,,A*5A
$GNGGA,155900.50,4816.48362,N,01139.86810,E,1,12,0.63,464.6,M,46.2,M,,*44
$GNGSA,A,3,21,32,01,08,27,10,22,23,14,16,,,1.10,0.63,0.91*1D
$GNVTG,,T,,M,0.093,N,0.172,K,A*33
$SMGPS,-0.0 m,+0.00 m/s,7.61 VRx,0.001 km,6 m,173.4 °,1:-- (  0.0 km/h)*F6
$SMGPS2,-0.25 X,+0.14 Y,+0.92 Z,0 ENL,0 us*44
$GNRMC,155900.60,A,4816.48362,N,01139.86810,E,0.11,,080522,,,A*50
$GNGGA,155900.60,4816.48362,N,01139.86810,E,1,12,0.63,464.6,M,46.2,M,,*47
$GNGSA,A,3,21,32,01,08,27,10,22,23,14,16,,,1.10,0.63,0.91*1D
$GNVTG,,T,,M,0.111,N,0.205,K,A*3B
$SMGPS,0.0 m,-0.00 m/s,7.64 VRx,0.001 km,6 m,174.9 °,1:-- (  0.0 km/h)*D2
$SMGPS2,-0.25 X,+0.14 Y,+0.92 Z,0 ENL,0 us*44
$GNRMC,155900.70,A,4816.48363,N,01139.86809,E,0.20,,080522,,,A*5A
$GNGGA,155900.70,4816.48363,N,01139.86809,E,1,12,0.63,464.6,M,46.2,M,,*4F
$GNGSA,A,3,21,32,01,08,27,10,22,23,14,16,,,1.10,0.63,0.91*1D
$GNVTG,,T,,M,0.199,N,0.369,K,A*30
$SMGPS,0.0 m,+0.00 m/s,7.61 VRx,0.001 km,6 m,174.9 °,1:-- (  0.0 km/h)*D1
$SMGPS2,-0.25 X,+0.15 Y,+0.92 Z,0 ENL,0 us*45
$GNRMC,155900.80,A,4816.48363,N,01139.86809,E,0.14,,080522,,,A*52
$GNGGA,155900.80,4816.48363,N,01139.86809,E,1,12,0.63,464.6,M,46.2,M,,*40
$GNGSA,A,3,21,32,01,08,27,10,22,23,14,16,,,1.10,0.63,0.91*1D
$GNVTG,,T,,M,0.143,N,0.265,K,A*3A
$SMGPS,0.0 m,+0.00 m/s,7.63 VRx,0.001 km,6 m,174.9 °,1:-- (  0.0 km/h)*D3
$SMGPS2,-0.26 X,+0.14 Y,+0.91 Z,1 ENL,0 us*45
$GNRMC,155900.90,A,4816.48364,N,01139.86808,E,0.19,,080522,,,A*58
$GNGGA,155900.90,4816.48364,N,01139.86808,E,1,12,0.63,464.6,M,46.2,M,,*47
$GNGSA,A,3,21,32,01,08,27,10,22,23,14,16,,,1.10,0.63,0.91*1D
$GNVTG,,T,,M,0.190,N,0.352,K,A*31
$SMGPS,0.0 m,+0.00 m/s,7.61 VRx,0.001 km,6 m,174.9 °,1:-- (  0.0 km/h)*D1
$SMGPS2,-0.26 X,+0.14 Y,+0.93 Z,0 ENL,0 us*46
$GNRMC,155901.00,A,4816.48364,N,01139.86808,E,0.24,,080522,,,A*5E
$GNGGA,155901.00,4816.48364,N,01139.86808,E,1,12,0.63,464.6,M,46.2,M,,*4F
$GNGSA,A,3,21,32,01,08,27,10,22,23,14,16,,,1.10,0.63,0.91*1D
$GNVTG,,T,,M,0.244,N,0.452,K,A*3C
$SMGPS,-0.0 m,+0.01 m/s,7.64 VRx,0.001 km,6 m,174.9 °,1:-- (  0.0 km/h)*F8
$SMGPS2,-0.26 X,+0.14 Y,+0.92 Z,0 ENL,0 us*47
$GNRMC,155901.10,A,4816.48365,N,01139.86808,E,0.00,,080522,,,A*58
$GNGGA,155901.10,4816.48365,N,01139.86808,E,1,12,0.63,464.6,M,46.2,M,,*4F
$GNGSA,A,3,21,32,01,08,27,10,22,23,14,16,,,1.10,0.63,0.91*1D
$GNVTG,,T,,M,0.003,N,0.006,K,A*38
$SMGPS,-0.0 m,+0.00 m/s,7.60 VRx,0.001 km,6 m,174.9 °,1:-- (  0.0 km/h)*FD
$SMGPS2,-0.26 X,+0.14 Y,+0.92 Z,0 ENL,0 us*47
$GNRMC,155901.20,A,4816.48366,N,01139.86807,E,0.12,,080522,,,A*54
$GNGGA,155901.20,4816.48366,N,01139.86807,E,1,12,0.63,464.6,M,46.2,M,,*40
$GNGSA,A,3,21,32,01,08,27,10,22,23,14,16,,,1.10,0.63,0.91*1D
$GNVTG,,T,,M,0.120,N,0.222,K,A*3C
$SMGPS,-0.0 m,+0.00 m/s,7.66 VRx,0.001 km,5 m,174.0 °,1:-- (  0.0 km/h)*F1
$SMGPS2,-0.26 X,+0.15 Y,+0.92 Z,0 ENL,0 us*46
$GNRMC,155901.30,A,4816.48366,N,01139.86807,E,0.07,,080522,,,A*51
$GNGGA,155901.30,4816.48366,N,01139.86807,E,1,12,0.63,464.6,M,46.2,M,,*41
$GNGSA,A,3,21,32,01,08,27,10,22,23,14,16,,,1.10,0.63,0.91*1D
$GNVTG,,T,,M,0.066,N,0.122,K,A*3C
$SMGPS,0.0 m,+0.00 m/s,7.61 VRx,0.001 km,5 m,174.0 °,1:-- (  0.0 km/h)*DB
$SMGPS2,-0.26 X,+0.14 Y,+0.92 Z,0 ENL,0 us*47
$GNRMC,155901.40,A,4816.48366,N,01139.86806,E,0.08,,080522,,,A*58
$GNGGA,155901.40,4816.48366,N,01139.86806,E,1,12,0.63,464.6,M,46.2,M,,*47
$GNGSA,A,3,21,32,01,08,27,10,22,23,14,16,,,1.10,0.63,0.91*1D
$GNVTG,,T,,M,0.079,N,0.145,K,A*33
$SMGPS,-0.0 m,+0.00 m/s,7.63 VRx,0.001 km,5 m,174.0 °,1:-- (  0.0 km/h)*F4
$SMGPS2,-0.26 X,+0.14 Y,+0.92 Z,1 ENL,0 us*46
$GNRMC,155901.50,A,4816.48366,N,01139.86805,E,0.11,,080522,,,A*52
$GNGGA,155901.50,4816.48366,N,01139.86805,E,1,12,0.63,464.6,M,46.2,M,,*45
$GNGSA,A,3,21,32,01,08,27,10,22,23,14,16,,,1.10,0.63,0.91*1D
$GNVTG,,T,,M,0.110,N,0.204,K,A*3B
$SMGPS,0.0 m,-0.00 m/s,7.61 VRx,0.001 km,5 m,174.0 °,1:-- (  0.0 km/h)*DD
$SMGPS2,-0.25 X,+0.14 Y,+0.92 Z,1 ENL,0 us*45
$GNRMC,155901.60,A,4816.48366,N,01139.86805,E,0.21,,080522,,,A*52
$GNGGA,155901.60,4816.48366,N,01139.86805,E,1,12,0.63,464.6,M,46.2,M,,*46
$GNGSA,A,3,21,32,01,08,27,10,22,23,14,16,,,1.10,0.63,0.91*1D
$GNVTG,,T,,M,0.210,N,0.389,K,A*3C
$SMGPS,0.0 m,-0.00 m/s,7.63 VRx,0.001 km,5 m,174.0 °,1:-- (  0.0 km/h)*DF
$SMGPS2,-0.25 X,+0.15 Y,+0.92 Z,0 ENL,0 us*45
$GNRMC,155901.70,A,4816.48366,N,01139.86804,E,0.09,,080522,,,A*58
$GNGGA,155901.70,4816.48366,N,01139.86804,E,1,12,0.63,464.6,M,46.2,M,,*46
$GNGSA,A,3,21,32,01,08,27,10,22,23,14,16,,,1.10,0.63,0.91*1D
$GNVTG,,T,,M,0.094,N,0.174,K,A*32
$SMGPS,0.0 m,+0.00 m/s,7.61 VRx,0.001 km,5 m,174.0 °,1:-- (  0.0 km/h)*DB
$SMGPS2,-0.25 X,+0.14 Y,+0.92 Z,1 ENL,0 us*45
$GNRMC,155901.80,A,4816.48366,N,01139.86803,E,0.07,,080522,,,A*5E
$GNGGA,155901.80,4816.48366,N,01139.86803,E,1,12,0.63,464.6,M,46.2,M,,*4E
$GNGSA,A,3,21,32,01,08,27,10,22,23,14,16,,,1.10,0.63,0.91*1D
$GNVTG,,T,,M,0.071,N,0.132,K,A*3B
$SMGPS,0.0 m,+0.00 m/s,7.63 VRx,0.001 km,5 m,174.0 °,1:-- (  0.0 km/h)*D9
$SMGPS2,-0.25 X,+0.15 Y,+0.92 Z,0 ENL,0 us*45
$GNRMC,155901.90,A,4816.48367,N,01139.86803,E,0.10,,080522,,,A*58
$GNGGA,155901.90,4816.48367,N,01139.86803,E,1,12,0.63,464.6,M,46.2,M,,*4E
$GNGSA,A,3,21,32,01,08,27,10,22,23,14,16,,,1.10,0.63,0.91*1D
$GNVTG,,T,,M,0.097,N,0.180,K,A*3A
$SMGPS,0.0 m,+0.00 m/s,7.61 VRx,0.001 km,5 m,174.0 °,1:-- (  0.0 km/h)*DB
$SMGPS2,-0.25 X,+0.14 Y,+0.92 Z,1 ENL,0 us*45
$GNRMC,155902.00,A,4816.48367,N,01139.86802,E,0.14,,080522,,,A*57
$GNGGA,155902.00,4816.48367,N,01139.86802,E,1,12,0.63,464.6,M,46.2,M,,*45
$GNGSA,A,3,21,32,01,08,27,10,22,23,14,16,,,1.10,0.63,0.91*1D
$GNVTG,,T,,M,0.138,N,0.256,K,A*36
$SMGPS,0.0 m,+0.00 m/s,7.63 VRx,0.001 km,5 m,174.0 °,1:-- (  0.0 km/h)*D9
$SMGPS2,-0.26 X,+0.14 Y,+0.92 Z,0 ENL,0 us*47
$GNRMC,155902.10,A,4816.48367,N,01139.86801,E,0.09,,080522,,,A*59
$GNGGA,155902.10,4816.48367,N,01139.86801,E,1,12,0.63,464.6,M,46.2,M,,*47
$GNGSA,A,3,21,32,01,08,27,10,22,23,14,16,,,1.10,0.63,0.91*1D
$GNVTG,,T,,M,0.084,N,0.156,K,A*33
$SMGPS,0.0 m,+0.01 m/s,7.60 VRx,0.001 km,5 m,174.0 °,1:-- (  0.0 km/h)*DB
$SMGPS2,-0.25 X,+0.14 Y,+0.92 Z,1 ENL,0 us*45
$GNRMC,155902.20,A,4816.48368,N,01139.86801,E,0.09,,080522,,,A*55
$GNGGA,155902.20,4816.48368,N,01139.86801,E,1,12,0.63,464.6,M,46.2,M,,*4B
$GNGSA,A,3,21,32,01,08,27,10,22,23,14,16,,,1.10,0.63,0.91*1D
$GNVTG,,T,,M,0.084,N,0.155,K,A*30
$SMGPS,-0.0 m,+0.00 m/s,7.64 VRx,0.001 km,5 m,174.0 °,1:-- (  0.0 km/h)*F3
$SMGPS2,-0.25 X,+0.15 Y,+0.92 Z,0 ENL,0 us*45
$GNRMC,155902.30,A,4816.48368,N,01139.86801,E,0.12,,080522,,,A*5E
$GNGGA,155902.30,4816.48368,N,01139.86801,E,1,12,0.68,464.6,M,46.2,M,,*41
$GNGSA,A,3,21,32,01,08,27,10,22,23,16,,,,1.20,0.68,0.99*18
$GNVTG,,T,,M,0.120,N,0.222,K,A*3C
$SMGPS,-0.0 m,+0.00 m/s,7.61 VRx,0.001 km,5 m,174.0 °,1:-- (  0.0 km/h)*F6
$SMGPS2,-0.26 X,+0.15 Y,+0.92 Z,0 ENL,0 us*46
$GNRMC,155902.40,A,4816.48370,N,01139.86801,E,0.15,,080522,,,A*57
$GNGGA,155902.40,4816.48370,N,01139.86801,E,1,12,0.68,464.6,M,46.2,M,,*4F
$GNGSA,A,3,21,32,01,08,27,10,22,23,16,,,,1.20,0.68,0.99*18
$GNVTG,,T,,M,0.146,N,0.271,K,A*3A
$SMGPS,0.0 m,-0.00 m/s,7.64 VRx,0.001 km,5 m,174.0 °,1:-- (  0.0 km/h)*D8
$SMGPS2,-0.26 X,+0.15 Y,+0.92 Z,1 ENL,0 us*47
$GNRMC,155902.50,A,4816.48371,N,01139.86800,E,0.09,,080522,,,A*5B
$GNGGA,155902.50,4816.48371,N,01139.86800,E,1,12,0.68,464.6,M,46.2,M,,*4E
$GNGSA,A,3,21,32,01,08,27,10,22,23,16,,,,1.20,0.68,0.99*18
$GNVTG,,T,,M,0.082,N,0.153,K,A*30
$SMGPS,-0.0 m,+0.00 m/s,7.60 VRx,0.001 km,5 m,174.0 °,1:-- (  0.0 km/h)*F7
$SMGPS2,-0.25 X,+0.14 Y,+0.97 Z,1 ENL,0 us*40
$GNRMC,155902.60,A,4816.48371,N,01139.86800,E,0.07,,080522,,,A*56
$GNGGA,155902.60,4816.48371,N,01139.86800,E,1,12,0.63,464.6,M,46.2,M,,*46
$GNGSA,A,3,21,32,01,08,27,10,22,23,14,16,,,1.10,0.63,0.91*1D
$GNVTG,,T,,M,0.059,N,0.109,K,A*39
$SMGPS,-0.0 m,+0.00 m/s,7.64 VRx,0.001 km,5 m,174.0 °,1:-- (  0.0 km/h)*F3
$SMGPS2,-0.25 X,+0.15 Y,+0.91 Z,0 ENL,0 us*46
$GNRMC,155902.70,A,4816.48372,N,01139.86799,E,0.03,,080522,,,A*5F
$GNGGA,155902.70,4816.48372,N,01139.86799,E,1,12,0.63,464.6,M,46.2,M,,*4B
$GNGSA,A,3,21,32,01,08,27,10,22,23,14,16,,,1.10,0.63,0.91*1D
$GNVTG,,T,,M,0.016,N,0.030,K,A*39
$SMGPS,0.0 m,+0.00 m/s,7.61 VRx,0.001 km,5 m,174.0 °,1:-- (  0.0 km/h)*DB
$SMGPS2,-0.25 X,+0.15 Y,+0.92 Z,0 ENL,0 us*45
$GNRMC,155902.80,A,4816.48372,N,01139.86798,E,0.23,,080522,,,A*53
$GNGGA,155902.80,4816.48372,N,01139.86798,E,1,12,0.63,464.6,M,46.2,M,,*45
$GNGSA,A,3,21,32,01,08,27,10,22,23,14,16,,,1.10,0.63,0.91*1D
$GNVTG,,T,,M,0.232,N,0.429,K,A*31
$SMGPS,0.0 m,+0.00 m/s,7.63 VRx,0.001 km,5 m,174.0 °,1:-- (  0.0 km/h)*D9
$SMGPS2,-0.25 X,+0.14 Y,+0.92 Z,0 ENL,0 us*44
$GNRMC,155902.90,A,4816.48372,N,01139.86798,E,0.07,,080522,,,A*54
$GNGGA,155902.90,4816.48372,N,01139.86798,E,1,12,0.63,464.6,M,46.2,M,,*44
$GNGSA,A,3,21,32,01,08,27,10,22,23,14,16,,,1.10,0.63,0.91*1D
$GNVTG,,T,,M,0.062,N,0.114,K,A*3D
$SMGPS,-0.0 m,+0.00 m/s,7.62 VRx,0.001 km,5 m,176.5 °,1:-- (  0.0 km/h)*F2
$SMGPS2,-0.26 X,+0.15 Y,+0.92 Z,0 ENL,0 us*46
$GNRMC,155903.00,A,4816.48372,N,01139.86797,E,0.15,,080522,,,A*50
$GNGGA,155903.00,4816.48372,N,01139.86797,E,1,12,0.63,464.6,M,46.2,M,,*43
$GNGSA,A,3,21,32,01,08,27,10,22,23,14,16,,,1.10,0.63,0.91*1D
$GNVTG,,T,,M,0.146,N,0.269,K,A*33
$SMGPS,-0.0 m,+0.01 m/s,7.63 VRx,0.001 km,5 m,176.5 °,1:-- (  0.0 km/h)*F2
$SMGPS2,-0.25 X,+0.15 Y,+0.92 Z,0 ENL,0 us*45
$GNRMC,155903.10,A,4816.48373,N,01139.86797,E,0.11,,080522,,,A*54
$GNGGA,155903.10,4816.48373,N,01139.86797,E,1,12,0.63,464.6,M,46.2,M,,*43
$GNGSA,A,3,21,32,01,08,27,10,22,23,14,16,,,1.10,0.63,0.91*1D
$GNVTG,,T,,M,0.109,N,0.202,K,A*35
$SMGPS,-0.0 m,+0.01 m/s,7.62 VRx,0.001 km,5 m,176.5 °,1:-- (  0.0 km/h)*F3
$SMGPS2,-0.25 X,+0.14 Y,+0.92 Z,0 ENL,0 us*44
$GNRMC,155903.20,A,4816.48373,N,01139.86797,E,0.11,,080522,,,A*57
$GNGGA,155903.20,4816.48373,N,01139.86797,E,1,12,0.63,464.6,M,46.2,M,,*40
$GNGSA,A,3,21,32,01,08,27,10,22,23,14,16,,,1.10,0.63,0.91*1D
$GNVTG,,T,,M,0.114,N,0.211,K,A*3B
$SMGPS,0.0 m,+0.00 m/s,7.63 VRx,0.001 km,5 m,176.5 °,1:-- (  0.0 km/h)*DE
$SMGPS2,-0.25 X,+0.14 Y,+0.92 Z,0 ENL,0 us*44
$GNRMC,155903.30,A,4816.48374,N,01139.86796,E,0.04,,080522,,,A*54
$GNGGA,155903.30,4816.48374,N,01139.86796,E,1,12,0.63,464.6,M,46.2,M,,*47
$GNGSA,A,3,21,32,01,08,27,10,22,23,14,16,,,1.10,0.63,0.91*1D
$GNVTG,,T,,M,0.038,N,0.070,K,A*31
$SMGPS,0.0 m,-0.01 m/s,7.61 VRx,0.001 km,5 m,176.5 °,1:-- (  0.0 km/h)*DB
$SMGPS2,-0.25 X,+0.14 Y,+0.92 Z,1 ENL,0 us*45
$GNRMC,155903.40,A,4816.48375,N,01139.86796,E,0.20,,080522,,,A*54
$GNGGA,155903.40,4816.48375,N,01139.86796,E,1,12,0.63,464.6,M,46.2,M,,*41
$GNGSA,A,3,21,32,01,08,27,10,22,23,14,16,,,1.10,0.63,0.91*1D
$GNVTG,,T,,M,0.198,N,0.367,K,A*3F
$SMGPS,0.0 m,-0.01 m/s,7.63 VRx,0.001 km,5 m,176.5 °,1:-- (  0.0 km/h)*D9
$SMGPS2,-0.26 X,+0.15 Y,+0.92 Z,0 ENL,0 us*46
$GNRMC,155903.50,A,4816.48375,N,01139.86796,E,0.24,,080522,,,A*51
$GNGGA,155903.50,4816.48375,N,01139.86796,E,1,12,0.63,464.6,M,46.2,M,,*40
$GNGSA,A,3,21,32,01,08,27,10,22,23,14,16,,,1.10,0.63,0.91*1D
$GNVTG,,T,,M,0.233,N,0.431,K,A*39
$SMGPS,-0.0 m,-0.01 m/s,7.61 VRx,0.001 km,5 m,176.5 °,1:-- (  0.0 km/h)*F6
$SMGPS2,-0.25 X,+0.14 Y,+0.92 Z,0 ENL,0 us*44
$GNRMC,155903.60,A,4816.48375,N,01139.86795,E,0.11,,080522,,,A*57
$GNGGA,155903.60,4816.48375,N,01139.86795,E,1,12,0.68,464.6,M,46.2,M,,*4B
$GNGSA,A,3,21,32,01,08,27,10,22,23,16,,,,1.20,0.68,0.99*18
$GNVTG,,T,,M,0.103,N,0.191,K,A*36
$SMGPS,0.0 m,-0.01 m/s,7.63 VRx,0.001 km,5 m,176.5 °,1:-- (  0.0 km/h)*D9
$SMGPS2,-0.25 X,+0.14 Y,+0.92 Z,0 ENL,0 us*44
$GNRMC,155903.70,A,4816.48376,N,01139.86795,E,0.06,,080522,,,A*53
$GNGGA,155903.70,4816.48376,N,01139.86795,E,1,12,0.68,464.6,M,46.2,M,,*49
$GNGSA,A,3,21,32,01,08,27,10,22,23,16,,,,1.20,0.68,0.99*18
$GNVTG,,T,,M,0.058,N,0.107,K,A*36
$SMGPS,0.0 m,-0.02 m/s,7.60 VRx,0.001 km,5 m,176.5 °,1:-- (  0.0 km/h)*D9
$SMGPS2,-0.25 X,+0.14 Y,+0.92 Z,1 ENL,0 us*45
$GNRMC,155903.80,A,4816.48377,N,01139.86795,E,0.09,,080522,,,A*52
$GNGGA,155903.80,4816.48377,N,01139.86795,E,1,12,0.68,464.6,M,46.2,M,,*47
$GNGSA,A,3,21,32,01,08,27,10,22,23,16,,,,1.20,0.68,0.99*18
$GNVTG,,T,,M,0.086,N,0.160,K,A*34
$SMGPS,-0.0 m,-0.02 m/s,7.64 VRx,0.001 km,5 m,176.5 °,1:-- (  0.0 km/h)*F0
$SMGPS2,-0.25 X,+0.14 Y,+0.92 Z,0 ENL,0 us*44
$GNRMC,155903.90,A,4816.48378,N,01139.86795,E,0.17,,080522,,,A*53
$GNGGA,155903.90,4816.48378,N,01139.86795,E,1,12,0.68,464.6,M,46.2,M,,*49
$GNGSA,A,3,21,32,01,08,27,10,22,23,16,,,,1.20,0.68,0.99*18
$GNVTG,,T,,M,0.172,N,0.318,K,A*33
$SMGPS,0.0 m,-0.02 m/s,7.60 VRx,0.001 km,5 m,176.5 °,1:-- (  0.0 km/h)*D9
$SMGPS2,-0.25 X,+0.14 Y,+0.92 Z,1 ENL,0 us*45
$GNRMC,155904.00,A,4816.48379,N,01139.86795,E,0.08,,080522,,,A*52
$GNGGA,155904.00,4816.48379,N,01139.86795,E,1,12,0.68,464.6,M,46.2,M,,*46
$GNGSA,A,3,21,32,01,08,27,10,22,23,16,,,,1.20,0.68,0.99*18
$GNVTG,,T,,M,0.081,N,0.149,K,A*38
$SMGPS,0.0 m,-0.01 m/s,7.63 VRx,0.001 km,5 m,176.5 °,1:-- (  0.0 km/h)*D9
$SMGPS2,-0.26 X,+0.15 Y,+0.93 Z,0 ENL,0 us*47
$GNRMC,155904.10,A,4816.48380,N,01139.86795,E,0.07,,080522,,,A*5A
$GNGGA,155904.10,4816.48380,N,01139.86795,E,1,12,0.68,464.6,M,46.2,M,,*41
$GNGSA,A,3,21,32,01,08,27,10,22,23,16,,,,1.20,0.68,0.99*18
$GNVTG,,T,,M,0.070,N,0.130,K,A*38
$SMGPS,0.0 m,-0.01 m/s,7.61 VRx,0.001 km,5 m,176.5 °,1:-- (  0.0 km/h)*DB
$SMGPS2,-0.25 X,+0.14 Y,+0.93 Z,0 ENL,0 us*45
$GNRMC,155904.20,A,4816.48381,N,01139.86795,E,0.23,,080522,,,A*5E
$GNGGA,155904.20,4816.48381,N,01139.86795,E,1,12,0.68,464.6,M,46.2,M,,*43
$GNGSA,A,3,21,32,01,08,27,10,22,23,16,,,,1.20,0.68,0.99*18
$GNVTG,,T,,M,0.233,N,0.432,K,A*3A
$SMGPS,0.0 m,-0.01 m/s,7.63 VRx,0.001 km,5 m,176.5 °,1:-- (  0.0 km/h)*D9
$SMGPS2,-0.25 X,+0.14 Y,+0.91 Z,0 ENL,0 us*47
$GNRMC,155904.30,A,4816.48381,N,01139.86795,E,0.03,,080522,,,A*5D
$GNGGA,155904.30,4816.48381,N,01139.86795,E,1,12,0.68,464.6,M,46.2,M,,*42
$GNGSA,A,3,21,32,01,08,27,10,22,23,16,,,,1.20,0.68,0.99*18
$GNVTG,,T,,M,0.034,N,0.062,K,A*3E
$SMGPS,-0.0 m,-0.00 m/s,7.61 VRx,0.001 km,5 m,176.5 °,1:-- (  0.0 km/h)*F7
$SMGPS2,-0.25 X,+0.14 Y,+0.92 Z,0 ENL,0 us*44
$GNRMC,155904.40,A,4816.48381,N,01139.86794,E,0.11,,080522,,,A*58
$GNGGA,155904.40,4816.48381,N,01139.86794,E,1,12,0.63,464.6,M,46.2,M,,*4F
$GNGSA,A,3,21,32,01,08,27,10,22,23,14,16,,,1.10,0.63,0.91*1D
$GNVTG,,T,,M,0.109,N,0.201,K,A*36
$SMGPS,0.0 m,-0.00 m/s,7.63 VRx,0.001 km,5 m,176.5 °,1:-- (  0.0 km/h)*D8
$SMGPS2,-0.26 X,+0.14 Y,+0.92 Z,0 ENL,0 us*47
$GNRMC,155904.50,A,4816.48381,N,01139.86794,E,0.09,,080522,,,A*50
$GNGGA,155904.50,4816.48381,N,01139.86794,E,1,12,0.63,464.6,M,46.2,M,,*4E
$GNGSA,A,3,21,32,01,08,27,10,22,23,14,16,,,1.10,0.63,0.91*1D
$GNVTG,,T,,M,0.086,N,0.158,K,A*3F
$SMGPS,0.0 m,-0.00 m/s,7.61 VRx,0.001 km,5 m,176.5 °,1:-- (  0.0 km/h)*DA
$SMGPS2,-0.26 X,+0.15 Y,+0.92 Z,0 ENL,0 us*46
$GNRMC,155904.60,A,4816.48381,N,01139.86793,E,0.02,,080522,,,A*5F
$GNGGA,155904.60,4816.48381,N,01139.86793,E,1,12,0.63,464.6,M,46.2,M,,*4A
$GNGSA,A,3,21,32,01,08,27,10,22,23,14,16,,,1.10,0.63,0.91*1D
$GNVTG,,T,,M,0.015,N,0.028,K,A*33
$SMGPS,-0.0 m,-0.00 m/s,7.63 VRx,0.001 km,5 m,176.5 °,1:-- (  0.0 km/h)*F5
$SMGPS2,-0.26 X,+0.14 Y,+0.92 Z,0 ENL,0 us*47
$GNRMC,155904.70,A,4816.48381,N,01139.86793,E,0.27,,080522,,,A*59
$GNGGA,155904.70,4816.48381,N,01139.86793,E,1,12,0.68,464.6,M,46.2,M,,*40
$GNGSA,A,3,21,32,01,08,27,10,22,23,16,,,,1.20,0.68,0.99*18
$GNVTG,,T,,M,0.269,N,0.498,K,A*35
$SMGPS,-0.0 m,-0.01 m/s,7.61 VRx,0.001 km,5 m,176.5 °,1:-- (  0.0 km/h)*F6
$SMGPS2,-0.26 X,+0.14 Y,+0.92 Z,3 ENL,0 us*44
$GNRMC,155904.80,A,4816.48381,N,01139.86793,E,0.12,,080522,,,A*50
$GNGGA,155904.80,4816.48381,N,01139.86793,E,1,12,0.68,464.6,M,46.2,M,,*4F
$GNGSA,A,3,21,32,01,08,27,10,22,23,16,,,,1.20,0.68,0.99*18
$GNVTG,,T,,M,0.123,N,0.228,K,A*35
$SMGPS,0.0 m,-0.01 m/s,7.64 VRx,0.001 km,5 m,176.5 °,1:-- (  0.0 km/h)*DE
$SMGPS2,-0.25 X,+0.13 Y,+0.92 Z,1 ENL,0 us*42
$GNRMC,155904.90,A,4816.48381,N,01139.86792,E,0.07,,080522,,,A*54
$GNGGA,155904.90,4816.48381,N,01139.86792,E,1,12,0.68,464.6,M,46.2,M,,*4F
$GNGSA,A,3,21,32,01,08,27,10,22,23,16,,,,1.20,0.68,0.99*18
$GNVTG,,T,,M,0.068,N,0.127,K,A*37
$SMGPS,-0.0 m,-0.01 m/s,7.60 VRx,0.001 km,5 m,176.5 °,1:-- (  0.0 km/h)*F7
$SMGPS2,-0.25 X,+0.14 Y,+0.92 Z,1 ENL,0 us*45
$GNRMC,155905.00,A,4816.48381,N,01139.86792,E,0.04,,080522,,,A*5F
$GNGGA,155905.00,4816.48381,N,01139.86792,E,1,12,0.68,464.6,M,46.2,M,,*47
$GNGSA,A,3,21,32,01,08,27,10,22,23,16,,,,1.20,0.68,0.99*18
$GNVTG,,T,,M,0.037,N,0.068,K,A*37
$SMGPS,-0.0 m,-0.01 m/s,7.64 VRx,0.001 km,5 m,176.5 °,1:-- (  0.0 km/h)*F3
$SMGPS2,-0.25 X,+0.14 Y,+0.92 Z,1 ENL,0 us*45
$GNRMC,155905.10,A,4816.48381,N,01139.86792,E,0.18,,080522,,,A*53
$GNGGA,155905.10,4816.48381,N,01139.86792,E,1,12,0.68,464.6,M,46.2,M,,*46
$GNGSA,A,3,21,32,01,08,27,10,22,23,16,,,,1.20,0.68,0.99*18
$GNVTG,,T,,M,0.184,N,0.341,K,A*36
$SMGPS,0.0 m,-0.01 m/s,7.61 VRx,0.001 km,5 m,176.5 °,1:-- (  0.0 km/h)*DB
$SMGPS2,-0.26 X,+0.14 Y,+0.92 Z,0 ENL,0 us*47
$GNRMC,155905.20,A,4816.48381,N,01139.86792,E,0.07,,080522,,,A*5E
$GNGGA,155905.20,4816.48381,N,01139.86792,E,1,12,0.68,464.6,M,46.2,M,,*45
$GNGSA,A,3,21,32,01,08,27,10,22,23,16,,,,1.20,0.68,0.99*18
$GNVTG,,T,,M,0.071,N,0.131,K,A*38
$SMGPS,0.0 m,-0.01 m/s,7.64 VRx,0.001 km,5 m,176.5 °,1:-- (  0.0 km/h)*DE
$SMGPS2,-0.26 X,+0.14 Y,+0.92 Z,0 ENL,0 us*47
$GNRMC,155905.30,A,4816.48381,N,01139.86792,E,0.04,,080522,,,A*5C
$GNGGA,155905.30,4816.48381,N,01139.86792,E,1,12,0.68,464.6,M,46.2,M,,*44
$GNGSA,A,3,21,32,01,08,27,10,22,23,16,,,,1.20,0.68,0.99*18
$GNVTG,,T,,M,0.044,N,0.082,K,A*37
$SMGPS,-0.0 m,-0.00 m/s,7.61 VRx,0.001 km,5 m,176.5 °,1:-- (  0.0 km/h)*F7
$SMGPS2,-0.25 X,+0.14 Y,+0.92 Z,0 ENL,0 us*44
$GNRMC,155905.40,A,4816.48382,N,01139.86791,E,0.11,,080522,,,A*5F
$GNGGA,155905.40,4816.48382,N,01139.86791,E,1,12,0.68,464.6,M,46.2,M,,*43
$GNGSA,A,3,21,32,01,08,27,10,22,23,16,,,,1.20,0.68,0.99*18
$GNVTG,,T,,M,0.112,N,0.208,K,A*35
$SMGPS,0.0 m,+0.00 m/s,7.63 VRx,0.001 km,5 m,176.5 °,1:-- (  0.0 km/h)*DE
$SMGPS2,-0.25 X,+0.14 Y,+0.92 Z,0 ENL,0 us*44
$GNRMC,155905.50,A,4816.48382,N,01139.86791,E,0.16,,080522,,,A*59
$GNGGA,155905.50,4816.48382,N,01139.86791,E,1,12,0.68,464.6,M,46.2,M,,*42
$GNGSA,A,3,21,32,01,08,27,10,22,23,16,,,,1.20,0.68,0.99*18
$GNVTG,,T,,M,0.157,N,0.291,K,A*34
$SMGPS,-0.0 m,+0.01 m/s,7.62 VRx,0.001 km,5 m,176.5 °,1:-- (  0.0 km/h)*F3
$SMGPS2,-0.25 X,+0.14 Y,+0.92 Z,0 ENL,0 us*44
$GNRMC,155905.60,A,4816.48382,N,01139.86791,E,0.18,,080522,,,A*54
$GNGGA,155905.60,4816.48382,N,01139.86791,E,1,12,0.68,464.6,M,46.2,M,,*41
$GNGSA,A,3,21,32,01,08,27,10,22,23,16,,,,1.20,0.68,0.99*18
$GNVTG,,T,,M,0.183,N,0.338,K,A*3F
$SMGPS,0.0 m,+0.01 m/s,7.63 VRx,0.001 km,5 m,176.5 °,1:-- (  0.0 km/h)*DF
$SMGPS2,-0.25 X,+0.14 Y,+0.92 Z,0 ENL,0 us*44
$GNRMC,155905.70,A,4816.48383,N,01139.86791,E,0.09,,080522,,,A*54
$GNGGA,155905.70,4816.48383,N,01139.86791,E,1,12,0.68,464.6,M,46.2,M,,*41
$GNGSA,A,3,21,32,01,08,27,10,22,23,16,,,,1.20,0.68,0.99*18
$GNVTG,,T,,M,0.091,N,0.169,K,A*3B
$SMGPS,0.0 m,+0.01 m/s,7.61 VRx,0.001 km,5 m,176.5 °,1:-- (  0.0 km/h)*DD
$SMGPS2,-0.25 X,+0.15 Y,+0.92 Z,0 ENL,0 us*45
$GNRMC,155905.80,A,4816.48383,N,01139.86791,E,0.11,,080522,,,A*52
$GNGGA,155905.80,4816.48383,N,01139.86791,E,1,12,0.68,464.6,M,46.2,M,,*4E
$GNGSA,A,3,21,32,01,08,27,10,22,23,16,,,,1.20,0.68,0.99*18
$GNVTG,,T,,M,0.113,N,0.209,K,A*35
$SMGPS,-0.0 m,+0.01 m/s,7.63 VRx,0.001 km,5 m,176.5 °,1:-- (  0.0 km/h)*F2
$SMGPS2,-0.25 X,+0.14 Y,+0.92 Z,0 ENL,0 us*44
$GNRMC,155905.90,A,4816.48383,N,01139.86791,E,0.07,,080522,,,A*54
$GNGGA,155905.90,4816.48383,N,01139.86791,E,1,12,0.68,464.6,M,46.2,M,,*4F
$GNGSA,A,3,21,32,01,08,27,10,22,23,16,,,,1.20,0.68,0.99*18
$GNVTG,,T,,M,0.069,N,0.128,K,A*39
$SMGPS,0.0 m,+0.01 m/s,7.61 VRx,0.001 km,5 m,176.5 °,1:-- (  0.0 km/h)*DD
$SMGPS2,-0.25 X,+0.14 Y,+0.92 Z,0 ENL,0 us*44
$GNRMC,155906.00,A,4816.48383,N,01139.86791,E,0.06,,080522,,,A*5F
$GNGGA,155906.00,4816.48383,N,01139.86791,E,1,12,0.68,464.6,M,46.2,M,,*45
$GNGSA,A,3,21,32,01,08,27,10,22,23,16,,,,1.20,0.68,0.99*18
$GNVTG,,T,,M,0.058,N,0.108,K,A*39
$SMGPS,-0.0 m,+0.01 m/s,7.63 VRx,0.001 km,5 m,176.5 °,1:-- (  0.0 km/h)*F2
$SMGPS2,-0.25 X,+0.14 Y,+0.91 Z,1 ENL,0 us*46
$GNRMC,155906.10,A,4816.48383,N,01139.86791,E,0.17,,080522,,,A*5E
$GNGGA,155906.10,4816.48383,N,01139.86791,E,1,12,0.68,464.6,M,46.2,M,,*44
$GNGSA,A,3,21,32,01,08,27,10,22,23,16,,,,1.20,0.68,0.99*18
$GNVTG,,T,,M,0.170,N,0.315,K,A*3C
$SMGPS,-0.0 m,+0.01 m/s,7.60 VRx,0.001 km,5 m,176.5 °,1:-- (  0.0 km/h)*F1
$SMGPS2,-0.26 X,+0.15 Y,+0.92 Z,0 ENL,0 us*46
$GNRMC,155906.20,A,4816.48384,N,01139.86791,E,0.24,,080522,,,A*5A
$GNGGA,155906.20,4816.48384,N,01139.86791,E,1,12,0.68,464.6,M,46.2,M,,*40
$GNGSA,A,3,21,32,01,08,27,10,22,23,16,,,,1.20,0.68,0.99*18
$GNVTG,,T,,M,0.238,N,0.441,K,A*35
$SMGPS,0.0 m,+0.01 m/s,7.63 VRx,0.001 km,5 m,176.5 °,1:-- (  0.0 km/h)*DF
$SMGPS2,-0.25 X,+0.14 Y,+0.92 Z,0 ENL,0 us*44
$GNRMC,155906.30,A,4816.48384,N,01139.86791,E,0.11,,080522,,,A*5D
$GNGGA,155906.30,4816.48384,N,01139.86791,E,1,12,0.68,464.6,M,46.2,M,,*41
$GNGSA,A,3,21,32,01,08,27,10,22,23,16,,,,1.20,0.68,0.99*18
$GNVTG,,T,,M,0.107,N,0.198,K,A*3B
$SMGPS,0.0 m,+0.00 m/s,7.60 VRx,0.001 km,5 m,176.5 °,1:-- (  0.0 km/h)*DD
$SMGPS2,-0.25 X,+0.14 Y,+0.92 Z,0 ENL,0 us*44
$GNRMC,155906.40,A,4816.48384,N,01139.86791,E,0.04,,080522,,,A*5E
$GNGGA,155906.40,4816.48384,N,01139.86791,E,1,12,0.68,464.6,M,46.2,M,,*46
$GNGSA,A,3,21,32,01,08,27,10,22,23,16,,,,1.20,0.68,0.99*18
$GNVTG,,T,,M,0.036,N,0.067,K,A*39
$SMGPS,-0.0 m,+0.00 m/s,7.63 VRx,0.001 km,5 m,176.5 °,1:-- (  0.0 km/h)*F3
$SMGPS2,-0.25 X,+0.14 Y,+0.92 Z,0 ENL,0 us*44
$GNRMC,155906.50,A,4816.48384,N,01139.86791,E,0.17,,080522,,,A*5D
$GNGGA,155906.50,4816.48384,N,01139.86791,E,1,12,0.68,464.6,M,46.2,M,,*47
$GNGSA,A,3,21,32,01,08,27,10,22,23,16,,,,1.20,0.68,0.99*18
$GNVTG,,T,,M,0.167,N,0.310,K,A*3F
$SMGPS,-0.0 m,-0.01 m/s,7.61 VRx,0.001 km,5 m,176.5 °,1:-- (  0.0 km/h)*F6
$SMGPS2,-0.25 X,+0.14 Y,+0.92 Z,0 ENL,0 us*44
$GNRMC,155906.60,A,4816.48384,N,01139.86791,E,0.12,,080522,,,A*5B
$GNGGA,155906.60,4816.48384,N,01139.86791,E,1,12,0.68,464.6,M,46.2,M,,*44
$GNGSA,A,3,21,32,01,08,27,10,22,23,16,,,,1.20,0.68,0.99*18
$GNVTG,,T,,M,0.115,N,0.213,K,A*38
$SMGPS,0.0 m,-0.01 m/s,7.63 VRx,0.001 km,5 m,176.5 °,1:-- (  0.0 km/h)*D9
$SMGPS2,-0.26 X,+0.14 Y,+0.92 Z,0 ENL,0 us*47
$GNRMC,155906.70,A,4816.48385,N,01139.86791,E,0.06,,080522,,,A*5E
$GNGGA,155906.70,4816.48385,N,01139.86791,E,1,12,0.68,464.6,M,46.2,M,,*44
$GNGSA,A,3,21,32,01,08,27,10,22,23,16,,,,1.20,0.68,0.99*18
$GNVTG,,T,,M,0.061,N,0.114,K,A*3E
$SMGPS,-0.0 m,-0.01 m/s,7.60 VRx,0.001 km,5 m,176.5 °,1:-- (  0.0 km/h)*F7
$SMGPS2,-0.25 X,+0.14 Y,+0.92 Z,0 ENL,0 us*44
$GNRMC,155906.80,A,4816.48384,N,01139.86791,E,0.10,,080522,,,A*57
$GNGGA,155906.80,4816.48384,N,01139.86791,E,1,12,0.68,464.6,M,46.2,M,,*4A
$GNGSA,A,3,21,32,01,08,27,10,22,23,16,,,,1.20,0.68,0.99*18
$GNVTG,,T,,M,0.096,N,0.177,K,A*33
$SMGPS,0.0 m,-0.01 m/s,7.63 VRx,0.001 km,5 m,176.5 °,1:-- (  0.0 km/h)*D9
$SMGPS2,-0.25 X,+0.14 Y,+0.92 Z,1 ENL,0 us*45
$GNRMC,155906.90,A,4816.48384,N,01139.86791,E,0.08,,080522,,,A*5F
$GNGGA,155906.90,4816.48384,N,01139.86791,E,1,12,0.68,464.6,M,46.2,M,,*4B
$GNGSA,A,3,21,32,01,08,27,10,22,23,16,,,,1.20,0.68,0.99*18
$GNVTG,,T,,M,0.077,N,0.144,K,A*3C
$SMGPS,0.0 m,-0.01 m/s,7.68 VRx,0.001 km,5 m,176.5 °,1:-- (  0.0 km/h)*D2
$SMGPS2,-0.25 X,+0.14 Y,+0.92 Z,0 ENL,0 us*44
$GNRMC,155907.00,A,4816.48384,N,01139.86791,E,0.08,,080522,,,A*57
$GNGGA,155907.00,4816.48384,N,01139.86791,E,1,12,0.68,464.6,M,46.2,M,,*43
$GNGSA,A,3,21,32,01,08,27,10,22,23,16,,,,1.20,0.68,0.99*18
$GNVTG,,T,,M,0.079,N,0.146,K,A*30
