$GPSSETUP,8AE8,0,1,1,0,0,1,0,0,0,1,3,0,0,0,0,6,0,C8,C8,1F4,1C2,32,64,7C,64,7D0,5,1,1,1E,0,0,0,0,0,0,1003,4,10,5,6,10,10,10,10,10,10,10,10,10,BC10,0,7C,0,108,302,604,0,20F,0,0,0,0,0,0,0,0,0,0,0,0,0,0,0,0,0,0,0,0,0,0,0,0,0,0,0,0,0,0,0,0,0,20,12C,877D*47
$GNRMC,163114.90,A,4816.48453,N,01139.86706,E,0.34,,080522,,,A*5D
$GNGGA,163114.90,4816.48453,N,01139.86706,E,1,11,1.09,474.0,M,46.2,M,,*44
$GNGSA,A,3,32,08,21,27,01,10,22,14,,,,,1.87,1.09,1.52*16
$GNVTG,,T,,M,0.344,N,0.637,K,A*3C
$SMGPS,-0.0 m,-0.02 m/s,7.61 VRx,0.000 km,1 m,51.3 °,1:-- (  0.0 km/h)*C2
$SMGPS2,-0.18 X,-0.11 Y,+0.92 Z,2 ENL,0 us*4B
$GNRMC,163115.00,A,4816.48479,N,01139.86772,E,0.20,,080522,,,A*5B
$GNGGA,163115.00,4816.48479,N,01139.86772,E,1,11,1.09,474.0,M,46.2,M,,*47
$GNGSA,A,3,32,08,21,27,01,10,22,14,,,,,1.87,1.09,1.52*16
$GNVTG,,T,,M,0.198,N,0.367,K,A*3F
$SMGPS,0.0 m,-0.02 m/s,7.61 VRx,0.000 km,1 m,90.0 °,1:-- (  0.0 km/h)*E1
$SMGPS2,-0.18 X,-0.05 Y,+0.99 Z,1 ENL,0 us*46
$GNRMC,163115.10,A,4816.48502,N,01139.86815,E,0.05,,080522,,,A*5E
$GNGGA,163115.10,4816.48502,N,01139.86815,E,1,12,1.01,474.0,M,46.2,M,,*4E
$GNGSA,A,3,32,08,21,27,01,10,22,14,,,,,1.67,1.01,1.33*17
$GNVTG,,T,,M,0.037,N,0.069,K,A*36
$SMGPS,-0.0 m,-0.02 m/s,7.67 VRx,0.000 km,2 m,68.2 °,1:-- (  0.0 km/h)*CC
$SMGPS2,-0.15 X,-0.05 Y,+0.95 Z,2 ENL,0 us*44
$GNRMC,163115.20,A,4816.48550,N,01139.86835,E,0.15,,080522,,,A*59
$GNGGA,163115.20,4816.48550,N,01139.86835,E,1,12,1.01,474.0,M,46.2,M,,*48
$GNGSA,A,3,32,08,21,27,01,10,22,14,,,,,1.67,1.01,1.33*17
$GNVTG,,T,,M,0.144,N,0.266,K,A*3E
$SMGPS,0.0 m,-0.02 m/s,7.55 VRx,0.000 km,3 m,72.9 °,1:-- (  0.0 km/h)*E1
$SMGPS2,-0.22 X,-0.11 Y,+0.96 Z,1 ENL,0 us*45
$GNRMC,163115.30,A,4816.48582,N,01139.86821,E,0.07,,080522,,,A*51
$GNGGA,163115.30,4816.48582,N,01139.86821,E,1,12,1.01,474.0,M,46.2,M,,*43
$GNGSA,A,3,32,08,21,27,01,10,22,14,,,,,1.67,1.01,1.33*17
$GNVTG,,T,,M,0.067,N,0.123,K,A*3C
$SMGPS,-0.0 m,-0.02 m/s,7.57 VRx,0.000 km,4 m,55.1 °,1:-- (  0.0 km/h)*C4
$SMGPS2,-0.24 X,-0.11 Y,+0.94 Z,1 ENL,0 us*41
$GNRMC,163115.40,A,4816.48571,N,01139.86796,E,0.05,,080522,,,A*5B
$GNGGA,163115.40,4816.48571,N,01139.86796,E,1,12,1.01,474.1,M,46.2,M,,*4A
$GNGSA,A,3,32,08,21,27,01,10,22,14,,,,,1.67,1.01,1.33*17
$GNVTG,,T,,M,0.050,N,0.093,K,A*32
$SMGPS,0.1 m,-0.03 m/s,7.55 VRx,0.000 km,4 m,42.8 °,1:-- (  0.0 km/h)*E4
$SMGPS2,-0.12 X,-0.07 Y,+0.98 Z,1 ENL,0 us*4F
$GNRMC,163115.50,A,4816.48563,N,01139.86784,E,0.20,,080522,,,A*5D
$GNGGA,163115.50,4816.48563,N,01139.86784,E,1,12,1.01,474.0,M,46.2,M,,*4A
$GNGSA,A,3,32,08,21,27,01,10,22,14,,,,,1.67,1.01,1.33*17
$GNVTG,,T,,M,0.196,N,0.364,K,A*32
$SMGPS,-0.0 m,-0.03 m/s,7.56 VRx,0.000 km,4 m,38.9 °,1:-- (  0.0 km/h)*C7
$SMGPS2,-0.21 X,-0.12 Y,+0.90 Z,12 ENL,0 us*71
$GNRMC,163115.60,A,4816.48563,N,01139.86784,E,0.14,,080522,,,A*59
$GNGGA,163115.60,4816.48563,N,01139.86784,E,1,12,1.01,473.9,M,46.2,M,,*47
$GNGSA,A,3,32,08,21,27,01,10,22,14,,,,,1.67,1.01,1.33*17
$GNVTG,,T,,M,0.138,N,0.256,K,A*36
$SMGPS,-0.1 m,-0.02 m/s,7.55 VRx,0.000 km,4 m,37.3 °,1:-- (  0.0 km/h)*C1
$SMGPS2,-0.15 X,-0.10 Y,+0.95 Z,1 ENL,0 us*43
$GNRMC,163115.70,A,4816.48558,N,01139.86786,E,0.20,,080522,,,A*55
$GNGGA,163115.70,4816.48558,N,01139.86786,E,1,12,0.99,474.0,M,46.2,M,,*42
$GNGSA,A,3,32,08,21,27,01,10,22,14,,,,,1.58,0.99,1.24*1D
$GNVTG,,T,,M,0.196,N,0.363,K,A*35
$SMGPS,-0.0 m,-0.02 m/s,7.56 VRx,0.000 km,4 m,37.3 °,1:-- (  0.0 km/h)*C3
$SMGPS2,-0.20 X,-0.13 Y,+0.91 Z,8 ENL,0 us*4B
$GNRMC,163115.80,A,4816.48554,N,01139.86799,E,0.08,,080522,,,A*52
$GNGGA,163115.80,4816.48554,N,01139.86799,E,1,12,0.99,474.0,M,46.2,M,,*4F
$GNGSA,A,3,32,08,21,27,01,10,22,14,,,,,1.58,0.99,1.24*1D
$GNVTG,,T,,M,0.081,N,0.150,K,A*30
$SMGPS,-0.0 m,-0.02 m/s,7.55 VRx,0.000 km,3 m,48.5 °,1:-- (  0.0 km/h)*C9
$SMGPS2,-0.19 X,-0.09 Y,+0.98 Z,53 ENL,0 us*7D
$GNRMC,163115.90,A,4816.48551,N,01139.86804,E,0.31,,080522,,,A*57
$GNGGA,163115.90,4816.48551,N,01139.86804,E,1,12,0.99,474.0,M,46.2,M,,*40
$GNGSA,A,3,32,08,21,27,01,10,22,14,,,,,1.58,0.99,1.24*1D
$GNVTG,,T,,M,0.305,N,0.566,K,A*3E
$SMGPS,-0.0 m,-0.02 m/s,7.57 VRx,0.000 km,3 m,50.9 °,1:-- (  0.0 km/h)*CE
$SMGPS2,-0.22 X,-0.08 Y,+0.96 Z,23 ENL,0 us*7D
$GNRMC,163116.00,A,4816.48552,N,01139.86799,E,0.08,,080522,,,A*5F
$GNGGA,163116.00,4816.48552,N,01139.86799,E,1,12,0.99,474.0,M,46.2,M,,*42
$GNGSA,A,3,32,08,21,27,01,10,22,14,,,,,1.58,0.99,1.24*1D
$GNVTG,,T,,M,0.078,N,0.145,K,A*32
$SMGPS,-0.0 m,-0.02 m/s,7.54 VRx,0.000 km,3 m,50.9 °,1:-- (  0.0 km/h)*CD
$SMGPS2,-0.20 X,-0.08 Y,+0.93 Z,8 ENL,0 us*43
$GNRMC,163116.10,A,4816.48561,N,01139.86794,E,0.09,,080522,,,A*52
$GNGGA,163116.10,4816.48561,N,01139.86794,E,1,12,0.99,474.0,M,46.2,M,,*4E
$GNGSA,A,3,32,08,21,27,01,10,22,14,,,,,1.58,0.99,1.24*1D
$GNVTG,,T,,M,0.092,N,0.171,K,A*31
$SMGPS,0.0 m,-0.02 m/s,7.58 VRx,0.000 km,3 m,50.9 °,1:-- (  0.0 km/h)*EC
$SMGPS2,-0.17 X,-0.07 Y,+0.95 Z,14 ENL,0 us*73
$GNRMC,163116.20,A,4816.48563,N,01139.86792,E,0.17,,080522,,,A*5A
$GNGGA,163116.20,4816.48563,N,01139.86792,E,1,12,0.99,474.0,M,46.2,M,,*49
$GNGSA,A,3,32,08,21,27,01,10,22,14,,,,,1.58,0.99,1.24*1D
$GNVTG,,T,,M,0.170,N,0.315,K,A*3C
$SMGPS,-0.0 m,-0.01 m/s,7.55 VRx,0.000 km,4 m,38.9 °,1:-- (  0.0 km/h)*C6
$SMGPS2,-0.20 X,-0.08 Y,+0.95 Z,1 ENL,0 us*4C
$GNRMC,163116.30,A,4816.48560,N,01139.86783,E,0.20,,080522,,,A*5C
$GNGGA,163116.30,4816.48560,N,01139.86783,E,1,12,0.99,474.0,M,46.2,M,,*4B
$GNGSA,A,3,32,08,21,27,01,10,22,14,,,,,1.58,0.99,1.24*1D
$GNVTG,,T,,M,0.198,N,0.367,K,A*3F
$SMGPS,-0.0 m,-0.01 m/s,7.58 VRx,0.000 km,4 m,38.9 °,1:-- (  0.0 km/h)*CB
$SMGPS2,-0.17 X,-0.09 Y,+0.91 Z,2 ENL,0 us*4E
$GNRMC,163116.40,A,4816.48553,N,01139.86769,E,0.26,,080522,,,A*59
$GNGGA,163116.40,4816.48553,N,01139.86769,E,1,12,0.99,474.0,M,46.2,M,,*48
$GNGSA,A,3,32,08,21,27,01,10,22,14,,,,,1.58,0.99,1.24*1D
$GNVTG,,T,,M,0.259,N,0.480,K,A*3F
$SMGPS,0.0 m,-0.00 m/s,7.56 VRx,0.000 km,4 m,37.3 °,1:-- (  0.0 km/h)*EC
$SMGPS2,-0.20 X,-0.13 Y,+1.03 Z,4 ENL,0 us*4D
$GNRMC,163116.50,A,4816.48552,N,01139.86757,E,0.11,,080522,,,A*50
$GNGGA,163116.50,4816.48552,N,01139.86757,E,1,12,0.99,474.0,M,46.2,M,,*45
$GNGSA,A,3,32,08,21,27,01,10,22,14,,,,,1.58,0.99,1.24*1D
$GNVTG,,T,,M,0.108,N,0.200,K,A*36
$SMGPS,-0.0 m,+0.00 m/s,7.58 VRx,0.000 km,3 m,45.0 °,1:-- (  0.0 km/h)*C8
$SMGPS2,-0.19 X,-0.04 Y,+0.90 Z,24 ENL,0 us*78
$GNRMC,163116.60,A,4816.48546,N,01139.86741,E,0.16,,080522,,,A*56
$GNGGA,163116.60,4816.48546,N,01139.86741,E,1,12,0.99,474.0,M,46.2,M,,*44
$GNGSA,A,3,32,08,21,27,01,10,22,14,,,,,1.58,0.99,1.24*1D
$GNVTG,,T,,M,0.155,N,0.286,K,A*30
$SMGPS,0.0 m,+0.01 m/s,7.55 VRx,0.000 km,3 m,43.0 °,1:-- (  0.0 km/h)*EF
$SMGPS2,-0.20 X,-0.04 Y,+0.94 Z,1 ENL,0 us*41
$GNRMC,163116.70,A,4816.48543,N,01139.86732,E,0.19,,080522,,,A*59
$GNGGA,163116.70,4816.48543,N,01139.86732,E,1,12,0.99,474.0,M,46.2,M,,*44
$GNGSA,A,3,32,08,21,27,01,10,22,14,,,,,1.58,0.99,1.24*1D
$GNVTG,,T,,M,0.190,N,0.352,K,A*31
$SMGPS,0.0 m,+0.00 m/s,7.58 VRx,0.000 km,3 m,40.9 °,1:-- (  0.0 km/h)*E9
$SMGPS2,-0.17 X,-0.03 Y,+0.95 Z,1 ENL,0 us*43
$GNRMC,163116.80,A,4816.48540,N,01139.86726,E,0.10,,080522,,,A*59
$GNGGA,163116.80,4816.48540,N,01139.86726,E,1,12,0.99,474.0,M,46.2,M,,*4D
$GNGSA,A,3,32,08,21,27,01,10,22,14,,,,,1.58,0.99,1.24*1D
$GNVTG,,T,,M,0.094,N,0.175,K,A*33
$SMGPS,0.0 m,+0.01 m/s,7.56 VRx,0.000 km,3 m,38.6 °,1:-- (  0.0 km/h)*E6
$SMGPS2,-0.17 X,-0.03 Y,+0.94 Z,1 ENL,0 us*42
$GNRMC,163116.90,A,4816.48535,N,01139.86718,E,0.14,,080522,,,A*53
$GNGGA,163116.90,4816.48535,N,01139.86718,E,1,12,0.99,474.0,M,46.2,M,,*43
$GNGSA,A,3,32,08,21,27,01,10,22,14,,,,,1.58,0.99,1.24*1D
$GNVTG,,T,,M,0.138,N,0.255,K,A*35
$SMGPS,0.0 m,+0.01 m/s,7.57 VRx,0.000 km,3 m,38.6 °,1:-- (  0.0 km/h)*E7
$SMGPS2,-0.18 X,+0.01 Y,+0.99 Z,1 ENL,0 us*44
$GNRMC,163117.00,A,4816.48529,N,01139.86698,E,0.16,,080522,,,A*5D
$GNGGA,163117.00,4816.48529,N,01139.86698,E,1,12,0.85,474.0,M,46.2,M,,*42
$GNGSA,A,3,32,08,21,27,01,10,22,14,,,,,1.49,0.85,1.22*16
$GNVTG,,T,,M,0.160,N,0.296,K,A*37
$SMGPS,-0.0 m,+0.01 m/s,7.56 VRx,0.000 km,3 m,36.2 °,1:-- (  0.0 km/h)*C1
$SMGPS2,-0.25 X,-0.05 Y,+0.91 Z,1 ENL,0 us*40
$GNRMC,163117.10,A,4816.48523,N,01139.86677,E,0.17,,080522,,,A*56
$GNGGA,163117.10,4816.48523,N,01139.86677,E,1,12,0.85,474.0,M,46.2,M,,*48
$GNGSA,A,3,32,08,21,27,01,10,22,14,,,,,1.49,0.85,1.22*16
$GNVTG,,T,,M,0.165,N,0.305,K,A*39
$SMGPS,-0.0 m,+0.00 m/s,7.57 VRx,0.000 km,2 m,29.5 °,1:-- (  0.0 km/h)*C9
$SMGPS2,-0.16 X,-0.07 Y,+0.98 Z,201 ENL,0 us*49
$GNRMC,163117.20,A,4816.48518,N,01139.86661,E,0.18,,080522,,,A*55
$GNGGA,163117.20,4816.48518,N,01139.86661,E,1,12,0.85,474.0,M,46.2,M,,*44
$GNGSA,A,3,32,08,21,27,01,10,22,14,,,,,1.49,0.85,1.22*16
$GNVTG,,T,,M,0.184,N,0.342,K,A*35
$SMGPS,-0.0 m,+0.00 m/s,7.56 VRx,0.000 km,2 m,26.5 °,1:-- (  0.0 km/h)*C7
$SMGPS2,-0.13 X,-0.00 Y,+0.93 Z,92 ENL,0 us*78
$GNRMC,163117.30,A,4816.48514,N,01139.86648,E,0.12,,080522,,,A*59
$GNGGA,163117.30,4816.48514,N,01139.86648,E,1,12,0.85,474.0,M,46.2,M,,*42
$GNGSA,A,3,32,08,21,27,01,10,22,14,,,,,1.49,0.85,1.22*16
$GNVTG,,T,,M,0.117,N,0.217,K,A*3E
$SMGPS,0.0 m,-0.00 m/s,7.58 VRx,0.000 km,2 m,20.1 °,1:-- (  0.0 km/h)*E0
$SMGPS2,-0.17 X,+0.07 Y,+0.97 Z,0 ENL,0 us*42
$GNRMC,163117.40,A,4816.48510,N,01139.86641,E,0.16,,080522,,,A*57
$GNGGA,163117.40,4816.48510,N,01139.86641,E,1,12,0.85,474.0,M,46.2,M,,*48
$GNGSA,A,3,32,08,21,27,01,10,22,14,,,,,1.49,0.85,1.22*16
$GNVTG,,T,,M,0.160,N,0.296,K,A*37
$SMGPS,0.0 m,-0.00 m/s,7.55 VRx,0.000 km,2 m,16.7 °,1:-- (  0.0 km/h)*EE
$SMGPS2,-0.21 X,+0.06 Y,+0.96 Z,3 ENL,0 us*44
$GNRMC,163117.50,A,4816.48504,N,01139.86631,E,0.10,,080522,,,A*52
$GNGGA,163117.50,4816.48504,N,01139.86631,E,1,12,0.85,474.0,M,46.2,M,,*4B
$GNGSA,A,3,32,08,21,27,01,10,22,14,,,,,1.49,0.85,1.22*16
$GNVTG,,T,,M,0.097,N,0.181,K,A*3B
$SMGPS,-0.0 m,-0.01 m/s,7.59 VRx,0.000 km,1 m,36.8 °,1:-- (  0.0 km/h)*C0
$SMGPS2,-0.16 X,+0.08 Y,+0.92 Z,2 ENL,0 us*4B
$GNRMC,163117.60,A,4816.48505,N,01139.86628,E,0.10,,080522,,,A*58
$GNGGA,163117.60,4816.48505,N,01139.86628,E,1,12,0.85,474.0,M,46.2,M,,*41
$GNGSA,A,3,32,08,21,27,01,10,22,14,,,,,1.49,0.85,1.22*16
$GNVTG,,T,,M,0.100,N,0.185,K,A*30
$SMGPS,0.0 m,-0.01 m/s,7.55 VRx,0.000 km,1 m,30.2 °,1:-- (  0.0 km/h)*ED
$SMGPS2,-0.12 X,+0.10 Y,+0.94 Z,40 ENL,0 us*76
$GNRMC,163117.70,A,4816.48503,N,01139.86629,E,0.37,,080522,,,A*5B
$GNGGA,163117.70,4816.48503,N,01139.86629,E,1,12,0.85,474.0,M,46.2,M,,*47
$GNGSA,A,3,32,08,21,27,01,10,22,14,,,,,1.49,0.85,1.22*16
$GNVTG,,T,,M,0.368,N,0.682,K,A*3C
$SMGPS,0.0 m,-0.01 m/s,7.59 VRx,0.000 km,1 m,30.2 °,1:-- (  0.0 km/h)*E1
$SMGPS2,-0.20 X,+0.09 Y,+0.96 Z,108 ENL,0 us*40
$GNRMC,163117.80,A,4816.48499,N,01139.86628,E,0.62,,080522,,,A*57
$GNGGA,163117.80,4816.48499,N,01139.86628,E,1,12,0.85,474.0,M,46.2,M,,*4B
$GNGSA,A,3,32,08,21,27,01,10,22,14,,,,,1.49,0.85,1.22*16
$GNVTG,,T,,M,0.622,N,1.151,K,A*3F
$SMGPS,0.0 m,-0.02 m/s,7.55 VRx,0.000 km,1 m,30.2 °,1:-- (  0.0 km/h)*EE
$SMGPS2,-0.24 X,+0.01 Y,+0.98 Z,1 ENL,0 us*4A
$GNRMC,163117.90,A,4816.48498,N,01139.86626,E,0.71,,080522,,,A*5B
$GNGGA,163117.90,4816.48498,N,01139.86626,E,1,12,0.85,474.0,M,46.2,M,,*45
$GNGSA,A,3,32,08,21,27,01,10,22,14,,,,,1.49,0.85,1.22*16
$GNVTG,,T,,M,0.711,N,1.317,K,A*3E
$SMGPS,-0.0 m,-0.03 m/s,7.57 VRx,0.000 km,1 m,30.2 °,1:-- (  0.0 km/h)*C0
$SMGPS2,-0.23 X,+0.22 Y,+0.98 Z,9 ENL,0 us*44
$GNRMC,163118.00,A,4816.48497,N,01139.86623,E,0.51,,080522,,,A*55
$GNGGA,163118.00,4816.48497,N,01139.86623,E,1,12,0.75,474.0,M,46.2,M,,*46
$GNGSA,A,3,32,08,21,27,01,10,22,14,,,,,1.41,0.75,1.19*19
$GNVTG,,T,,M,0.506,N,0.937,K,A*33
$SMGPS,0.0 m,-0.02 m/s,7.56 VRx,0.000 km,1 m,22.6 °,1:-- (  0.0 km/h)*EA
$SMGPS2,-0.15 X,+0.04 Y,+0.89 Z,6 ENL,0 us*4A
$GNRMC,163118.10,A,4816.48495,N,01139.86617,E,1.05,,080522,,,A*51
$GNGGA,163118.10,4816.48495,N,01139.86617,E,1,12,0.75,474.0,M,46.2,M,,*42
$GNGSA,A,3,32,08,21,27,01,10,22,14,,,,,1.41,0.75,1.19*19
$GNVTG,,T,,M,1.050,N,1.944,K,A*31
$SMGPS,-0.0 m,-0.02 m/s,7.57 VRx,0.000 km,1 m,22.6 °,1:-- (  0.0 km/h)*C6
$SMGPS2,-0.25 X,+0.09 Y,+0.97 Z,37 ENL,0 us*79
$GNRMC,163118.20,A,4816.48489,N,01139.86609,E,2.01,229.86,080522,,,A*4E
$GNGGA,163118.20,4816.48489,N,01139.86609,E,1,12,0.75,474.0,M,46.2,M,,*43
$GNGSA,A,3,32,08,21,27,01,10,22,14,,,,,1.41,0.75,1.19*19
$GNVTG,229.86,T,,M,2.007,N,3.716,K,A*22
$SMGPS,-0.0 m,-0.03 m/s,7.56 VRx,0.000 km,1 m,22.6 °,1:-- (  0.0 km/h)*C6
$SMGPS2,-0.15 X,+0.14 Y,+0.88 Z,15 ENL,0 us*78
$GNRMC,163118.30,A,4816.48480,N,01139.86600,E,2.81,217.40,080522,,,A*40
$GNGGA,163118.30,4816.48480,N,01139.86600,E,1,12,0.75,474.0,M,46.2,M,,*42
$GNGSA,A,3,32,08,21,27,01,10,22,14,,,,,1.41,0.75,1.19*19
$GNVTG,217.40,T,,M,2.805,N,5.195,K,A*24
$SMGPS,-0.0 m,-0.03 m/s,7.57 VRx,0.000 km,1 m,9.4 °,1:-- (  0.0 km/h)*FC
$SMGPS2,-0.25 X,+0.11 Y,+0.97 Z,5 ENL,0 us*41
$GNRMC,163118.40,A,4816.48464,N,01139.86587,E,5.80,210.22,080522,,,A*44
$GNGGA,163118.40,4816.48464,N,01139.86587,E,1,12,0.75,474.0,M,46.2,M,,*43
$GNGSA,A,3,32,08,21,27,01,10,22,14,,,,,1.41,0.75,1.19*19
$GNVTG,210.22,T,,M,5.803,N,10.746,K,A*1A
$SMGPS,0.0 m,-0.02 m/s,7.56 VRx,0.000 km,1 m,0.0 °,1:-- (  0.0 km/h)*DC
$SMGPS2,-0.22 X,+0.14 Y,+0.92 Z,6 ENL,0 us*45
$GNRMC,163118.50,A,4816.48448,N,01139.86574,E,5.46,209.11,080522,,,A*45
$GNGGA,163118.50,4816.48448,N,01139.86574,E,1,12,0.75,474.0,M,46.2,M,,*40
$GNGSA,A,3,32,08,21,27,01,10,22,14,,,,,1.41,0.75,1.19*19
$GNVTG,209.11,T,,M,5.461,N,10.113,K,A*1C
$SMGPS,-0.0 m,-0.02 m/s,7.58 VRx,0.000 km,1 m,350.6 °,1:-- (  0.0 km/h)*FF
$SMGPS2,-0.15 X,+0.17 Y,+0.93 Z,1 ENL,0 us*44
$GNRMC,163118.60,A,4816.48436,N,01139.86566,E,3.87,207.13,080522,,,A*4B
$GNGGA,163118.60,4816.48436,N,01139.86566,E,1,12,0.75,474.0,M,46.2,M,,*49
$GNGSA,A,3,32,08,21,27,01,10,22,14,,,,,1.41,0.75,1.19*19
$GNVTG,207.13,T,,M,3.872,N,7.171,K,A*2A
$SMGPS,0.0 m,-0.01 m/s,7.54 VRx,0.001 km,0 m,270.0 °,1:-- (  0.0 km/h)*D8
$SMGPS2,-0.25 X,+0.16 Y,+0.94 Z,1 ENL,0 us*41
$GNRMC,163118.70,A,4816.48425,N,01139.86560,E,3.20,203.40,080522,,,A*41
$GNGGA,163118.70,4816.48425,N,01139.86560,E,1,12,0.75,474.0,M,46.2,M,,*4C
$GNGSA,A,3,32,08,21,27,01,10,22,14,,,,,1.41,0.75,1.19*19
$GNVTG,203.40,T,,M,3.196,N,5.920,K,A*25
$SMGPS,0.0 m,-0.01 m/s,7.58 VRx,0.001 km,0 m,270.0 °,1:-- (  0.0 km/h)*D4
$SMGPS2,-0.21 X,+0.14 Y,+0.93 Z,0 ENL,0 us*41
$GNRMC,163118.80,A,4816.48422,N,01139.86557,E,1.56,,080522,,,A*55
$GNGGA,163118.80,4816.48422,N,01139.86557,E,1,12,0.84,474.0,M,46.2,M,,*4E
$GNGSA,A,3,32,08,21,27,01,10,22,14,,,,,1.48,0.84,1.22*16
$GNVTG,,T,,M,1.564,N,2.896,K,A*3E
$SMGPS,-0.0 m,-0.01 m/s,7.55 VRx,0.001 km,0 m,270.0 °,1:-- (  0.0 km/h)*F4
$SMGPS2,-0.22 X,+0.16 Y,+0.94 Z,1 ENL,0 us*46
$GNRMC,163118.90,A,4816.48420,N,01139.86556,E,1.04,,080522,,,A*50
$GNGGA,163118.90,4816.48420,N,01139.86556,E,1,12,0.84,474.0,M,46.2,M,,*4C
$GNGSA,A,3,32,08,21,27,01,10,22,14,,,,,1.48,0.84,1.22*16
$GNVTG,,T,,M,1.035,N,1.917,K,A*34
$SMGPS,-0.0 m,-0.01 m/s,7.59 VRx,0.001 km,0 m,270.0 °,1:-- (  0.0 km/h)*F8
$SMGPS2,-0.20 X,+0.17 Y,+0.92 Z,2 ENL,0 us*40
$GNRMC,163119.00,A,4816.48419,N,01139.86557,E,0.68,,080522,,,A*58
$GNGGA,163119.00,4816.48419,N,01139.86557,E,1,12,0.84,474.0,M,46.2,M,,*4F
$GNGSA,A,3,32,08,21,27,01,10,22,14,,,,,1.48,0.84,1.22*16
$GNVTG,,T,,M,0.681,N,1.261,K,A*36
$SMGPS,0.0 m,-0.00 m/s,7.55 VRx,0.001 km,0 m,270.0 °,1:-- (  0.0 km/h)*D8
$SMGPS2,-0.25 X,+0.15 Y,+0.96 Z,7 ENL,0 us*46
$GNRMC,163119.10,A,4816.48418,N,01139.86556,E,0.70,,080522,,,A*50
$GNGGA,163119.10,4816.48418,N,01139.86556,E,1,12,0.84,474.0,M,46.2,M,,*4E
$GNGSA,A,3,32,08,21,27,01,10,22,14,,,,,1.48,0.84,1.22*16
$GNVTG,,T,,M,0.703,N,1.301,K,A*3A
$SMGPS,-0.0 m,-0.00 m/s,7.58 VRx,0.001 km,0 m,270.0 °,1:-- (  0.0 km/h)*F8
$SMGPS2,-0.20 X,+0.11 Y,+0.84 Z,21 ENL,0 us*70
$GNRMC,163119.20,A,4816.48417,N,01139.86556,E,0.29,,080522,,,A*50
$GNGGA,163119.20,4816.48417,N,01139.86556,E,1,12,0.84,474.0,M,46.2,M,,*42
$GNGSA,A,3,32,08,21,27,01,10,22,14,,,,,1.48,0.84,1.22*16
$GNVTG,,T,,M,0.291,N,0.539,K,A*38
$SMGPS,0.0 m,+0.00 m/s,7.56 VRx,0.001 km,0 m,270.0 °,1:-- (  0.0 km/h)*DD
$SMGPS2,-0.25 X,+0.20 Y,+1.01 Z,4 ENL,0 us*4C
$GNRMC,163119.30,A,4816.48419,N,01139.86556,E,0.66,,080522,,,A*54
$GNGGA,163119.30,4816.48419,N,01139.86556,E,1,12,0.84,474.0,M,46.2,M,,*4D
$GNGSA,A,3,32,08,21,27,01,10,22,14,,,,,1.48,0.84,1.22*16
$GNVTG,,T,,M,0.660,N,1.222,K,A*3E
$SMGPS,-0.0 m,+0.00 m/s,7.57 VRx,0.001 km,0 m,270.0 °,1:-- (  0.0 km/h)*F1
$SMGPS2,-0.17 X,+0.13 Y,+0.89 Z,1 ENL,0 us*49
$GNRMC,163119.40,A,4816.48420,N,01139.86557,E,0.37,,080522,,,A*5C
$GNGGA,163119.40,4816.48420,N,01139.86557,E,1,12,0.84,474.0,M,46.2,M,,*41
$GNGSA,A,3,32,08,21,27,01,10,22,14,,,,,1.48,0.84,1.22*16
$GNVTG,,T,,M,0.366,N,0.679,K,A*36
$SMGPS,-0.0 m,+0.00 m/s,7.56 VRx,0.001 km,0 m,270.0 °,1:-- (  0.0 km/h)*F0
$SMGPS2,-0.20 X,+0.18 Y,+0.95 Z,1 ENL,0 us*4B
$GNRMC,163119.50,A,4816.48421,N,01139.86557,E,0.26,,080522,,,A*5C
$GNGGA,163119.50,4816.48421,N,01139.86557,E,1,12,0.84,474.0,M,46.2,M,,*41
$GNGSA,A,3,32,08,21,27,01,10,22,14,,,,,1.48,0.84,1.22*16
$GNVTG,,T,,M,0.257,N,0.475,K,A*3B
$SMGPS,0.0 m,+0.00 m/s,7.58 VRx,0.001 km,0 m,270.0 °,1:-- (  0.0 km/h)*D3
$SMGPS2,-0.27 X,+0.12 Y,+0.95 Z,76 ENL,0 us*76
$GNRMC,163119.60,A,4816.48421,N,01139.86561,E,1.26,,080522,,,A*5B
$GNGGA,163119.60,4816.48421,N,01139.86561,E,1,12,0.84,474.0,M,46.2,M,,*47
$GNGSA,A,3,32,08,21,27,01,10,22,14,,,,,1.48,0.84,1.22*16
$GNVTG,,T,,M,1.263,N,2.340,K,A*3E
$SMGPS,-0.0 m,-0.00 m/s,7.56 VRx,0.001 km,0 m,270.0 °,1:-- (  0.0 km/h)*F6
$SMGPS2,-0.22 X,+0.12 Y,+0.94 Z,0 ENL,0 us*43
$GNRMC,163119.70,A,4816.48420,N,01139.86565,E,0.91,,080522,,,A*52
$GNGGA,163119.70,4816.48420,N,01139.86565,E,1,12,0.84,474.0,M,46.2,M,,*43
$GNGSA,A,3,32,08,21,27,01,10,22,14,,,,,1.48,0.84,1.22*16
$GNVTG,,T,,M,0.907,N,1.679,K,A*3A
$SMGPS,0.0 m,-0.01 m/s,7.57 VRx,0.001 km,0 m,270.0 °,1:-- (  0.0 km/h)*DB
$SMGPS2,-0.22 X,+0.13 Y,+0.92 Z,1 ENL,0 us*45
$GNRMC,163119.80,A,4816.48420,N,01139.86568,E,0.15,,080522,,,A*5C
$GNGGA,163119.80,4816.48420,N,01139.86568,E,1,12,0.84,474.0,M,46.2,M,,*41
$GNGSA,A,3,32,08,21,27,01,10,22,14,,,,,1.48,0.84,1.22*16
$GNVTG,,T,,M,0.152,N,0.282,K,A*33
$SMGPS,0.0 m,-0.01 m/s,7.54 VRx,0.001 km,0 m,270.0 °,1:-- (  0.0 km/h)*D8
$SMGPS2,-0.23 X,+0.10 Y,+0.97 Z,2 ENL,0 us*41
$GNRMC,163119.90,A,4816.48416,N,01139.86571,E,0.19,,080522,,,A*5C
$GNGGA,163119.90,4816.48416,N,01139.86571,E,1,12,0.84,474.0,M,46.2,M,,*4D
$GNGSA,A,3,32,08,21,27,01,10,22,14,,,,,1.48,0.84,1.22*16
$GNVTG,,T,,M,0.186,N,0.344,K,A*31
$SMGPS,0.0 m,-0.01 m/s,7.57 VRx,0.001 km,0 m,270.0 °,1:-- (  0.0 km/h)*DB
$SMGPS2,-0.21 X,+0.10 Y,+0.94 Z,10 ENL,0 us*73
$GNRMC,163120.00,A,4816.48414,N,01139.86576,E,0.32,,080522,,,A*53
$GNGGA,163120.00,4816.48414,N,01139.86576,E,1,12,0.84,474.0,M,46.2,M,,*4B
$GNGSA,A,3,32,08,21,27,01,10,22,14,,,,,1.48,0.84,1.22*16
$GNVTG,,T,,M,0.324,N,0.601,K,A*3F
$SMGPS,-0.0 m,-0.00 m/s,7.54 VRx,0.001 km,0 m,270.0 °,1:-- (  0.0 km/h)*F4
$SMGPS2,-0.23 X,+0.15 Y,+0.93 Z,2 ENL,0 us*40
$GNRMC,163120.10,A,4816.48411,N,01139.86579,E,0.23,,080522,,,A*58
$GNGGA,163120.10,4816.48411,N,01139.86579,E,1,12,0.84,474.0,M,46.2,M,,*40
$GNGSA,A,3,32,08,21,27,01,10,22,14,,,,,1.48,0.84,1.22*16
$GNVTG,,T,,M,0.232,N,0.429,K,A*31
$SMGPS,0.0 m,-0.00 m/s,7.58 VRx,0.001 km,0 m,270.0 °,1:-- (  0.0 km/h)*D5
$SMGPS2,-0.23 X,+0.15 Y,+0.89 Z,51 ENL,0 us*7D
$GNRMC,163120.20,A,4816.48411,N,01139.86578,E,0.22,,080522,,,A*5B
$GNGGA,163120.20,4816.48411,N,01139.86578,E,1,12,0.87,474.0,M,46.2,M,,*41
$GNGSA,A,3,32,08,21,27,01,10,22,14,,,,,1.50,0.87,1.23*1D
$GNVTG,,T,,M,0.216,N,0.401,K,A*3D
$SMGPS,0.0 m,-0.00 m/s,7.55 VRx,0.001 km,1 m,189.4 °,1:-- (  0.0 km/h)*D8
$SMGPS2,-0.22 X,+0.16 Y,+0.94 Z,6 ENL,0 us*41
$GNRMC,163120.30,A,4816.48404,N,01139.86578,E,0.15,,080522,,,A*5A
$GNGGA,163120.30,4816.48404,N,01139.86578,E,1,12,0.84,474.0,M,46.2,M,,*47
$GNGSA,A,3,32,08,21,27,01,10,22,14,,,,,1.48,0.84,1.22*16
$GNVTG,,T,,M,0.147,N,0.272,K,A*38
$SMGPS,0.0 m,-0.00 m/s,7.58 VRx,0.001 km,1 m,198.4 °,1:-- (  0.0 km/h)*D5
$SMGPS2,-0.22 X,+0.15 Y,+0.93 Z,4 ENL,0 us*47
$GNRMC,163120.40,A,4816.48396,N,01139.86575,E,0.19,,080522,,,A*50
$GNGGA,163120.40,4816.48396,N,01139.86575,E,1,12,0.84,474.0,M,46.2,M,,*41
$GNGSA,A,3,32,08,21,27,01,10,22,14,,,,,1.48,0.84,1.22*16
$GNVTG,,T,,M,0.190,N,0.351,K,A*32
$SMGPS,-0.0 m,+0.00 m/s,7.54 VRx,0.001 km,1 m,198.4 °,1:-- (  0.0 km/h)*F2
$SMGPS2,-0.20 X,+0.11 Y,+0.95 Z,1 ENL,0 us*42
$GNRMC,163120.50,A,4816.48392,N,01139.86572,E,0.09,,080522,,,A*53
$GNGGA,163120.50,4816.48392,N,01139.86572,E,1,12,0.84,474.0,M,46.2,M,,*43
$GNGSA,A,3,32,08,21,27,01,10,22,14,,,,,1.48,0.84,1.22*16
$GNVTG,,T,,M,0.084,N,0.156,K,A*33
$SMGPS,0.0 m,+0.00 m/s,7.58 VRx,0.001 km,1 m,198.4 °,1:-- (  0.0 km/h)*D3
$SMGPS2,-0.23 X,+0.16 Y,+0.90 Z,266 ENL,0 us*40
$GNRMC,163120.60,A,4816.48382,N,01139.86566,E,0.17,,080522,,,A*5B
$GNGGA,163120.60,4816.48382,N,01139.86566,E,1,12,0.75,474.0,M,46.2,M,,*4A
$GNGSA,A,3,32,08,21,27,01,10,22,14,,,,,1.41,0.75,1.19*19
$GNVTG,,T,,M,0.167,N,0.310,K,A*3F
$SMGPS,0.0 m,-0.00 m/s,7.55 VRx,0.001 km,1 m,198.4 °,1:-- (  0.0 km/h)*D8
$SMGPS2,-0.22 X,+0.14 Y,+0.94 Z,10 ENL,0 us*74
$GNRMC,163120.70,A,4816.48374,N,01139.86565,E,0.18,,080522,,,A*5F
$GNGGA,163120.70,4816.48374,N,01139.86565,E,1,12,0.69,474.0,M,46.2,M,,*4C
$GNGSA,A,3,32,08,21,27,01,10,22,14,03,,,,1.30,0.69,1.10*18
$GNVTG,,T,,M,0.173,N,0.320,K,A*39
$SMGPS,-0.0 m,-0.00 m/s,7.56 VRx,0.001 km,1 m,206.5 °,1:-- (  0.0 km/h)*F3
$SMGPS2,-0.23 X,+0.15 Y,+0.93 Z,0 ENL,0 us*42
$GNRMC,163120.80,A,4816.48371,N,01139.86567,E,0.30,,080522,,,A*5D
$GNGGA,163120.80,4816.48371,N,01139.86567,E,1,12,0.69,474.0,M,46.2,M,,*44
$GNGSA,A,3,32,08,21,27,01,10,22,14,03,,,,1.30,0.69,1.10*18
$GNVTG,,T,,M,0.304,N,0.564,K,A*3D
$SMGPS,-0.0 m,-0.00 m/s,7.56 VRx,0.001 km,1 m,206.5 °,1:-- (  0.0 km/h)*F3
$SMGPS2,-0.23 X,+0.17 Y,+0.93 Z,0 ENL,0 us*40
$GNRMC,163120.90,A,4816.48373,N,01139.86567,E,0.26,,080522,,,A*59
$GNGGA,163120.90,4816.48373,N,01139.86567,E,1,12,0.75,474.0,M,46.2,M,,*4A
$GNGSA,A,3,32,08,21,27,01,10,22,14,,,,,1.41,0.75,1.19*19
$GNVTG,,T,,M,0.258,N,0.477,K,A*36
$SMGPS,-0.0 m,-0.00 m/s,7.57 VRx,0.001 km,1 m,198.4 °,1:-- (  0.0 km/h)*F7
$SMGPS2,-0.23 X,+0.19 Y,+0.92 Z,0 ENL,0 us*4F
$GNRMC,163121.00,A,4816.48372,N,01139.86564,E,0.21,,080522,,,A*54
$GNGGA,163121.00,4816.48372,N,01139.86564,E,1,12,0.69,474.0,M,46.2,M,,*4D
$GNGSA,A,3,32,08,21,27,01,10,22,14,03,,,,1.30,0.69,1.10*18
$GNVTG,,T,,M,0.208,N,0.385,K,A*39
$SMGPS,0.0 m,-0.00 m/s,7.55 VRx,0.001 km,1 m,198.4 °,1:-- (  0.0 km/h)*D8
$SMGPS2,-0.23 X,+0.19 Y,+0.92 Z,0 ENL,0 us*4F
$GNRMC,163121.10,A,4816.48366,N,01139.86563,E,0.13,,080522,,,A*56
$GNGGA,163121.10,4816.48366,N,01139.86563,E,1,12,0.69,474.0,M,46.2,M,,*4E
$GNGSA,A,3,32,08,21,27,01,10,22,14,03,,,,1.30,0.69,1.10*18
$GNVTG,,T,,M,0.130,N,0.240,K,A*39
$SMGPS,0.0 m,-0.01 m/s,7.58 VRx,0.001 km,1 m,206.5 °,1:-- (  0.0 km/h)*D1
$SMGPS2,-0.24 X,+0.21 Y,+0.92 Z,0 ENL,0 us*43
$GNRMC,163121.20,A,4816.48361,N,01139.86565,E,0.21,,080522,,,A*55
$GNGGA,163121.20,4816.48361,N,01139.86565,E,1,12,0.69,474.0,M,46.2,M,,*4C
$GNGSA,A,3,32,08,21,27,01,10,22,14,03,,,,1.30,0.69,1.10*18
$GNVTG,,T,,M,0.207,N,0.382,K,A*31
$SMGPS,-0.0 m,-0.00 m/s,7.54 VRx,0.001 km,1 m,206.5 °,1:-- (  0.0 km/h)*F1
$SMGPS2,-0.23 X,+0.22 Y,+0.92 Z,0 ENL,0 us*47
$GNRMC,163121.30,A,4816.48354,N,01139.86565,E,0.10,,080522,,,A*50
$GNGGA,163121.30,4816.48354,N,01139.86565,E,1,12,0.69,474.0,M,46.2,M,,*4B
$GNGSA,A,3,32,08,21,27,01,10,22,14,03,,,,1.30,0.69,1.10*18
$GNVTG,,T,,M,0.104,N,0.193,K,A*33
$SMGPS,-0.0 m,-0.00 m/s,7.58 VRx,0.001 km,2 m,194.0 °,1:-- (  0.0 km/h)*F3
$SMGPS2,-0.24 X,+0.23 Y,+0.93 Z,1 ENL,0 us*41
$GNRMC,163121.40,A,4816.48346,N,01139.86559,E,0.21,,080522,,,A*59
$GNGGA,163121.40,4816.48346,N,01139.86559,E,1,12,0.69,474.0,M,46.2,M,,*40
$GNGSA,A,3,32,08,21,27,01,10,22,14,03,,,,1.30,0.69,1.10*18
$GNVTG,,T,,M,0.209,N,0.387,K,A*3A
$SMGPS,-0.0 m,-0.01 m/s,7.55 VRx,0.001 km,2 m,194.0 °,1:-- (  0.0 km/h)*FF
$SMGPS2,-0.24 X,+0.22 Y,+0.91 Z,1 ENL,0 us*42
$GNRMC,163121.50,A,4816.48341,N,01139.86556,E,0.27,,080522,,,A*56
$GNGGA,163121.50,4816.48341,N,01139.86556,E,1,12,0.69,474.0,M,46.2,M,,*49
$GNGSA,A,3,32,08,21,27,01,10,22,14,03,,,,1.30,0.69,1.10*18
$GNVTG,,T,,M,0.273,N,0.505,K,A*3B
$SMGPS,0.0 m,-0.01 m/s,7.58 VRx,0.001 km,2 m,194.0 °,1:-- (  0.0 km/h)*DF
$SMGPS2,-0.24 X,+0.25 Y,+0.89 Z,1 ENL,0 us*4C
$GNRMC,163121.60,A,4816.48338,N,01139.86553,E,0.20,,080522,,,A*59
$GNGGA,163121.60,4816.48338,N,01139.86553,E,1,12,0.69,474.0,M,46.2,M,,*41
$GNGSA,A,3,32,08,21,27,01,10,22,14,03,,,,1.30,0.69,1.10*18
$GNVTG,,T,,M,0.200,N,0.370,K,A*3B
$SMGPS,-0.0 m,-0.00 m/s,7.56 VRx,0.001 km,2 m,194.0 °,1:-- (  0.0 km/h)*FD
$SMGPS2,-0.23 X,+0.24 Y,+0.91 Z,0 ENL,0 us*42
$GNRMC,163121.70,A,4816.48335,N,01139.86549,E,0.19,,080522,,,A*54
$GNGGA,163121.70,4816.48335,N,01139.86549,E,1,12,0.69,474.0,M,46.2,M,,*46
$GNGSA,A,3,32,08,21,27,01,10,22,14,03,,,,1.30,0.69,1.10*18
$GNVTG,,T,,M,0.188,N,0.348,K,A*33
$SMGPS,-0.0 m,-0.00 m/s,7.57 VRx,0.001 km,2 m,198.4 °,1:-- (  0.0 km/h)*F4
$SMGPS2,-0.23 X,+0.23 Y,+0.93 Z,0 ENL,0 us*47
$GNRMC,163121.80,A,4816.48331,N,01139.86545,E,0.04,,080522,,,A*5F
$GNGGA,163121.80,4816.48331,N,01139.86545,E,1,12,0.69,474.0,M,46.2,M,,*41
$GNGSA,A,3,32,08,21,27,01,10,22,14,03,,,,1.30,0.69,1.10*18
$GNVTG,,T,,M,0.038,N,0.071,K,A*30
$SMGPS,-0.0 m,+0.00 m/s,7.56 VRx,0.001 km,2 m,198.4 °,1:-- (  0.0 km/h)*F3
$SMGPS2,-0.23 X,+0.23 Y,+0.91 Z,1 ENL,0 us*44
$GNRMC,163121.90,A,4816.48326,N,01139.86543,E,0.14,,080522,,,A*5F
$GNGGA,163121.90,4816.48326,N,01139.86543,E,1,12,0.69,474.0,M,46.2,M,,*40
$GNGSA,A,3,32,08,21,27,01,10,22,14,03,,,,1.30,0.69,1.10*18
$GNVTG,,T,,M,0.134,N,0.248,K,A*35
$SMGPS,-0.0 m,+0.00 m/s,7.57 VRx,0.001 km,2 m,198.4 °,1:-- (  0.0 km/h)*F2
$SMGPS2,-0.24 X,+0.23 Y,+0.90 Z,0 ENL,0 us*43
$GNRMC,163122.00,A,4816.48321,N,01139.86539,E,0.11,,080522,,,A*5A
$GNGGA,163122.00,4816.48321,N,01139.86539,E,1,12,0.69,474.0,M,46.2,M,,*40
$GNGSA,A,3,32,08,21,27,01,10,22,14,03,,,,1.30,0.69,1.10*18
$GNVTG,,T,,M,0.105,N,0.195,K,A*34
$SMGPS,0.0 m,+0.01 m/s,7.55 VRx,0.001 km,2 m,198.4 °,1:-- (  0.0 km/h)*DC
$SMGPS2,-0.23 X,+0.23 Y,+0.91 Z,1 ENL,0 us*44
$GNRMC,163122.10,A,4816.48317,N,01139.86535,E,0.10,,080522,,,A*53
$GNGGA,163122.10,4816.48317,N,01139.86535,E,1,12,0.69,474.0,M,46.2,M,,*48
$GNGSA,A,3,32,08,21,27,01,10,22,14,03,,,,1.30,0.69,1.10*18
$GNVTG,,T,,M,0.102,N,0.189,K,A*3E
$SMGPS,-0.0 m,+0.01 m/s,7.57 VRx,0.001 km,2 m,202.6 °,1:-- (  0.0 km/h)*F1
$SMGPS2,-0.23 X,+0.22 Y,+0.91 Z,0 ENL,0 us*44
$GNRMC,163122.20,A,4816.48314,N,01139.86533,E,0.21,,080522,,,A*57
$GNGGA,163122.20,4816.48314,N,01139.86533,E,1,12,0.69,474.0,M,46.2,M,,*4E
$GNGSA,A,3,32,08,21,27,01,10,22,14,03,,,,1.30,0.69,1.10*18
$GNVTG,,T,,M,0.212,N,0.393,K,A*35
$SMGPS,0.0 m,+0.01 m/s,7.55 VRx,0.001 km,2 m,202.6 °,1:-- (  0.0 km/h)*DE
$SMGPS2,-0.24 X,+0.23 Y,+0.91 Z,0 ENL,0 us*42
$GNRMC,163122.30,A,4816.48312,N,01139.86535,E,0.54,,080522,,,A*54
$GNGGA,163122.30,4816.48312,N,01139.86535,E,1,12,0.69,474.0,M,46.2,M,,*4F
$GNGSA,A,3,32,08,21,27,01,10,22,14,03,,,,1.30,0.69,1.10*18
$GNVTG,,T,,M,0.542,N,1.003,K,A*3C
$SMGPS,-0.0 m,+0.01 m/s,7.58 VRx,0.001 km,3 m,195.5 °,1:-- (  0.0 km/h)*F1
$SMGPS2,-0.24 X,+0.24 Y,+0.91 Z,0 ENL,0 us*45
$GNRMC,163122.40,A,4816.48310,N,01139.86539,E,0.10,,080522,,,A*5D
$GNGGA,163122.40,4816.48310,N,01139.86539,E,1,12,0.69,474.0,M,46.2,M,,*46
$GNGSA,A,3,32,08,21,27,01,10,22,14,03,,,,1.30,0.69,1.10*18
$GNVTG,,T,,M,0.096,N,0.177,K,A*33
$SMGPS,-0.0 m,-0.00 m/s,7.54 VRx,0.001 km,3 m,195.5 °,1:-- (  0.0 km/h)*FA
$SMGPS2,-0.23 X,+0.23 Y,+0.91 Z,0 ENL,0 us*45
$GNRMC,163122.50,A,4816.48309,N,01139.86541,E,0.16,,080522,,,A*5D
$GNGGA,163122.50,4816.48309,N,01139.86541,E,1,12,0.69,474.0,M,46.2,M,,*40
$GNGSA,A,3,32,08,21,27,01,10,22,14,03,,,,1.30,0.69,1.10*18
$GNVTG,,T,,M,0.156,N,0.290,K,A*34
$SMGPS,0.0 m,+0.00 m/s,7.58 VRx,0.001 km,3 m,195.5 °,1:-- (  0.0 km/h)*DD
$SMGPS2,-0.24 X,+0.23 Y,+0.91 Z,0 ENL,0 us*42
$GNRMC,163122.60,A,4816.48308,N,01139.86542,E,0.06,,080522,,,A*5D
$GNGGA,163122.60,4816.48308,N,01139.86542,E,1,12,0.69,474.0,M,46.2,M,,*41
$GNGSA,A,3,32,08,21,27,01,10,22,14,03,,,,1.30,0.69,1.10*18
$GNVTG,,T,,M,0.055,N,0.101,K,A*3D
$SMGPS,0.0 m,+0.00 m/s,7.55 VRx,0.001 km,3 m,195.5 °,1:-- (  0.0 km/h)*D0
$SMGPS2,-0.23 X,+0.24 Y,+0.91 Z,0 ENL,0 us*42
$GNRMC,163122.70,A,4816.48307,N,01139.86545,E,0.15,,080522,,,A*56
$GNGGA,163122.70,4816.48307,N,01139.86545,E,1,12,0.69,474.0,M,46.2,M,,*48
$GNGSA,A,3,32,08,21,27,01,10,22,14,03,,,,1.30,0.69,1.10*18
$GNVTG,,T,,M,0.150,N,0.278,K,A*34
$SMGPS,0.0 m,+0.01 m/s,7.58 VRx,0.001 km,3 m,192.5 °,1:-- (  0.0 km/h)*DB
$SMGPS2,-0.23 X,+0.23 Y,+0.91 Z,0 ENL,0 us*45
$GNRMC,163122.80,A,4816.48305,N,01139.86546,E,0.08,,080522,,,A*54
$GNGGA,163122.80,4816.48305,N,01139.86546,E,1,12,0.69,474.0,M,46.2,M,,*46
$GNGSA,A,3,32,08,21,27,01,10,22,14,03,,,,1.30,0.69,1.10*18
$GNVTG,,T,,M,0.076,N,0.140,K,A*39
$SMGPS,0.0 m,+0.01 m/s,7.55 VRx,0.001 km,3 m,192.5 °,1:-- (  0.0 km/h)*D6
$SMGPS2,-0.23 X,+0.22 Y,+0.91 Z,1 ENL,0 us*45
$GNRMC,163122.90,A,4816.48303,N,01139.86546,E,0.22,,080522,,,A*5B
$GNGGA,163122.90,4816.48303,N,01139.86546,E,1,12,0.69,474.1,M,46.2,M,,*40
$GNGSA,A,3,32,08,21,27,01,10,22,14,03,,,,1.30,0.69,1.10*18
$GNVTG,,T,,M,0.224,N,0.415,K,A*39
$SMGPS,0.1 m,+0.01 m/s,7.58 VRx,0.001 km,3 m,192.5 °,1:-- (  0.0 km/h)*DA
$SMGPS2,-0.23 X,+0.23 Y,+0.92 Z,0 ENL,0 us*46
$GNRMC,163123.00,A,4816.48302,N,01139.86546,E,0.05,,080522,,,A*57
$GNGGA,163123.00,4816.48302,N,01139.86546,E,1,12,0.69,474.0,M,46.2,M,,*48
$GNGSA,A,3,32,08,21,27,01,10,22,14,03,,,,1.30,0.69,1.10*18
$GNVTG,,T,,M,0.043,N,0.080,K,A*32
$SMGPS,0.0 m,+0.02 m/s,7.56 VRx,0.001 km,3 m,192.5 °,1:-- (  0.0 km/h)*D6
$SMGPS2,-0.23 X,+0.23 Y,+0.91 Z,0 ENL,0 us*45
$GNRMC,163123.10,A,4816.48298,N,01139.86547,E,0.07,,080522,,,A*57
$GNGGA,163123.10,4816.48298,N,01139.86547,E,1,12,0.69,474.0,M,46.2,M,,*4A
$GNGSA,A,3,32,08,21,27,01,10,22,14,03,,,,1.30,0.69,1.10*18
$GNVTG,,T,,M,0.066,N,0.122,K,A*3C
$SMGPS,-0.0 m,+0.02 m/s,7.57 VRx,0.001 km,3 m,192.5 °,1:-- (  0.0 km/h)*FA
$SMGPS2,-0.23 X,+0.23 Y,+0.91 Z,0 ENL,0 us*45
$GNRMC,163123.20,A,4816.48297,N,01139.86550,E,0.20,,080522,,,A*58
$GNGGA,163123.20,4816.48297,N,01139.86550,E,1,12,0.69,474.0,M,46.2,M,,*40
$GNGSA,A,3,32,08,21,27,01,10,22,14,03,,,,1.30,0.69,1.10*18
$GNVTG,,T,,M,0.195,N,0.361,K,A*34
$SMGPS,-0.0 m,+0.02 m/s,7.57 VRx,0.001 km,3 m,192.5 °,1:-- (  0.0 km/h)*FA
$SMGPS2,-0.23 X,+0.22 Y,+0.91 Z,0 ENL,0 us*44
$GNRMC,163123.30,A,4816.48297,N,01139.86554,E,0.23,,080522,,,A*5E
$GNGGA,163123.30,4816.48297,N,01139.86554,E,1,12,0.69,474.0,M,46.2,M,,*45
$GNGSA,A,3,32,08,21,27,01,10,22,14,03,,,,1.30,0.69,1.10*18
$GNVTG,,T,,M,0.230,N,0.426,K,A*3C
$SMGPS,0.0 m,+0.02 m/s,7.57 VRx,0.001 km,3 m,192.5 °,1:-- (  0.0 km/h)*D7
$SMGPS2,-0.24 X,+0.23 Y,+0.91 Z,0 ENL,0 us*42
$GNRMC,163123.40,A,4816.48298,N,01139.86557,E,0.16,,080522,,,A*53
$GNGGA,163123.40,4816.48298,N,01139.86557,E,1,12,0.69,474.0,M,46.2,M,,*4E
$GNGSA,A,3,32,08,21,27,01,10,22,14,03,,,,1.30,0.69,1.10*18
$GNVTG,,T,,M,0.160,N,0.296,K,A*37
$SMGPS,-0.0 m,+0.01 m/s,7.56 VRx,0.001 km,3 m,189.4 °,1:-- (  0.0 km/h)*F3
$SMGPS2,-0.24 X,+0.23 Y,+0.91 Z,0 ENL,0 us*42
$GNRMC,163123.50,A,4816.48298,N,01139.86559,E,0.17,,080522,,,A*5D
$GNGGA,163123.50,4816.48298,N,01139.86559,E,1,12,0.69,474.0,M,46.2,M,,*41
$GNGSA,A,3,32,08,21,27,01,10,22,14,03,,,,1.30,0.69,1.10*18
$GNVTG,,T,,M,0.171,N,0.317,K,A*3F
$SMGPS,-0.0 m,+0.01 m/s,7.58 VRx,0.001 km,3 m,189.4 °,1:-- (  0.0 km/h)*FD
$SMGPS2,-0.23 X,+0.23 Y,+0.91 Z,0 ENL,0 us*45
$GNRMC,163123.60,A,4816.48299,N,01139.86561,E,0.05,,080522,,,A*57
$GNGGA,163123.60,4816.48299,N,01139.86561,E,1,12,0.69,474.0,M,46.2,M,,*48
$GNGSA,A,3,32,08,21,27,01,10,22,14,03,,,,1.30,0.69,1.10*18
$GNVTG,,T,,M,0.052,N,0.096,K,A*35
$SMGPS,-0.0 m,+0.01 m/s,7.55 VRx,0.001 km,3 m,189.4 °,1:-- (  0.0 km/h)*F0
$SMGPS2,-0.23 X,+0.23 Y,+0.92 Z,0 ENL,0 us*46
$GNRMC,163123.70,A,4816.48300,N,01139.86563,E,0.03,,080522,,,A*53
$GNGGA,163123.70,4816.48300,N,01139.86563,E,1,12,0.69,474.0,M,46.2,M,,*4A
$GNGSA,A,3,32,08,21,27,01,10,22,14,03,,,,1.30,0.69,1.10*18
$GNVTG,,T,,M,0.028,N,0.052,K,A*30
$SMGPS,0.0 m,+0.00 m/s,7.58 VRx,0.001 km,3 m,189.4 °,1:-- (  0.0 km/h)*D1
$SMGPS2,-0.23 X,+0.24 Y,+0.91 Z,1 ENL,0 us*43
$GNRMC,163123.80,A,4816.48302,N,01139.86565,E,0.11,,080522,,,A*5B
$GNGGA,163123.80,4816.48302,N,01139.86565,E,1,12,0.69,474.0,M,46.2,M,,*41
$GNGSA,A,3,32,08,21,27,01,10,22,14,03,,,,1.30,0.69,1.10*18
$GNVTG,,T,,M,0.110,N,0.203,K,A*3C
$SMGPS,-0.0 m,-0.00 m/s,7.54 VRx,0.001 km,3 m,189.4 °,1:-- (  0.0 km/h)*F6
$SMGPS2,-0.23 X,+0.23 Y,+0.91 Z,0 ENL,0 us*45
$GNRMC,163123.90,A,4816.48302,N,01139.86565,E,0.10,,080522,,,A*5B
$GNGGA,163123.90,4816.48302,N,01139.86565,E,1,12,0.69,474.0,M,46.2,M,,*40
$GNGSA,A,3,32,08,21,27,01,10,22,14,03,,,,1.30,0.69,1.10*18
$GNVTG,,T,,M,0.099,N,0.184,K,A*30
$SMGPS,-0.0 m,-0.00 m/s,7.58 VRx,0.001 km,3 m,189.4 °,1:-- (  0.0 km/h)*FA
$SMGPS2,-0.23 X,+0.23 Y,+0.91 Z,0 ENL,0 us*45
$GNRMC,163124.00,A,4816.48301,N,01139.86566,E,0.11,,080522,,,A*54
$GNGGA,163124.00,4816.48301,N,01139.86566,E,1,12,0.69,474.0,M,46.2,M,,*4E
$GNGSA,A,3,32,08,21,27,01,10,22,14,03,,,,1.30,0.69,1.10*18
$GNVTG,,T,,M,0.114,N,0.211,K,A*3B
$SMGPS,0.0 m,-0.00 m/s,7.55 VRx,0.001 km,3 m,189.4 °,1:-- (  0.0 km/h)*DA
$SMGPS2,-0.24 X,+0.23 Y,+0.91 Z,0 ENL,0 us*42
$GNRMC,163124.10,A,4816.48303,N,01139.86567,E,0.05,,080522,,,A*53
$GNGGA,163124.10,4816.48303,N,01139.86567,E,1,12,0.69,474.0,M,46.2,M,,*4C
$GNGSA,A,3,32,08,21,27,01,10,22,14,03,,,,1.30,0.69,1.10*18
$GNVTG,,T,,M,0.045,N,0.083,K,A*37
$SMGPS,-0.0 m,-0.00 m/s,7.56 VRx,0.001 km,3 m,189.4 °,1:-- (  0.0 km/h)*F4
$SMGPS2,-0.24 X,+0.23 Y,+0.92 Z,0 ENL,0 us*41
$GNRMC,163124.20,A,4816.48307,N,01139.86569,E,0.19,,080522,,,A*57
$GNGGA,163124.20,4816.48307,N,01139.86569,E,1,12,0.69,474.0,M,46.2,M,,*45
$GNGSA,A,3,32,08,21,27,01,10,22,14,03,,,,1.30,0.69,1.10*18
$GNVTG,,T,,M,0.189,N,0.350,K,A*3B
$SMGPS,0.0 m,-0.00 m/s,7.55 VRx,0.001 km,3 m,186.3 °,1:-- (  0.0 km/h)*D2
$SMGPS2,-0.23 X,+0.23 Y,+0.91 Z,1 ENL,0 us*44
$GNRMC,163124.30,A,4816.48312,N,01139.86573,E,0.05,,080522,,,A*54
$GNGGA,163124.30,4816.48312,N,01139.86573,E,1,12,0.69,474.0,M,46.2,M,,*4B
$GNGSA,A,3,32,08,21,27,01,10,22,14,03,,,,1.30,0.69,1.10*18
$GNVTG,,T,,M,0.048,N,0.090,K,A*38
$SMGPS,0.0 m,-0.01 m/s,7.57 VRx,0.001 km,3 m,186.3 °,1:-- (  0.0 km/h)*D1
$SMGPS2,-0.23 X,+0.23 Y,+0.91 Z,0 ENL,0 us*45
$GNRMC,163124.40,A,4816.48315,N,01139.86576,E,0.07,,080522,,,A*53
$GNGGA,163124.40,4816.48315,N,01139.86576,E,1,12,0.69,474.0,M,46.2,M,,*4E
$GNGSA,A,3,32,08,21,27,01,10,22,14,03,,,,1.30,0.69,1.10*18
$GNVTG,,T,,M,0.070,N,0.129,K,A*30
$SMGPS,-0.0 m,-0.01 m/s,7.56 VRx,0.001 km,3 m,186.3 °,1:-- (  0.0 km/h)*FD
$SMGPS2,-0.24 X,+0.23 Y,+0.91 Z,0 ENL,0 us*42
$GNRMC,163124.50,A,4816.48319,N,01139.86577,E,0.12,,080522,,,A*5B
$GNGGA,163124.50,4816.48319,N,01139.86577,E,1,12,0.69,474.0,M,46.2,M,,*42
$GNGSA,A,3,32,08,21,27,01,10,22,14,03,,,,1.30,0.69,1.10*18
$GNVTG,,T,,M,0.123,N,0.228,K,A*35
$SMGPS,0.0 m,-0.01 m/s,7.57 VRx,0.001 km,3 m,186.3 °,1:-- (  0.0 km/h)*D1
$SMGPS2,-0.23 X,+0.23 Y,+0.91 Z,0 ENL,0 us*45
$GNRMC,163124.60,A,4816.48323,N,01139.86579,E,0.02,,080522,,,A*5E
$GNGGA,163124.60,4816.48323,N,01139.86579,E,1,12,0.69,474.0,M,46.2,M,,*46
$GNGSA,A,3,32,08,21,27,01,10,22,14,03,,,,1.30,0.69,1.10*18
$GNVTG,,T,,M,0.014,N,0.026,K,A*3C
$SMGPS,-0.0 m,-0.00 m/s,7.56 VRx,0.001 km,2 m,189.4 °,1:-- (  0.0 km/h)*F5
$SMGPS2,-0.24 X,+0.23 Y,+0.91 Z,1 ENL,0 us*43
$GNRMC,163124.70,A,4816.48327,N,01139.86582,E,0.07,,080522,,,A*5A
$GNGGA,163124.70,4816.48327,N,01139.86582,E,1,12,0.69,474.0,M,46.2,M,,*47
$GNGSA,A,3,32,08,21,27,01,10,22,14,03,,,,1.30,0.69,1.10*18
$GNVTG,,T,,M,0.066,N,0.123,K,A*3D
$SMGPS,-0.0 m,-0.01 m/s,7.57 VRx,0.001 km,2 m,184.8 °,1:-- (  0.0 km/h)*F4
$SMGPS2,-0.23 X,+0.23 Y,+0.91 Z,0 ENL,0 us*45
$GNRMC,163124.80,A,4816.48330,N,01139.86583,E,0.05,,080522,,,A*50
$GNGGA,163124.80,4816.48330,N,01139.86583,E,1,12,0.69,474.0,M,46.2,M,,*4F
$GNGSA,A,3,32,08,21,27,01,10,22,14,03,,,,1.30,0.69,1.10*18
$GNVTG,,T,,M,0.047,N,0.087,K,A*31
$SMGPS,0.0 m,-0.01 m/s,7.55 VRx,0.001 km,2 m,184.8 °,1:-- (  0.0 km/h)*DB
$SMGPS2,-0.23 X,+0.22 Y,+0.91 Z,0 ENL,0 us*44
$GNRMC,163124.90,A,4816.48334,N,01139.86585,E,0.02,,080522,,,A*54
$GNGGA,163124.90,4816.48334,N,01139.86585,E,1,12,0.69,474.0,M,46.2,M,,*4C
$GNGSA,A,3,32,08,21,27,01,10,22,14,03,,,,1.30,0.69,1.10*18
$GNVTG,,T,,M,0.021,N,0.039,K,A*34
$SMGPS,-0.0 m,-0.01 m/s,7.57 VRx,0.001 km,2 m,184.8 °,1:-- (  0.0 km/h)*F4
$SMGPS2,-0.24 X,+0.23 Y,+0.91 Z,1 ENL,0 us*43
$GNRMC,163125.00,A,4816.48336,N,01139.86586,E,0.13,,080522,,,A*5D
$GNGGA,163125.00,4816.48336,N,01139.86586,E,1,12,0.69,474.0,M,46.2,M,,*45
$GNGSA,A,3,32,08,21,27,01,10,22,14,03,,,,1.30,0.69,1.10*18
$GNVTG,,T,,M,0.128,N,0.238,K,A*3F
$SMGPS,-0.0 m,-0.01 m/s,7.55 VRx,0.001 km,2 m,184.8 °,1:-- (  0.0 km/h)*F6
$SMGPS2,-0.24 X,+0.23 Y,+0.91 Z,0 ENL,0 us*42
$GNRMC,163125.10,A,4816.48338,N,01139.86587,E,0.07,,080522,,,A*56
$GNGGA,163125.10,4816.48338,N,01139.86587,E,1,12,0.69,474.0,M,46.2,M,,*4B
$GNGSA,A,3,32,08,21,27,01,10,22,14,03,,,,1.30,0.69,1.10*18
$GNVTG,,T,,M,0.071,N,0.132,K,A*3B
$SMGPS,0.0 m,-0.01 m/s,7.58 VRx,0.001 km,2 m,184.8 °,1:-- (  0.0 km/h)*D6
$SMGPS2,-0.24 X,+0.23 Y,+0.91 Z,0 ENL,0 us*42
$GNRMC,163125.20,A,4816.48340,N,01139.86587,E,0.07,,080522,,,A*5A
$GNGGA,163125.20,4816.48340,N,01139.86587,E,1,12,0.69,474.0,M,46.2,M,,*47
$GNGSA,A,3,32,08,21,27,01,10,22,14,03,,,,1.30,0.69,1.10*18
$GNVTG,,T,,M,0.067,N,0.124,K,A*3B
$SMGPS,0.0 m,-0.00 m/s,7.55 VRx,0.001 km,2 m,184.8 °,1:-- (  0.0 km/h)*DA
$SMGPS2,-0.23 X,+0.23 Y,+0.92 Z,0 ENL,0 us*46
$GNRMC,163125.30,A,4816.48341,N,01139.86588,E,0.10,,080522,,,A*53
$GNGGA,163125.30,4816.48341,N,01139.86588,E,1,12,0.69,474.0,M,46.2,M,,*48
$GNGSA,A,3,32,08,21,27,01,10,22,14,03,,,,1.30,0.69,1.10*18
$GNVTG,,T,,M,0.095,N,0.176,K,A*31
$SMGPS,0.0 m,+0.00 m/s,7.58 VRx,0.001 km,2 m,184.8 °,1:-- (  0.0 km/h)*D1
$SMGPS2,-0.24 X,+0.23 Y,+0.91 Z,0 ENL,0 us*42
$GNRMC,163125.40,A,4816.48344,N,01139.86589,E,0.05,,080522,,,A*54
$GNGGA,163125.40,4816.48344,N,01139.86589,E,1,12,0.69,474.0,M,46.2,M,,*4B
$GNGSA,A,3,32,08,21,27,01,10,22,14,03,,,,1.30,0.69,1.10*18
$GNVTG,,T,,M,0.052,N,0.097,K,A*34
$SMGPS,0.0 m,+0.00 m/s,7.55 VRx,0.001 km,2 m,184.8 °,1:-- (  0.0 km/h)*DC
$SMGPS2,-0.23 X,+0.24 Y,+0.91 Z,0 ENL,0 us*42
$GNRMC,163125.50,A,4816.48345,N,01139.86589,E,0.11,,080522,,,A*51
$GNGGA,163125.50,4816.48345,N,01139.86589,E,1,12,0.69,474.0,M,46.2,M,,*4B
$GNGSA,A,3,32,08,21,27,01,10,22,14,03,,,,1.30,0.69,1.10*18
$GNVTG,,T,,M,0.104,N,0.192,K,A*32
$SMGPS,0.0 m,-0.00 m/s,7.57 VRx,0.001 km,2 m,184.8 °,1:-- (  0.0 km/h)*D8
$SMGPS2,-0.23 X,+0.23 Y,+0.91 Z,0 ENL,0 us*45
$GNRMC,163125.60,A,4816.48346,N,01139.86590,E,0.08,,080522,,,A*51
$GNGGA,163125.60,4816.48346,N,01139.86590,E,1,12,0.69,474.0,M,46.2,M,,*43
$GNGSA,A,3,32,08,21,27,01,10,22,14,03,,,,1.30,0.69,1.10*18
$GNVTG,,T,,M,0.074,N,0.138,K,A*34
$SMGPS,-0.0 m,-0.00 m/s,7.55 VRx,0.001 km,2 m,184.8 °,1:-- (  0.0 km/h)*F7
$SMGPS2,-0.23 X,+0.23 Y,+0.91 Z,1 ENL,0 us*44
$GNRMC,163125.70,A,4816.48347,N,01139.86591,E,0.04,,080522,,,A*5C
$GNGGA,163125.70,4816.48347,N,01139.86591,E,1,12,0.69,474.0,M,46.2,M,,*42
$GNGSA,A,3,32,08,21,27,01,10,22,14,03,,,,1.30,0.69,1.10*18
$GNVTG,,T,,M,0.036,N,0.067,K,A*39
$SMGPS,-0.0 m,+0.00 m/s,7.57 VRx,0.001 km,2 m,184.8 °,1:-- (  0.0 km/h)*F3
$SMGPS2,-0.23 X,+0.23 Y,+0.91 Z,0 ENL,0 us*45
$GNRMC,163125.80,A,4816.48348,N,01139.86592,E,0.08,,080522,,,A*53
$GNGGA,163125.80,4816.48348,N,01139.86592,E,1,12,0.69,474.0,M,46.2,M,,*41
$GNGSA,A,3,32,08,21,27,01,10,22,14,03,,,,1.30,0.69,1.10*18
$GNVTG,,T,,M,0.081,N,0.150,K,A*30
$SMGPS,-0.0 m,-0.00 m/s,7.56 VRx,0.001 km,2 m,180.0 °,1:-- (  0.0 km/h)*F8
$SMGPS2,-0.24 X,+0.24 Y,+0.92 Z,1 ENL,0 us*47
$GNRMC,163125.90,A,4816.48349,N,01139.86593,E,0.04,,080522,,,A*5E
$GNGGA,163125.90,4816.48349,N,01139.86593,E,1,12,0.69,474.0,M,46.2,M,,*40
$GNGSA,A,3,32,08,21,27,01,10,22,14,03,,,,1.30,0.69,1.10*18
$GNVTG,,T,,M,0.035,N,0.064,K,A*39
$SMGPS,-0.0 m,-0.00 m/s,7.57 VRx,0.001 km,2 m,180.0 °,1:-- (  0.0 km/h)*F9
$SMGPS2,-0.23 X,+0.23 Y,+0.91 Z,1 ENL,0 us*44
$GNRMC,163126.00,A,4816.48350,N,01139.86595,E,0.17,,080522,,,A*58
$GNGGA,163126.00,4816.48350,N,01139.86595,E,1,12,0.69,474.0,M,46.2,M,,*44
$GNGSA,A,3,32,08,21,27,01,10,22,14,03,,,,1.30,0.69,1.10*18
$GNVTG,,T,,M,0.171,N,0.317,K,A*3F
$SMGPS,-0.0 m,-0.01 m/s,7.55 VRx,0.001 km,2 m,180.0 °,1:-- (  0.0 km/h)*FA
$SMGPS2,-0.23 X,+0.23 Y,+0.92 Z,0 ENL,0 us*46
$GNRMC,163126.10,A,4816.48352,N,01139.86596,E,0.05,,080522,,,A*5B
$GNGGA,163126.10,4816.48352,N,01139.86596,E,1,12,0.69,474.0,M,46.2,M,,*44
$GNGSA,A,3,32,08,21,27,01,10,22,14,03,,,,1.30,0.69,1.10*18
$GNVTG,,T,,M,0.045,N,0.084,K,A*30
$SMGPS,-0.0 m,-0.01 m/s,7.57 VRx,0.001 km,2 m,180.0 °,1:-- (  0.0 km/h)*F8
$SMGPS2,-0.24 X,+0.23 Y,+0.91 Z,0 ENL,0 us*42
$GNRMC,163126.20,A,4816.48352,N,01139.86597,E,0.07,,080522,,,A*5B
$GNGGA,163126.20,4816.48352,N,01139.86597,E,1,12,0.69,474.0,M,46.2,M,,*46
$GNGSA,A,3,32,08,21,27,01,10,22,14,03,,,,1.30,0.69,1.10*18
$GNVTG,,T,,M,0.068,N,0.126,K,A*36
$SMGPS,-0.0 m,+0.00 m/s,7.54 VRx,0.001 km,2 m,180.0 °,1:-- (  0.0 km/h)*FC
$SMGPS2,-0.23 X,+0.23 Y,+0.91 Z,1 ENL,0 us*44
$GNRMC,163126.30,A,4816.48353,N,01139.86598,E,0.10,,080522,,,A*52
$GNGGA,163126.30,4816.48353,N,01139.86598,E,1,12,0.69,474.0,M,46.2,M,,*49
$GNGSA,A,3,32,08,21,27,01,10,22,14,03,,,,1.30,0.69,1.10*18
$GNVTG,,T,,M,0.097,N,0.180,K,A*3A
$SMGPS,-0.0 m,+0.00 m/s,7.58 VRx,0.001 km,2 m,180.0 °,1:-- (  0.0 km/h)*F0
$SMGPS2,-0.23 X,+0.23 Y,+0.91 Z,1 ENL,0 us*44
$GNRMC,163126.40,A,4816.48354,N,01139.86599,E,0.06,,080522,,,A*54
$GNGGA,163126.40,4816.48354,N,01139.86599,E,1,12,0.69,474.0,M,46.2,M,,*48
$GNGSA,A,3,32,08,21,27,01,10,22,14,03,,,,1.30,0.69,1.10*18
$GNVTG,,T,,M,0.056,N,0.104,K,A*3B
$SMGPS,0.0 m,+0.00 m/s,7.54 VRx,0.001 km,2 m,180.0 °,1:-- (  0.0 km/h)*D1
$SMGPS2,-0.24 X,+0.23 Y,+0.92 Z,1 ENL,0 us*40
$GNRMC,163126.50,A,4816.48355,N,01139.86600,E,0.09,,080522,,,A*58
$GNGGA,163126.50,4816.48355,N,01139.86600,E,1,12,0.69,474.0,M,46.2,M,,*4B
$GNGSA,A,3,32,08,21,27,01,10,22,14,03,,,,1.30,0.69,1.10*18
$GNVTG,,T,,M,0.087,N,0.161,K,A*34
$SMGPS,0.0 m,+0.00 m/s,7.57 VRx,0.001 km,2 m,180.0 °,1:-- (  0.0 km/h)*D2
$SMGPS2,-0.23 X,+0.23 Y,+0.91 Z,0 ENL,0 us*45
$GNRMC,163126.60,A,4816.48355,N,01139.86601,E,0.08,,080522,,,A*5B
$GNGGA,163126.60,4816.48355,N,01139.86601,E,1,12,0.69,474.0,M,46.2,M,,*49
$GNGSA,A,3,32,08,21,27,01,10,22,14,03,,,,1.30,0.69,1.10*18
$GNVTG,,T,,M,0.075,N,0.140,K,A*3A
$SMGPS,-0.0 m,+0.00 m/s,7.56 VRx,0.001 km,2 m,180.0 °,1:-- (  0.0 km/h)*FE
$SMGPS2,-0.24 X,+0.23 Y,+0.91 Z,0 ENL,0 us*42
$GNRMC,163126.70,A,4816.48356,N,01139.86601,E,0.02,,080522,,,A*53
$GNGGA,163126.70,4816.48356,N,01139.86601,E,1,12,0.69,474.0,M,46.2,M,,*4B
$GNGSA,A,3,32,08,21,27,01,10,22,14,03,,,,1.30,0.69,1.10*18
$GNVTG,,T,,M,0.023,N,0.042,K,A*3A
$SMGPS,-0.0 m,+0.00 m/s,7.56 VRx,0.001 km,2 m,180.0 °,1:-- (  0.0 km/h)*FE
$SMGPS2,-0.24 X,+0.23 Y,+0.91 Z,0 ENL,0 us*42
$GNRMC,163126.80,A,4816.48356,N,01139.86602,E,0.08,,080522,,,A*55
$GNGGA,163126.80,4816.48356,N,01139.86602,E,1,12,0.69,474.0,M,46.2,M,,*47
$GNGSA,A,3,32,08,21,27,01,10,22,14,03,,,,1.30,0.69,1.10*18
$GNVTG,,T,,M,0.081,N,0.149,K,A*38
$SMGPS,-0.0 m,-0.00 m/s,7.56 VRx,0.001 km,2 m,180.0 °,1:-- (  0.0 km/h)*F8
$SMGPS2,-0.23 X,+0.23 Y,+0.92 Z,0 ENL,0 us*46
$GNRMC,163126.90,A,4816.48357,N,01139.86603,E,0.07,,080522,,,A*5B
$GNGGA,163126.90,4816.48357,N,01139.86603,E,1,12,0.69,474.0,M,46.2,M,,*46
$GNGSA,A,3,32,08,21,27,01,10,22,14,03,,,,1.30,0.69,1.10*18
$GNVTG,,T,,M,0.066,N,0.123,K,A*3D
$SMGPS,-0.0 m,-0.00 m/s,7.56 VRx,0.001 km,2 m,180.0 °,1:-- (  0.0 km/h)*F8
$SMGPS2,-0.24 X,+0.23 Y,+0.91 Z,1 ENL,0 us*43
$GNRMC,163127.00,A,4816.48357,N,01139.86603,E,0.13,,080522,,,A*56
$GNGGA,163127.00,4816.48357,N,01139.86603,E,1,12,0.69,474.0,M,46.2,M,,*4E
$GNGSA,A,3,32,08,21,27,01,10,22,14,03,,,,1.30,0.69,1.10*18
$GNVTG,,T,,M,0.126,N,0.232,K,A*3B
$SMGPS,0.0 m,-0.01 m/s,7.55 VRx,0.001 km,2 m,175.2 °,1:-- (  0.0 km/h)*DF
$SMGPS2,-0.23 X,+0.23 Y,+0.91 Z,1 ENL,0 us*44
$GNRMC,163127.10,A,4816.48358,N,01139.86604,E,0.04,,080522,,,A*59
$GNGGA,163127.10,4816.48358,N,01139.86604,E,1,12,0.69,474.0,M,46.2,M,,*47
$GNGSA,A,3,32,08,21,27,01,10,22,14,03,,,,1.30,0.69,1.10*18
$GNVTG,,T,,M,0.035,N,0.064,K,A*39
$SMGPS,0.0 m,-0.01 m/s,7.57 VRx,0.001 km,2 m,175.2 °,1:-- (  0.0 km/h)*DD
$SMGPS2,-0.24 X,+0.24 Y,+0.91 Z,1 ENL,0 us*44
$GNRMC,163127.20,A,4816.48358,N,01139.86604,E,0.11,,080522,,,A*5E
$GNGGA,163127.20,4816.48358,N,01139.86604,E,1,12,0.69,474.0,M,46.2,M,,*44
$GNGSA,A,3,32,08,21,27,01,10,22,14,03,,,,1.30,0.69,1.10*18
$GNVTG,,T,,M,0.111,N,0.206,K,A*38
$SMGPS,0.0 m,-0.00 m/s,7.55 VRx,0.001 km,2 m,175.2 °,1:-- (  0.0 km/h)*DE
$SMGPS2,-0.24 X,+0.23 Y,+0.91 Z,1 ENL,0 us*43
$GNRMC,163127.30,A,4816.48357,N,01139.86605,E,0.04,,080522,,,A*55
$GNGGA,163127.30,4816.48357,N,01139.86605,E,1,12,0.69,474.0,M,46.2,M,,*4B
$GNGSA,A,3,32,08,21,27,01,10,22,14,03,,,,1.30,0.69,1.10*18
$GNVTG,,T,,M,0.037,N,0.069,K,A*36
$SMGPS,-0.0 m,-0.00 m/s,7.58 VRx,0.001 km,2 m,175.2 °,1:-- (  0.0 km/h)*FE
$SMGPS2,-0.24 X,+0.23 Y,+0.91 Z,1 ENL,0 us*43
$GNRMC,163127.40,A,4816.48357,N,01139.86605,E,0.05,,080522,,,A*53
$GNGGA,163127.40,4816.48357,N,01139.86605,E,1,12,0.69,474.0,M,46.2,M,,*4C
$GNGSA,A,3,32,08,21,27,01,10,22,14,03,,,,1.30,0.69,1.10*18
$GNVTG,,T,,M,0.052,N,0.097,K,A*34
$SMGPS,0.0 m,-0.00 m/s,7.54 VRx,0.001 km,2 m,175.2 °,1:-- (  0.0 km/h)*DF
$SMGPS2,-0.23 X,+0.23 Y,+0.91 Z,1 ENL,0 us*44
$GNRMC,163127.50,A,4816.48357,N,01139.86606,E,0.04,,080522,,,A*50
$GNGGA,163127.50,4816.48357,N,01139.86606,E,1,12,0.69,474.0,M,46.2,M,,*4E
$GNGSA,A,3,32,08,21,27,01,10,22,14,03,,,,1.30,0.69,1.10*18
$GNVTG,,T,,M,0.037,N,0.068,K,A*37
$SMGPS,0.0 m,-0.00 m/s,7.58 VRx,0.001 km,2 m,175.2 °,1:-- (  0.0 km/h)*D3
$SMGPS2,-0.23 X,+0.23 Y,+0.91 Z,0 ENL,0 us*45
$GNRMC,163127.60,A,4816.48357,N,01139.86606,E,0.10,,080522,,,A*56
$GNGGA,163127.60,4816.48357,N,01139.86606,E,1,12,0.69,474.0,M,46.2,M,,*4D
$GNGSA,A,3,32,08,21,27,01,10,22,14,03,,,,1.30,0.69,1.10*18
$GNVTG,,T,,M,0.096,N,0.178,K,A*3C
$SMGPS,0.0 m,-0.00 m/s,7.55 VRx,0.001 km,2 m,175.2 °,1:-- (  0.0 km/h)*DE
$SMGPS2,-0.24 X,+0.23 Y,+0.91 Z,0 ENL,0 us*42
$GNRMC,163127.70,A,4816.48357,N,01139.86606,E,0.14,,080522,,,A*53
$GNGGA,163127.70,4816.48357,N,01139.86606,E,1,12,0.69,474.0,M,46.2,M,,*4C
$GNGSA,A,3,32,08,21,27,01,10,22,14,03,,,,1.30,0.69,1.10*18
$GNVTG,,T,,M,0.139,N,0.258,K,A*39
$SMGPS,0.0 m,-0.00 m/s,7.57 VRx,0.001 km,2 m,175.2 °,1:-- (  0.0 km/h)*DC
$SMGPS2,-0.24 X,+0.23 Y,+0.91 Z,0 ENL,0 us*42
$GNRMC,163127.80,A,4816.48357,N,01139.86606,E,0.08,,080522,,,A*51
$GNGGA,163127.80,4816.48357,N,01139.86606,E,1,12,0.69,474.0,M,46.2,M,,*43
$GNGSA,A,3,32,08,21,27,01,10,22,14,03,,,,1.30,0.69,1.10*18
$GNVTG,,T,,M,0.075,N,0.140,K,A*3A
$SMGPS,0.0 m,-0.00 m/s,7.55 VRx,0.001 km,2 m,175.2 °,1:-- (  0.0 km/h)*DE
$SMGPS2,-0.23 X,+0.23 Y,+0.91 Z,0 ENL,0 us*45
$GNRMC,163127.90,A,4816.48357,N,01139.86606,E,0.02,,080522,,,A*5A
$GNGGA,163127.90,4816.48357,N,01139.86606,E,1,12,0.69,473.9,M,46.2,M,,*4C
$GNGSA,A,3,32,08,21,27,01,10,22,14,03,,,,1.30,0.69,1.10*18
$GNVTG,,T,,M,0.023,N,0.042,K,A*3A
$SMGPS,-0.1 m,-0.01 m/s,7.57 VRx,0.001 km,2 m,175.2 °,1:-- (  0.0 km/h)*F1
$SMGPS2,-0.24 X,+0.23 Y,+0.91 Z,1 ENL,0 us*43
$GNRMC,163128.00,A,4816.48357,N,01139.86607,E,0.13,,080522,,,A*5D
$GNGGA,163128.00,4816.48357,N,01139.86607,E,1,12,0.69,474.0,M,46.2,M,,*45
$GNGSA,A,3,32,08,21,27,01,10,22,14,03,,,,1.30,0.69,1.10*18
$GNVTG,,T,,M,0.129,N,0.238,K,A*3E
$SMGPS,-0.0 m,-0.01 m/s,7.55 VRx,0.001 km,2 m,175.2 °,1:-- (  0.0 km/h)*F2
$SMGPS2,-0.23 X,+0.23 Y,+0.91 Z,0 ENL,0 us*45
$GNRMC,163128.10,A,4816.48357,N,01139.86607,E,0.14,,080522,,,A*5B
$GNGGA,163128.10,4816.48357,N,01139.86607,E,1,12,0.69,474.0,M,46.2,M,,*44
$GNGSA,A,3,32,08,21,27,01,10,22,14,03,,,,1.30,0.69,1.10*18
$GNVTG,,T,,M,0.140,N,0.260,K,A*3C
$SMGPS,-0.0 m,-0.01 m/s,7.57 VRx,0.001 km,2 m,175.2 °,1:-- (  0.0 km/h)*F0
$SMGPS2,-0.23 X,+0.23 Y,+0.91 Z,1 ENL,0 us*44
$GNRMC,163128.20,A,4816.48356,N,01139.86607,E,0.05,,080522,,,A*59
$GNGGA,163128.20,4816.48356,N,01139.86607,E,1,12,0.69,474.0,M,46.2,M,,*46
$GNGSA,A,3,32,08,21,27,01,10,22,14,03,,,,1.30,0.69,1.10*18
$GNVTG,,T,,M,0.052,N,0.097,K,A*34
$SMGPS,-0.0 m,-0.01 m/s,7.55 VRx,0.001 km,2 m,175.2 °,1:-- (  0.0 km/h)*F2
$SMGPS2,-0.24 X,+0.23 Y,+0.91 Z,0 ENL,0 us*42
$GNRMC,163128.30,A,4816.48356,N,01139.86607,E,0.06,,080522,,,A*5B
$GNGGA,163128.30,4816.48356,N,01139.86607,E,1,12,0.69,474.0,M,46.2,M,,*47
$GNGSA,A,3,32,08,21,27,01,10,22,14,03,,,,1.30,0.69,1.10*18
$GNVTG,,T,,M,0.056,N,0.104,K,A*3B
$SMGPS,-0.0 m,-0.01 m/s,7.57 VRx,0.001 km,2 m,175.2 °,1:-- (  0.0 km/h)*F0
$SMGPS2,-0.23 X,+0.23 Y,+0.91 Z,0 ENL,0 us*45
$GNRMC,163128.40,A,4816.48356,N,01139.86607,E,0.07,,080522,,,A*5D
$GNGGA,163128.40,4816.48356,N,01139.86607,E,1,12,0.69,474.0,M,46.2,M,,*40
$GNGSA,A,3,32,08,21,27,01,10,22,14,03,,,,1.30,0.69,1.10*18
$GNVTG,,T,,M,0.062,N,0.114,K,A*3D
$SMGPS,-0.0 m,-0.00 m/s,7.55 VRx,0.001 km,2 m,175.2 °,1:-- (  0.0 km/h)*F3
$SMGPS2,-0.23 X,+0.24 Y,+0.91 Z,0 ENL,0 us*42
$GNRMC,163128.50,A,4816.48356,N,01139.86606,E,0.09,,080522,,,A*53
$GNGGA,163128.50,4816.48356,N,01139.86606,E,1,12,0.69,474.0,M,46.2,M,,*40
$GNGSA,A,3,32,08,21,27,01,10,22,14,03,,,,1.30,0.69,1.10*18
$GNVTG,,T,,M,0.072,N,0.133,K,A*39
$SMGPS,-0.0 m,-0.00 m/s,7.57 VRx,0.001 km,2 m,175.2 °,1:-- (  0.0 km/h)*F1
$SMGPS2,-0.23 X,+0.23 Y,+0.91 Z,0 ENL,0 us*45
$GNRMC,163128.60,A,4816.48355,N,01139.86607,E,0.16,,080522,,,A*5C
$GNGGA,163128.60,4816.48355,N,01139.86607,E,1,12,0.69,474.0,M,46.2,M,,*41
$GNGSA,A,3,32,08,21,27,01,10,22,14,03,,,,1.30,0.69,1.10*18
$GNVTG,,T,,M,0.145,N,0.268,K,A*31
$SMGPS,-0.0 m,-0.01 m/s,7.55 VRx,0.001 km,2 m,175.2 °,1:-- (  0.0 km/h)*F2
$SMGPS2,-0.24 X,+0.23 Y,+0.91 Z,0 ENL,0 us*42
$GNRMC,163128.70,A,4816.48355,N,01139.86607,E,0.09,,080522,,,A*53
$GNGGA,163128.70,4816.48355,N,01139.86607,E,1,12,0.69,474.0,M,46.2,M,,*40
$GNGSA,A,3,32,08,21,27,01,10,22,14,03,,,,1.30,0.69,1.10*18
$GNVTG,,T,,M,0.067,N,0.124,K,A*3B
$SMGPS,0.0 m,-0.01 m/s,7.58 VRx,0.001 km,2 m,175.2 °,1:-- (  0.0 km/h)*D2
$SMGPS2,-0.24 X,+0.23 Y,+0.91 Z,0 ENL,0 us*42
$GNRMC,163128.80,A,4816.48355,N,01139.86606,E,0.08,,080522,,,A*5C
$GNGGA,163128.80,4816.48355,N,01139.86606,E,1,12,0.69,474.0,M,46.2,M,,*4E
$GNGSA,A,3,32,08,21,27,01,10,22,14,03,,,,1.30,0.69,1.10*18
$GNVTG,,T,,M,0.062,N,0.115,K,A*3C
$SMGPS,-0.0 m,-0.01 m/s,7.55 VRx,0.001 km,2 m,175.2 °,1:-- (  0.0 km/h)*F2
$SMGPS2,-0.24 X,+0.23 Y,+0.91 Z,0 ENL,0 us*42
$GNRMC,163128.90,A,4816.48355,N,01139.86606,E,0.07,,080522,,,A*52
$GNGGA,163128.90,4816.48355,N,01139.86606,E,1,12,0.69,474.0,M,46.2,M,,*4F
$GNGSA,A,3,32,08,21,27,01,10,22,14,03,,,,1.30,0.69,1.10*18
$GNVTG,,T,,M,0.045,N,0.083,K,A*37
$SMGPS,-0.0 m,-0.01 m/s,7.57 VRx,0.001 km,2 m,175.2 °,1:-- (  0.0 km/h)*F0
$SMGPS2,-0.23 X,+0.23 Y,+0.91 Z,0 ENL,0 us*45
$GNRMC,163129.00,A,4816.48354,N,01139.86606,E,0.10,,080522,,,A*5D
$GNGGA,163129.00,4816.48354,N,01139.86606,E,1,12,0.69,474.0,M,46.2,M,,*46
$GNGSA,A,3,32,08,21,27,01,10,22,14,03,,,,1.30,0.69,1.10*18
$GNVTG,,T,,M,0.092,N,0.171,K,A*31
$SMGPS,0.0 m,-0.01 m/s,7.55 VRx,0.001 km,2 m,175.2 °,1:-- (  0.0 km/h)*DF
$SMGPS2,-0.23 X,+0.23 Y,+0.91 Z,0 ENL,0 us*45
$GNRMC,163129.10,A,4816.48354,N,01139.86605,E,0.08,,080522,,,A*56
$GNGGA,163129.10,4816.48354,N,01139.86605,E,1,12,0.69,474.0,M,46.2,M,,*44
$GNGSA,A,3,32,08,21,27,01,10,22,14,03,,,,1.30,0.69,1.10*18
$GNVTG,,T,,M,0.063,N,0.116,K,A*3E
$SMGPS,0.0 m,-0.01 m/s,7.57 VRx,0.001 km,2 m,175.2 °,1:-- (  0.0 km/h)*DD
$SMGPS2,-0.24 X,+0.23 Y,+0.92 Z,0 ENL,0 us*41
$GNRMC,163129.20,A,4816.48353,N,01139.86605,E,0.14,,080522,,,A*5F
$GNGGA,163129.20,4816.48353,N,01139.86605,E,1,12,0.69,474.0,M,46.2,M,,*40
$GNGSA,A,3,32,08,21,27,01,10,22,14,03,,,,1.30,0.69,1.10*18
$GNVTG,,T,,M,0.138,N,0.255,K,A*35
$SMGPS,0.0 m,-0.00 m/s,7.55 VRx,0.001 km,2 m,175.2 °,1:-- (  0.0 km/h)*DE
$SMGPS2,-0.23 X,+0.23 Y,+0.91 Z,0 ENL,0 us*45
$GNRMC,163129.30,A,4816.48353,N,01139.86605,E,0.08,,080522,,,A*53
$GNGGA,163129.30,4816.48353,N,01139.86605,E,1,12,0.69,474.0,M,46.2,M,,*41
$GNGSA,A,3,32,08,21,27,01,10,22,14,03,,,,1.30,0.69,1.10*18
$GNVTG,,T,,M,0.078,N,0.144,K,A*33
$SMGPS,0.0 m,-0.01 m/s,7.56 VRx,0.001 km,2 m,175.2 °,1:-- (  0.0 km/h)*DC
$SMGPS2,-0.23 X,+0.23 Y,+0.91 Z,0 ENL,0 us*45
$GNRMC,163129.40,A,4816.48352,N,01139.86604,E,0.12,,080522,,,A*5F
$GNGGA,163129.40,4816.48352,N,01139.86604,E,1,12,0.69,474.0,M,46.2,M,,*46
$GNGSA,A,3,32,08,21,27,01,10,22,14,03,,,,1.30,0.69,1.10*18
$GNVTG,,T,,M,0.115,N,0.214,K,A*3F
$SMGPS,0.0 m,-0.00 m/s,7.56 VRx,0.001 km,2 m,175.2 °,1:-- (  0.0 km/h)*DD
$SMGPS2,-0.23 X,+0.23 Y,+0.91 Z,0 ENL,0 us*45
$GNRMC,163129.50,A,4816.48352,N,01139.86604,E,0.13,,080522,,,A*5F
$GNGGA,163129.50,4816.48352,N,01139.86604,E,1,12,0.69,474.0,M,46.2,M,,*47
$GNGSA,A,3,32,08,21,27,01,10,22,14,03,,,,1.30,0.69,1.10*18
$GNVTG,,T,,M,0.129,N,0.239,K,A*3F
$SMGPS,-0.0 m,-0.01 m/s,7.64 VRx,0.001 km,2 m,175.2 °,1:-- (  0.0 km/h)*F0
$SMGPS2,-0.23 X,+0.23 Y,+0.91 Z,1 ENL,0 us*44
$GNRMC,163129.60,A,4816.48352,N,01139.86604,E,0.11,,080522,,,A*5E
$GNGGA,163129.60,4816.48352,N,01139.86604,E,1,12,0.69,474.0,M,46.2,M,,*44
$GNGSA,A,3,32,08,21,27,01,10,22,14,03,,,,1.30,0.69,1.10*18
$GNVTG,,T,,M,0.111,N,0.205,K,A*3B
$SMGPS,-0.0 m,-0.00 m/s,7.56 VRx,0.001 km,2 m,175.2 °,1:-- (  0.0 km/h)*F0
$SMGPS2,-0.23 X,+0.23 Y,+0.92 Z,0 ENL,0 us*46
$GNRMC,163129.70,A,4816.48352,N,01139.86604,E,0.07,,080522,,,A*58
$GNGGA,163129.70,4816.48352,N,01139.86604,E,1,12,0.69,474.0,M,46.2,M,,*45
$GNGSA,A,3,32,08,21,27,01,10,22,14,03,,,,1.30,0.69,1.10*18
$GNVTG,,T,,M,0.064,N,0.118,K,A*37
$SMGPS,-0.0 m,-0.00 m/s,7.56 VRx,0.001 km,2 m,175.2 °,1:-- (  0.0 km/h)*F0
$SMGPS2,-0.24 X,+0.23 Y,+0.91 Z,0 ENL,0 us*42
$GNRMC,163129.80,A,4816.48352,N,01139.86604,E,0.14,,080522,,,A*55
$GNGGA,163129.80,4816.48352,N,01139.86604,E,1,12,0.69,474.0,M,46.2,M,,*4A
$GNGSA,A,3,32,08,21,27,01,10,22,14,03,,,,1.30,0.69,1.10*18
$GNVTG,,T,,M,0.137,N,0.254,K,A*3B
$SMGPS,0.0 m,-0.01 m/s,7.54 VRx,0.001 km,2 m,175.2 °,1:-- (  0.0 km/h)*DE
$SMGPS2,-0.24 X,+0.23 Y,+0.91 Z,0 ENL,0 us*42
$GNRMC,163129.90,A,4816.48352,N,01139.86603,E,0.11,,080522,,,A*56
$GNGGA,163129.90,4816.48352,N,01139.86603,E,1,12,0.69,474.0,M,46.2,M,,*4C
$GNGSA,A,3,32,08,21,27,01,10,22,14,03,,,,1.30,0.69,1.10*18
$GNVTG,,T,,M,0.104,N,0.193,K,A*33
$SMGPS,-0.0 m,-0.01 m/s,7.57 VRx,0.001 km,2 m,175.2 °,1:-- (  0.0 km/h)*F0
$SMGPS2,-0.23 X,+0.23 Y,+0.96 Z,0 ENL,0 us*42
$GNRMC,163130.00,A,4816.48352,N,01139.86603,E,0.07,,080522,,,A*50
$GNGGA,163130.00,4816.48352,N,01139.86603,E,1,12,0.69,474.0,M,46.2,M,,*4D
$GNGSA,A,3,32,08,21,27,01,10,22,14,03,,,,1.30,0.69,1.10*18
$GNVTG,,T,,M,0.065,N,0.121,K,A*3C
$SMGPS,-0.0 m,-0.00 m/s,7.52 VRx,0.001 km,2 m,175.2 °,1:-- (  0.0 km/h)*F4
$SMGPS2,-0.23 X,+0.23 Y,+0.91 Z,0 ENL,0 us*45
$GNRMC,163130.10,A,4816.48352,N,01139.86603,E,0.08,,080522,,,A*5E
$GNGGA,163130.10,4816.48352,N,01139.86603,E,1,12,0.69,474.0,M,46.2,M,,*4C
$GNGSA,A,3,32,08,21,27,01,10,22,14,03,,,,1.30,0.69,1.10*18
$GNVTG,,T,,M,0.066,N,0.121,K,A*3F
$SMGPS,-0.0 m,+0.00 m/s,7.57 VRx,0.001 km,2 m,175.2 °,1:-- (  0.0 km/h)*F7
$SMGPS2,-0.23 X,+0.23 Y,+0.90 Z,0 ENL,0 us*44
$GNRMC,163130.20,A,4816.48353,N,01139.86603,E,0.04,,080522,,,A*50
$GNGGA,163130.20,4816.48353,N,01139.86603,E,1,12,0.69,474.0,M,46.2,M,,*4E
$GNGSA,A,3,32,08,21,27,01,10,22,14,03,,,,1.30,0.69,1.10*18
$GNVTG,,T,,M,0.009,N,0.016,K,A*33
$SMGPS,0.0 m,+0.00 m/s,7.54 VRx,0.001 km,2 m,175.2 °,1:-- (  0.0 km/h)*D9
$SMGPS2,-0.23 X,+0.23 Y,+0.91 Z,0 ENL,0 us*45
$GNRMC,163130.30,A,4816.48353,N,01139.86603,E,0.06,,080522,,,A*53
$GNGGA,163130.30,4816.48353,N,01139.86603,E,1,12,0.69,474.0,M,46.2,M,,*4F
$GNGSA,A,3,32,08,21,27,01,10,22,14,03,,,,1.30,0.69,1.10*18
$GNVTG,,T,,M,0.048,N,0.088,K,A*31
$SMGPS,-0.0 m,-0.00 m/s,7.56 VRx,0.001 km,2 m,175.2 °,1:-- (  0.0 km/h)*F0
$SMGPS2,-0.23 X,+0.23 Y,+0.91 Z,0 ENL,0 us*45
$GNRMC,163130.40,A,4816.48353,N,01139.86603,E,0.08,,080522,,,A*5A
$GNGGA,163130.40,4816.48353,N,01139.86603,E,1,12,0.69,474.0,M,46.2,M,,*48
$GNGSA,A,3,32,08,21,27,01,10,22,14,03,,,,1.30,0.69,1.10*18
$GNVTG,,T,,M,0.079,N,0.146,K,A*30
$SMGPS,0.0 m,-0.00 m/s,7.55 VRx,0.001 km,2 m,175.2 °,1:-- (  0.0 km/h)*DE
$SMGPS2,-0.23 X,+0.23 Y,+0.91 Z,1 ENL,0 us*44
$GNRMC,163130.50,A,4816.48354,N,01139.86603,E,0.08,,080522,,,A*5C
$GNGGA,163130.50,4816.48354,N,01139.86603,E,1,12,0.69,474.0,M,46.2,M,,*4E
$GNGSA,A,3,32,08,21,27,01,10,22,14,03,,,,1.30,0.69,1.10*18
$GNVTG,,T,,M,0.078,N,0.145,K,A*32
$SMGPS,-0.0 m,-0.01 m/s,7.56 VRx,0.001 km,2 m,175.2 °,1:-- (  0.0 km/h)*F1
$SMGPS2,-0.24 X,+0.23 Y,+0.92 Z,0 ENL,0 us*41
$GNRMC,163130.60,A,4816.48354,N,01139.86604,E,0.07,,080522,,,A*57
$GNGGA,163130.60,4816.48354,N,01139.86604,E,1,12,0.69,474.0,M,46.2,M,,*4A
$GNGSA,A,3,32,08,21,27,01,10,22,14,03,,,,1.30,0.69,1.10*18
$GNVTG,,T,,M,0.069,N,0.129,K,A*38
$SMGPS,0.0 m,-0.01 m/s,7.55 VRx,0.001 km,2 m,175.2 °,1:-- (  0.0 km/h)*DF
$SMGPS2,-0.23 X,+0.23 Y,+0.91 Z,0 ENL,0 us*45
$GNRMC,163130.70,A,4816.48354,N,01139.86604,E,0.07,,080522,,,A*56
$GNGGA,163130.70,4816.48354,N,01139.86604,E,1,12,0.69,474.0,M,46.2,M,,*4B
$GNGSA,A,3,32,08,21,27,01,10,22,14,03,,,,1.30,0.69,1.10*18
$GNVTG,,T,,M,0.064,N,0.119,K,A*36
$SMGPS,-0.0 m,-0.02 m/s,7.56 VRx,0.001 km,2 m,175.2 °,1:-- (  0.0 km/h)*F2
$SMGPS2,-0.24 X,+0.23 Y,+0.91 Z,1 ENL,0 us*43
$GNRMC,163130.80,A,4816.48355,N,01139.86604,E,0.03,,080522,,,A*5C
$GNGGA,163130.80,4816.48355,N,01139.86604,E,1,12,0.69,474.0,M,46.2,M,,*45
$GNGSA,A,3,32,08,21,27,01,10,22,14,03,,,,1.30,0.69,1.10*18
$GNVTG,,T,,M,0.024,N,0.044,K,A*3B
$SMGPS,0.0 m,-0.03 m/s,7.55 VRx,0.001 km,2 m,175.2 °,1:-- (  0.0 km/h)*DD
$SMGPS2,-0.23 X,+0.23 Y,+0.91 Z,1 ENL,0 us*44
$GNRMC,163130.90,A,4816.48355,N,01139.86604,E,0.09,,080522,,,A*57
$GNGGA,163130.90,4816.48355,N,01139.86604,E,1,12,0.69,474.0,M,46.2,M,,*44
$GNGSA,A,3,32,08,21,27,01,10,22,14,03,,,,1.30,0.69,1.10*18
$GNVTG,,T,,M,0.091,N,0.169,K,A*3B
$SMGPS,-0.0 m,-0.03 m/s,7.57 VRx,0.001 km,2 m,175.2 °,1:-- (  0.0 km/h)*F2
$SMGPS2,-0.23 X,+0.23 Y,+0.91 Z,0 ENL,0 us*45
$GNRMC,163131.00,A,4816.48355,N,01139.86604,E,0.23,,080522,,,A*57
$GNGGA,163131.00,4816.48355,N,01139.86604,E,1,12,0.69,474.0,M,46.2,M,,*4C
$GNGSA,A,3,32,08,21,27,01,10,22,14,03,,,,1.30,0.69,1.10*18
$GNVTG,,T,,M,0.229,N,0.424,K,A*36
$SMGPS,0.0 m,-0.02 m/s,7.55 VRx,0.001 km,2 m,175.2 °,1:-- (  0.0 km/h)*DC
$SMGPS2,-0.24 X,+0.23 Y,+0.92 Z,1 ENL,0 us*40
$GNRMC,163131.10,A,4816.48355,N,01139.86604,E,0.11,,080522,,,A*57
$GNGGA,163131.10,4816.48355,N,01139.86604,E,1,12,0.69,474.0,M,46.2,M,,*4D
$GNGSA,A,3,32,08,21,27,01,10,22,14,03,,,,1.30,0.69,1.10*18
$GNVTG,,T,,M,0.109,N,0.202,K,A*35
$SMGPS,0.0 m,-0.02 m/s,7.57 VRx,0.001 km,2 m,175.2 °,1:-- (  0.0 km/h)*DE
$SMGPS2,-0.24 X,+0.24 Y,+0.91 Z,1 ENL,0 us*44
$GNRMC,163131.20,A,4816.48355,N,01139.86604,E,0.02,,080522,,,A*56
$GNGGA,163131.20,4816.48355,N,01139.86604,E,1,12,0.69,474.0,M,46.2,M,,*4E
$GNGSA,A,3,32,08,21,27,01,10,22,14,03,,,,1.30,0.69,1.10*18
$GNVTG,,T,,M,0.018,N,0.034,K,A*33
$SMGPS,-0.0 m,-0.01 m/s,7.54 VRx,0.001 km,2 m,175.2 °,1:-- (  0.0 km/h)*F3
$SMGPS2,-0.23 X,+0.23 Y,+0.91 Z,0 ENL,0 us*45
$GNRMC,163131.30,A,4816.48356,N,01139.86604,E,0.09,,080522,,,A*5F
$GNGGA,163131.30,4816.48356,N,01139.86604,E,1,12,0.69,474.0,M,46.2,M,,*4C
$GNGSA,A,3,32,08,21,27,01,10,22,14,03,,,,1.30,0.69,1.10*18
$GNVTG,,T,,M,0.092,N,0.170,K,A*30
$SMGPS,0.0 m,-0.00 m/s,7.57 VRx,0.001 km,2 m,175.2 °,1:-- (  0.0 km/h)*DC
$SMGPS2,-0.23 X,+0.23 Y,+0.91 Z,0 ENL,0 us*45
$GNRMC,163131.40,A,4816.48356,N,01139.86604,E,0.06,,080522,,,A*57
$GNGGA,163131.40,4816.48356,N,01139.86604,E,1,12,0.69,474.0,M,46.2,M,,*4B
$GNGSA,A,3,32,08,21,27,01,10,22,14,03,,,,1.30,0.69,1.10*18
$GNVTG,,T,,M,0.060,N,0.111,K,A*3A
$SMGPS,0.0 m,+0.00 m/s,7.54 VRx,0.001 km,2 m,175.2 °,1:-- (  0.0 km/h)*D9
$SMGPS2,-0.23 X,+0.23 Y,+0.91 Z,0 ENL,0 us*45
$GNRMC,163131.50,A,4816.48356,N,01139.86604,E,0.07,,080522,,,A*57
$GNGGA,163131.50,4816.48356,N,01139.86604,E,1,12,0.69,474.0,M,46.2,M,,*4A
$GNGSA,A,3,32,08,21,27,01,10,22,14,03,,,,1.30,0.69,1.10*18
$GNVTG,,T,,M,0.069,N,0.127,K,A*36
$SMGPS,0.0 m,+0.01 m/s,7.58 VRx,0.001 km,2 m,175.2 °,1:-- (  0.0 km/h)*D4
$SMGPS2,-0.23 X,+0.23 Y,+0.91 Z,1 ENL,0 us*44
$GNRMC,163131.60,A,4816.48356,N,01139.86604,E,0.12,,080522,,,A*50
$GNGGA,163131.60,4816.48356,N,01139.86604,E,1,12,0.69,474.0,M,46.2,M,,*49
$GNGSA,A,3,32,08,21,27,01,10,22,14,03,,,,1.30,0.69,1.10*18
$GNVTG,,T,,M,0.121,N,0.225,K,A*3A
$SMGPS,-0.0 m,+0.01 m/s,7.54 VRx,0.001 km,2 m,175.2 °,1:-- (  0.0 km/h)*F5
$SMGPS2,-0.24 X,+0.22 Y,+0.91 Z,1 ENL,0 us*42
$GNRMC,163131.70,A,4816.48356,N,01139.86604,E,0.03,,080522,,,A*51
$GNGGA,163131.70,4816.48356,N,01139.86604,E,1,12,0.69,474.0,M,46.2,M,,*48
$GNGSA,A,3,32,08,21,27,01,10,22,14,03,,,,1.30,0.69,1.10*18
$GNVTG,,T,,M,0.016,N,0.029,K,A*31
$SMGPS,0.0 m,+0.01 m/s,7.57 VRx,0.001 km,2 m,175.2 °,1:-- (  0.0 km/h)*DB
$SMGPS2,-0.24 X,+0.23 Y,+0.91 Z,0 ENL,0 us*42
