$GPSSETUP,8AE8,0,1,1,0,0,1,0,0,0,1,3,0,0,0,0,6,0,C8,C8,1F4,1C2,32,64,7C,64,7D0,5,1,1,1E,0,0,0,0,0,0,1003,4,10,5,6,10,10,10,10,10,10,10,10,10,BC10,0,7C,0,108,302,604,0,20F,0,0,0,0,0,0,0,0,0,0,0,0,0,0,0,0,0,0,0,0,0,0,0,0,0,0,0,0,0,0,0,0,0,20,12C,877D*47
$GNRMC,154120.00,A,4816.48356,N,01139.86940,E,0.18,,080522,,,A*57
$GNGGA,154120.00,4816.48356,N,01139.86940,E,1,11,1.13,476.7,M,46.2,M,,*4E
$GNGSA,A,3,10,08,21,23,27,,,,,,,,1.74,1.13,1.33*12
$GNVTG,,T,,M,0.173,N,0.320,K,A*39
$SMGPS,-0.1 m,-0.01 m/s,7.67 VRx,0.000 km,1 m,170.6 °,1:-- (  0.0 km/h)*F1
$SMGPS2,-0.16 X,+0.15 Y,+1.00 Z,7 ENL,0 us*48
$GNRMC,154120.10,A,4816.48335,N,01139.86951,E,0.20,,080522,,,A*58
$GNGGA,154120.10,4816.48335,N,01139.86951,E,1,11,1.13,476.8,M,46.2,M,,*45
$GNGSA,A,3,10,08,21,23,27,,,,,,,,1.74,1.13,1.33*12
$GNVTG,,T,,M,0.195,N,0.361,K,A*34
$SMGPS,-0.0 m,-0.02 m/s,7.66 VRx,0.000 km,1 m,170.6 °,1:-- (  0.0 km/h)*F2
$SMGPS2,-0.16 X,+0.18 Y,+0.95 Z,10 ENL,0 us*7E
$GNRMC,154120.20,A,4816.48318,N,01139.86959,E,0.59,,080522,,,A*52
$GNGGA,154120.20,4816.48318,N,01139.86959,E,1,11,1.13,476.8,M,46.2,M,,*41
$GNGSA,A,3,10,08,21,23,27,,,,,,,,1.74,1.13,1.33*12
$GNVTG,,T,,M,0.584,N,1.081,K,A*3C
$SMGPS,0.0 m,-0.02 m/s,7.69 VRx,0.000 km,1 m,161.6 °,1:-- (  0.0 km/h)*D0
$SMGPS2,-0.15 X,+0.18 Y,+0.95 Z,5 ENL,0 us*49
$GNRMC,154120.30,A,4816.48309,N,01139.86968,E,0.09,,080522,,,A*54
$GNGGA,154120.30,4816.48309,N,01139.86968,E,1,12,1.12,476.8,M,46.2,M,,*40
$GNGSA,A,3,10,08,21,23,27,,,,,,,,1.73,1.12,1.32*15
$GNVTG,,T,,M,0.075,N,0.139,K,A*34
$SMGPS,0.0 m,-0.02 m/s,7.59 VRx,0.000 km,1 m,153.5 °,1:-- (  0.0 km/h)*D1
$SMGPS2,-0.15 X,+0.18 Y,+0.96 Z,0 ENL,0 us*4F
$GNRMC,154120.40,A,4816.48299,N,01139.86977,E,0.14,,080522,,,A*59
$GNGGA,154120.40,4816.48299,N,01139.86977,E,1,12,1.12,476.7,M,46.2,M,,*4E
$GNGSA,A,3,10,08,21,23,27,,,,,,,,1.73,1.12,1.32*15
$GNVTG,,T,,M,0.118,N,0.219,K,A*3F
$SMGPS,-0.1 m,-0.03 m/s,7.61 VRx,0.000 km,2 m,166.0 °,1:-- (  0.0 km/h)*F7
$SMGPS2,-0.16 X,+0.19 Y,+0.96 Z,120 ENL,0 us*4E
$GNRMC,154120.50,A,4816.48287,N,01139.86987,E,0.16,,080522,,,A*5A
$GNGGA,154120.50,4816.48287,N,01139.86987,E,1,12,0.95,476.7,M,46.2,M,,*41
$GNGSA,A,3,10,08,21,23,27,,,,,,,,1.60,0.95,1.28*12
$GNVTG,,T,,M,0.125,N,0.232,K,A*38
$SMGPS,-0.1 m,-0.05 m/s,7.59 VRx,0.000 km,2 m,161.6 °,1:-- (  0.0 km/h)*FB
$SMGPS2,-0.15 X,+0.18 Y,+0.95 Z,2 ENL,0 us*4E
$GNRMC,154120.60,A,4816.48271,N,01139.86999,E,0.22,,080522,,,A*58
$GNGGA,154120.60,4816.48271,N,01139.86999,E,1,12,0.95,476.8,M,46.2,M,,*4B
$GNGSA,A,3,10,08,21,23,27,,,,,,,,1.60,0.95,1.28*12
$GNVTG,,T,,M,0.193,N,0.357,K,A*37
$SMGPS,-0.0 m,-0.05 m/s,7.61 VRx,0.000 km,2 m,155.4 °,1:-- (  0.0 km/h)*F4
$SMGPS2,-0.16 X,+0.17 Y,+0.96 Z,16 ENL,0 us*74
$GNRMC,154120.70,A,4816.48255,N,01139.87010,E,0.32,,080522,,,A*57
$GNGGA,154120.70,4816.48255,N,01139.87010,E,1,12,0.95,476.8,M,46.2,M,,*45
$GNGSA,A,3,10,08,21,23,27,,,,,,,,1.60,0.95,1.28*12
$GNVTG,,T,,M,0.313,N,0.580,K,A*31
$SMGPS,0.0 m,-0.03 m/s,7.59 VRx,0.000 km,2 m,151.6 °,1:-- (  0.0 km/h)*D2
$SMGPS2,-0.15 X,+0.17 Y,+0.96 Z,1 ENL,0 us*41
$GNRMC,154120.80,A,4816.48251,N,01139.87015,E,0.12,,080522,,,A*5B
$GNGGA,154120.80,4816.48251,N,01139.87015,E,1,12,0.95,476.8,M,46.2,M,,*4B
$GNGSA,A,3,10,08,21,23,27,,,,,,,,1.60,0.95,1.28*12
$GNVTG,,T,,M,0.108,N,0.200,K,A*36
$SMGPS,0.0 m,-0.03 m/s,7.61 VRx,0.000 km,3 m,157.4 °,1:-- (  0.0 km/h)*DC
$SMGPS2,-0.15 X,+0.18 Y,+0.95 Z,0 ENL,0 us*4C
$GNRMC,154120.90,A,4816.48243,N,01139.87018,E,0.24,,080522,,,A*51
$GNGGA,154120.90,4816.48243,N,01139.87018,E,1,12,0.95,476.8,M,46.2,M,,*44
$GNGSA,A,3,10,08,21,23,27,,,,,,,,1.60,0.95,1.28*12
$GNVTG,,T,,M,0.236,N,0.438,K,A*35
$SMGPS,0.0 m,-0.03 m/s,7.59 VRx,0.000 km,3 m,157.4 °,1:-- (  0.0 km/h)*D7
$SMGPS2,-0.15 X,+0.18 Y,+0.96 Z,0 ENL,0 us*4F
$GNRMC,154121.00,A,4816.48234,N,01139.87025,E,0.23,,080522,,,A*50
$GNGGA,154121.00,4816.48234,N,01139.87025,E,1,12,0.95,476.8,M,46.2,M,,*42
$GNGSA,A,3,10,08,21,23,27,,,,,,,,1.60,0.95,1.28*12
$GNVTG,,T,,M,0.223,N,0.413,K,A*38
$SMGPS,-0.0 m,-0.03 m/s,7.61 VRx,0.000 km,3 m,154.8 °,1:-- (  0.0 km/h)*FE
$SMGPS2,-0.15 X,+0.17 Y,+0.95 Z,0 ENL,0 us*43
$GNRMC,154121.10,A,4816.48233,N,01139.87029,E,0.07,,080522,,,A*5C
$GNGGA,154121.10,4816.48233,N,01139.87029,E,1,12,0.90,476.8,M,46.2,M,,*4D
$GNGSA,A,3,10,08,21,23,27,01,14,,,,,,1.49,0.90,1.19*1A
$GNVTG,,T,,M,0.056,N,0.103,K,A*3C
$SMGPS,-0.0 m,-0.03 m/s,7.59 VRx,0.000 km,3 m,154.8 °,1:-- (  0.0 km/h)*F5
$SMGPS2,-0.16 X,+0.17 Y,+0.95 Z,0 ENL,0 us*40
$GNRMC,154121.20,A,4816.48226,N,01139.87035,E,0.11,,080522,,,A*51
$GNGGA,154121.20,4816.48226,N,01139.87035,E,1,12,0.90,476.8,M,46.2,M,,*47
$GNGSA,A,3,10,08,21,23,27,01,14,,,,,,1.49,0.90,1.19*1A
$GNVTG,,T,,M,0.110,N,0.203,K,A*3C
$SMGPS,-0.0 m,-0.02 m/s,7.61 VRx,0.000 km,3 m,154.8 °,1:-- (  0.0 km/h)*FF
$SMGPS2,-0.15 X,+0.18 Y,+0.96 Z,0 ENL,0 us*4F
$GNRMC,154121.30,A,4816.48214,N,01139.87044,E,0.07,,080522,,,A*50
$GNGGA,154121.30,4816.48214,N,01139.87044,E,1,12,0.90,476.8,M,46.2,M,,*41
$GNGSA,A,3,10,08,21,23,27,01,14,,,,,,1.49,0.90,1.19*1A
$GNVTG,,T,,M,0.065,N,0.120,K,A*3D
$SMGPS,0.0 m,-0.02 m/s,7.60 VRx,0.000 km,3 m,152.2 °,1:-- (  0.0 km/h)*DF
$SMGPS2,-0.16 X,+0.18 Y,+0.96 Z,0 ENL,0 us*4C
$GNRMC,154121.40,A,4816.48206,N,01139.87050,E,0.15,,080522,,,A*52
$GNGGA,154121.40,4816.48206,N,01139.87050,E,1,12,0.75,476.8,M,46.2,M,,*4B
$GNGSA,A,3,10,08,21,23,27,32,01,14,,,,,1.27,0.75,1.03*13
$GNVTG,,T,,M,0.144,N,0.266,K,A*3E
$SMGPS,0.0 m,-0.02 m/s,7.62 VRx,0.000 km,4 m,156.4 °,1:-- (  0.0 km/h)*D8
$SMGPS2,-0.16 X,+0.18 Y,+0.95 Z,0 ENL,0 us*4F
$GNRMC,154121.50,A,4816.48210,N,01139.87051,E,0.08,,080522,,,A*59
$GNGGA,154121.50,4816.48210,N,01139.87051,E,1,12,0.81,476.8,M,46.2,M,,*47
$GNGSA,A,3,10,08,21,23,27,32,01,14,,,,,1.32,0.81,1.04*1B
$GNVTG,,T,,M,0.080,N,0.148,K,A*38
$SMGPS,0.0 m,-0.01 m/s,7.60 VRx,0.000 km,4 m,156.4 °,1:-- (  0.0 km/h)*D9
$SMGPS2,-0.15 X,+0.17 Y,+0.95 Z,0 ENL,0 us*43
$GNRMC,154121.60,A,4816.48215,N,01139.87051,E,0.05,,080522,,,A*52
$GNGGA,154121.60,4816.48215,N,01139.87051,E,1,12,0.81,476.8,M,46.2,M,,*41
$GNGSA,A,3,10,08,21,23,27,32,01,14,,,,,1.32,0.81,1.04*1B
$GNVTG,,T,,M,0.038,N,0.070,K,A*31
$SMGPS,-0.0 m,-0.01 m/s,7.62 VRx,0.000 km,4 m,156.4 °,1:-- (  0.0 km/h)*F6
$SMGPS2,-0.15 X,+0.18 Y,+0.96 Z,0 ENL,0 us*4F
$GNRMC,154121.70,A,4816.48219,N,01139.87052,E,0.18,,080522,,,A*50
$GNGGA,154121.70,4816.48219,N,01139.87052,E,1,12,0.81,476.8,M,46.2,M,,*4F
$GNGSA,A,3,10,08,21,23,27,32,01,14,,,,,1.32,0.81,1.04*1B
$GNVTG,,T,,M,0.177,N,0.328,K,A*35
$SMGPS,-0.0 m,-0.01 m/s,7.59 VRx,0.000 km,4 m,156.4 °,1:-- (  0.0 km/h)*FE
$SMGPS2,-0.16 X,+0.18 Y,+0.96 Z,0 ENL,0 us*4C
$GNRMC,154121.80,A,4816.48221,N,01139.87056,E,0.19,,080522,,,A*51
$GNGGA,154121.80,4816.48221,N,01139.87056,E,1,12,0.81,476.8,M,46.2,M,,*4F
$GNGSA,A,3,10,08,21,23,27,32,01,14,,,,,1.32,0.81,1.04*1B
$GNVTG,,T,,M,0.192,N,0.355,K,A*34
$SMGPS,-0.0 m,-0.00 m/s,7.63 VRx,0.000 km,3 m,149.8 °,1:-- (  0.0 km/h)*F3
$SMGPS2,-0.14 X,+0.17 Y,+0.94 Z,0 ENL,0 us*43
$GNRMC,154121.90,A,4816.48217,N,01139.87060,E,0.07,,080522,,,A*5F
$GNGGA,154121.90,4816.48217,N,01139.87060,E,1,12,0.79,476.8,M,46.2,M,,*49
$GNGSA,A,3,10,08,21,23,27,32,01,14,,,,,1.30,0.79,1.03*19
$GNVTG,,T,,M,0.066,N,0.121,K,A*3F
$SMGPS,0.0 m,+0.01 m/s,7.59 VRx,0.000 km,3 m,147.5 °,1:-- (  0.0 km/h)*D3
$SMGPS2,-0.16 X,+0.17 Y,+0.96 Z,0 ENL,0 us*43
$GNRMC,154122.00,A,4816.48219,N,01139.87060,E,0.10,,080522,,,A*5D
$GNGGA,154122.00,4816.48219,N,01139.87060,E,1,12,0.79,476.8,M,46.2,M,,*4D
$GNGSA,A,3,10,08,21,23,27,32,01,14,,,,,1.30,0.79,1.03*19
$GNVTG,,T,,M,0.104,N,0.193,K,A*33
$SMGPS,-0.0 m,+0.01 m/s,7.62 VRx,0.000 km,4 m,154.4 °,1:-- (  0.0 km/h)*F2
$SMGPS2,-0.15 X,+0.18 Y,+0.96 Z,0 ENL,0 us*4F
$GNRMC,154122.10,A,4816.48220,N,01139.87061,E,0.06,,080522,,,A*50
$GNGGA,154122.10,4816.48220,N,01139.87061,E,1,12,0.79,476.8,M,46.2,M,,*47
$GNGSA,A,3,10,08,21,23,27,32,01,14,,,,,1.30,0.79,1.03*19
$GNVTG,,T,,M,0.055,N,0.103,K,A*3F
$SMGPS,-0.0 m,+0.01 m/s,7.59 VRx,0.000 km,3 m,147.5 °,1:-- (  0.0 km/h)*FE
$SMGPS2,-0.16 X,+0.17 Y,+0.95 Z,0 ENL,0 us*40
$GNRMC,154122.20,A,4816.48215,N,01139.87068,E,0.11,,080522,,,A*5A
$GNGGA,154122.20,4816.48215,N,01139.87068,E,1,12,0.79,476.9,M,46.2,M,,*4A
$GNGSA,A,3,10,08,21,23,27,32,01,14,,,,,1.30,0.79,1.03*19
$GNVTG,,T,,M,0.107,N,0.198,K,A*3B
$SMGPS,0.1 m,+0.01 m/s,7.61 VRx,0.000 km,3 m,147.5 °,1:-- (  0.0 km/h)*D9
$SMGPS2,-0.15 X,+0.17 Y,+0.95 Z,0 ENL,0 us*43
$GNRMC,154122.30,A,4816.48211,N,01139.87072,E,0.20,,080522,,,A*56
$GNGGA,154122.30,4816.48211,N,01139.87072,E,1,12,0.68,476.8,M,46.2,M,,*45
$GNGSA,A,3,10,08,21,23,27,32,01,22,14,,,,1.13,0.68,0.90*13
$GNVTG,,T,,M,0.203,N,0.376,K,A*3E
$SMGPS,-0.0 m,+0.02 m/s,7.59 VRx,0.000 km,4 m,152.5 °,1:-- (  0.0 km/h)*FE
$SMGPS2,-0.15 X,+0.18 Y,+0.96 Z,0 ENL,0 us*4F
$GNRMC,154122.40,A,4816.48211,N,01139.87074,E,0.20,,080522,,,A*57
$GNGGA,154122.40,4816.48211,N,01139.87074,E,1,12,0.68,476.8,M,46.2,M,,*44
$GNGSA,A,3,10,08,21,23,27,32,01,22,14,,,,1.13,0.68,0.90*13
$GNVTG,,T,,M,0.197,N,0.365,K,A*32
$SMGPS,-0.0 m,+0.02 m/s,7.62 VRx,0.000 km,4 m,152.5 °,1:-- (  0.0 km/h)*F6
$SMGPS2,-0.14 X,+0.18 Y,+0.95 Z,0 ENL,0 us*4D
$GNRMC,154122.50,A,4816.48213,N,01139.87075,E,0.27,,080522,,,A*52
$GNGGA,154122.50,4816.48213,N,01139.87075,E,1,12,0.68,476.8,M,46.2,M,,*46
$GNGSA,A,3,10,08,21,23,27,32,01,22,14,,,,1.13,0.68,0.90*13
$GNVTG,,T,,M,0.268,N,0.497,K,A*3B
$SMGPS,-0.0 m,+0.02 m/s,7.60 VRx,0.000 km,4 m,152.5 °,1:-- (  0.0 km/h)*F4
$SMGPS2,-0.15 X,+0.17 Y,+0.96 Z,0 ENL,0 us*40
$GNRMC,154122.60,A,4816.48213,N,01139.87078,E,0.22,,080522,,,A*59
$GNGGA,154122.60,4816.48213,N,01139.87078,E,1,12,0.68,476.8,M,46.2,M,,*48
$GNGSA,A,3,10,08,21,23,27,32,01,22,14,,,,1.13,0.68,0.90*13
$GNVTG,,T,,M,0.224,N,0.415,K,A*39
$SMGPS,0.0 m,+0.01 m/s,7.61 VRx,0.000 km,4 m,152.5 °,1:-- (  0.0 km/h)*DB
$SMGPS2,-0.16 X,+0.17 Y,+0.95 Z,0 ENL,0 us*40
$GNRMC,154122.70,A,4816.48215,N,01139.87079,E,0.06,,080522,,,A*59
$GNGGA,154122.70,4816.48215,N,01139.87079,E,1,12,0.68,476.8,M,46.2,M,,*4E
$GNGSA,A,3,10,08,21,23,27,32,01,22,14,,,,1.13,0.68,0.90*13
$GNVTG,,T,,M,0.056,N,0.103,K,A*3C
$SMGPS,-0.0 m,+0.00 m/s,7.60 VRx,0.000 km,4 m,152.5 °,1:-- (  0.0 km/h)*F6
$SMGPS2,-0.15 X,+0.16 Y,+0.96 Z,0 ENL,0 us*41
$GNRMC,154122.80,A,4816.48217,N,01139.87080,E,0.03,,080522,,,A*57
$GNGGA,154122.80,4816.48217,N,01139.87080,E,1,12,0.68,476.8,M,46.2,M,,*45
$GNGSA,A,3,10,08,21,23,27,32,01,22,14,,,,1.13,0.68,0.90*13
$GNVTG,,T,,M,0.028,N,0.052,K,A*30
$SMGPS,0.0 m,+0.00 m/s,7.61 VRx,0.000 km,4 m,149.8 °,1:-- (  0.0 km/h)*DD
$SMGPS2,-0.15 X,+0.16 Y,+0.96 Z,0 ENL,0 us*41
$GNRMC,154122.90,A,4816.48217,N,01139.87081,E,0.09,,080522,,,A*5D
$GNGGA,154122.90,4816.48217,N,01139.87081,E,1,12,0.68,476.8,M,46.2,M,,*45
$GNGSA,A,3,10,08,21,23,27,32,01,22,14,,,,1.13,0.68,0.90*13
$GNVTG,,T,,M,0.089,N,0.165,K,A*3E
$SMGPS,0.0 m,-0.00 m/s,7.59 VRx,0.000 km,4 m,149.8 °,1:-- (  0.0 km/h)*D0
$SMGPS2,-0.16 X,+0.16 Y,+0.96 Z,0 ENL,0 us*42
$GNRMC,154123.00,A,4816.48218,N,01139.87081,E,0.06,,080522,,,A*55
$GNGGA,154123.00,4816.48218,N,01139.87081,E,1,12,0.68,476.8,M,46.2,M,,*42
$GNGSA,A,3,10,08,21,23,27,32,01,22,14,,,,1.13,0.68,0.90*13
$GNVTG,,T,,M,0.058,N,0.107,K,A*36
$SMGPS,-0.0 m,-0.01 m/s,7.62 VRx,0.000 km,4 m,149.8 °,1:-- (  0.0 km/h)*F4
$SMGPS2,-0.15 X,+0.17 Y,+0.96 Z,0 ENL,0 us*40
$GNRMC,154123.10,A,4816.48219,N,01139.87081,E,0.10,,080522,,,A*52
$GNGGA,154123.10,4816.48219,N,01139.87081,E,1,12,0.68,476.8,M,46.2,M,,*42
$GNGSA,A,3,10,08,21,23,27,32,01,22,14,,,,1.13,0.68,0.90*13
$GNVTG,,T,,M,0.100,N,0.185,K,A*30
$SMGPS,0.0 m,-0.01 m/s,7.59 VRx,0.000 km,3 m,142.2 °,1:-- (  0.0 km/h)*D7
$SMGPS2,-0.15 X,+0.16 Y,+0.95 Z,0 ENL,0 us*42
$GNRMC,154123.20,A,4816.48221,N,01139.87080,E,0.06,,080522,,,A*5C
$GNGGA,154123.20,4816.48221,N,01139.87080,E,1,12,0.68,476.8,M,46.2,M,,*4B
$GNGSA,A,3,10,08,21,23,27,32,01,22,14,,,,1.13,0.68,0.90*13
$GNVTG,,T,,M,0.056,N,0.103,K,A*3C
$SMGPS,0.0 m,-0.01 m/s,7.62 VRx,0.000 km,3 m,142.2 °,1:-- (  0.0 km/h)*DF
$SMGPS2,-0.15 X,+0.17 Y,+0.96 Z,0 ENL,0 us*40
$GNRMC,154123.30,A,4816.48225,N,01139.87077,E,0.08,,080522,,,A*5F
$GNGGA,154123.30,4816.48225,N,01139.87077,E,1,12,0.68,476.8,M,46.2,M,,*46
$GNGSA,A,3,10,08,21,23,27,32,01,22,14,,,,1.13,0.68,0.90*13
$GNVTG,,T,,M,0.075,N,0.139,K,A*34
$SMGPS,0.0 m,+0.00 m/s,7.59 VRx,0.000 km,3 m,142.2 °,1:-- (  0.0 km/h)*D0
$SMGPS2,-0.16 X,+0.16 Y,+0.97 Z,0 ENL,0 us*43
$GNRMC,154123.40,A,4816.48229,N,01139.87077,E,0.07,,080522,,,A*5B
$GNGGA,154123.40,4816.48229,N,01139.87077,E,1,12,0.68,476.8,M,46.2,M,,*4D
$GNGSA,A,3,10,08,21,23,27,32,01,22,14,,,,1.13,0.68,0.90*13
$GNVTG,,T,,M,0.066,N,0.122,K,A*3C
$SMGPS,0.0 m,+0.01 m/s,7.62 VRx,0.000 km,3 m,145.3 °,1:-- (  0.0 km/h)*DF
$SMGPS2,-0.15 X,+0.17 Y,+0.95 Z,0 ENL,0 us*43
$GNRMC,154123.50,A,4816.48233,N,01139.87076,E,0.13,,080522,,,A*55
$GNGGA,154123.50,4816.48233,N,01139.87076,E,1,12,0.68,476.8,M,46.2,M,,*46
$GNGSA,A,3,10,08,21,23,27,32,01,22,14,,,,1.13,0.68,0.90*13
$GNVTG,,T,,M,0.124,N,0.230,K,A*3B
$SMGPS,-0.0 m,+0.00 m/s,7.60 VRx,0.000 km,3 m,145.3 °,1:-- (  0.0 km/h)*F1
$SMGPS2,-0.16 X,+0.16 Y,+0.96 Z,0 ENL,0 us*42
$GNRMC,154123.60,A,4816.48235,N,01139.87077,E,0.09,,080522,,,A*5A
$GNGGA,154123.60,4816.48235,N,01139.87077,E,1,12,0.68,476.8,M,46.2,M,,*42
$GNGSA,A,3,10,08,21,23,27,32,01,22,14,,,,1.13,0.68,0.90*13
$GNVTG,,T,,M,0.090,N,0.167,K,A*34
$SMGPS,-0.0 m,-0.00 m/s,7.62 VRx,0.000 km,3 m,145.3 °,1:-- (  0.0 km/h)*F5
$SMGPS2,-0.15 X,+0.16 Y,+0.96 Z,0 ENL,0 us*41
$GNRMC,154123.70,A,4816.48236,N,01139.87078,E,0.07,,080522,,,A*59
$GNGGA,154123.70,4816.48236,N,01139.87078,E,1,12,0.68,476.8,M,46.2,M,,*4F
$GNGSA,A,3,10,08,21,23,27,32,01,22,14,,,,1.13,0.68,0.90*13
$GNVTG,,T,,M,0.067,N,0.123,K,A*3C
$SMGPS,0.0 m,-0.00 m/s,7.60 VRx,0.000 km,3 m,145.3 °,1:-- (  0.0 km/h)*DA
$SMGPS2,-0.16 X,+0.17 Y,+0.96 Z,0 ENL,0 us*43
$GNRMC,154123.80,A,4816.48238,N,01139.87078,E,0.09,,080522,,,A*56
$GNGGA,154123.80,4816.48238,N,01139.87078,E,1,12,0.68,476.8,M,46.2,M,,*4E
$GNGSA,A,3,10,08,21,23,27,32,01,22,14,,,,1.13,0.68,0.90*13
$GNVTG,,T,,M,0.089,N,0.164,K,A*3F
$SMGPS,-0.0 m,-0.00 m/s,7.61 VRx,0.000 km,3 m,145.3 °,1:-- (  0.0 km/h)*F6
$SMGPS2,-0.15 X,+0.16 Y,+0.95 Z,0 ENL,0 us*42
$GNRMC,154123.90,A,4816.48241,N,01139.87078,E,0.22,,080522,,,A*50
$GNGGA,154123.90,4816.48241,N,01139.87078,E,1,12,0.68,476.8,M,46.2,M,,*41
$GNGSA,A,3,10,08,21,23,27,32,01,22,14,,,,1.13,0.68,0.90*13
$GNVTG,,T,,M,0.222,N,0.412,K,A*38
$SMGPS,-0.0 m,-0.01 m/s,7.60 VRx,0.000 km,3 m,145.3 °,1:-- (  0.0 km/h)*F6
$SMGPS2,-0.15 X,+0.16 Y,+0.94 Z,0 ENL,0 us*43
$GNRMC,154124.00,A,4816.48243,N,01139.87080,E,0.06,,080522,,,A*5D
$GNGGA,154124.00,4816.48243,N,01139.87080,E,1,12,0.68,476.7,M,46.2,M,,*45
$GNGSA,A,3,10,08,21,23,27,32,01,22,14,,,,1.13,0.68,0.90*13
$GNVTG,,T,,M,0.052,N,0.096,K,A*35
$SMGPS,-0.1 m,-0.02 m/s,7.61 VRx,0.000 km,3 m,145.3 °,1:-- (  0.0 km/h)*F5
$SMGPS2,-0.16 X,+0.17 Y,+0.96 Z,0 ENL,0 us*43
$GNRMC,154124.10,A,4816.48244,N,01139.87081,E,0.05,,080522,,,A*59
$GNGGA,154124.10,4816.48244,N,01139.87081,E,1,12,0.68,476.8,M,46.2,M,,*4D
$GNGSA,A,3,10,08,21,23,27,32,01,22,14,,,,1.13,0.68,0.90*13
$GNVTG,,T,,M,0.034,N,0.063,K,A*3F
$SMGPS,-0.0 m,-0.02 m/s,7.60 VRx,0.000 km,3 m,142.2 °,1:-- (  0.0 km/h)*F3
$SMGPS2,-0.15 X,+0.17 Y,+0.96 Z,0 ENL,0 us*40
$GNRMC,154124.20,A,4816.48246,N,01139.87083,E,0.08,,080522,,,A*57
$GNGGA,154124.20,4816.48246,N,01139.87083,E,1,12,0.68,476.7,M,46.2,M,,*41
$GNGSA,A,3,10,08,21,23,27,32,01,22,14,,,,1.13,0.68,0.90*13
$GNVTG,,T,,M,0.058,N,0.108,K,A*39
$SMGPS,-0.1 m,-0.02 m/s,7.62 VRx,0.000 km,3 m,142.2 °,1:-- (  0.0 km/h)*F0
$SMGPS2,-0.15 X,+0.16 Y,+0.95 Z,0 ENL,0 us*42
$GNRMC,154124.30,A,4816.48248,N,01139.87085,E,0.25,,080522,,,A*51
$GNGGA,154124.30,4816.48248,N,01139.87085,E,1,12,0.68,476.8,M,46.2,M,,*47
$GNGSA,A,3,10,08,21,23,27,32,01,22,14,,,,1.13,0.68,0.90*13
$GNVTG,,T,,M,0.246,N,0.456,K,A*3A
$SMGPS,-0.0 m,-0.02 m/s,7.58 VRx,0.000 km,3 m,142.2 °,1:-- (  0.0 km/h)*F8
$SMGPS2,-0.15 X,+0.15 Y,+0.97 Z,0 ENL,0 us*43
$GNRMC,154124.40,A,4816.48250,N,01139.87086,E,0.17,,080522,,,A*5D
$GNGGA,154124.40,4816.48250,N,01139.87086,E,1,12,0.68,476.8,M,46.2,M,,*4A
$GNGSA,A,3,10,08,21,23,27,32,01,22,14,,,,1.13,0.68,0.90*13
$GNVTG,,T,,M,0.157,N,0.291,K,A*34
$SMGPS,-0.0 m,-0.02 m/s,7.62 VRx,0.000 km,3 m,142.2 °,1:-- (  0.0 km/h)*F1
$SMGPS2,-0.16 X,+0.16 Y,+0.96 Z,0 ENL,0 us*42
$GNRMC,154124.50,A,4816.48253,N,01139.87087,E,0.09,,080522,,,A*51
$GNGGA,154124.50,4816.48253,N,01139.87087,E,1,12,0.68,476.8,M,46.2,M,,*49
$GNGSA,A,3,10,08,21,23,27,32,01,22,14,,,,1.13,0.68,0.90*13
$GNVTG,,T,,M,0.047,N,0.087,K,A*31
$SMGPS,-0.0 m,-0.02 m/s,7.59 VRx,0.000 km,3 m,142.2 °,1:-- (  0.0 km/h)*F9
$SMGPS2,-0.15 X,+0.16 Y,+0.96 Z,0 ENL,0 us*41
$GNRMC,154124.60,A,4816.48255,N,01139.87089,E,0.14,,080522,,,A*56
$GNGGA,154124.60,4816.48255,N,01139.87089,E,1,12,0.68,476.8,M,46.2,M,,*42
$GNGSA,A,3,10,08,21,23,27,32,01,22,14,,,,1.13,0.68,0.90*13
$GNVTG,,T,,M,0.114,N,0.212,K,A*38
$SMGPS,0.0 m,-0.02 m/s,7.62 VRx,0.000 km,3 m,142.2 °,1:-- (  0.0 km/h)*DC
$SMGPS2,-0.15 X,+0.17 Y,+0.96 Z,0 ENL,0 us*40
$GNRMC,154124.70,A,4816.48254,N,01139.87092,E,0.12,,080522,,,A*5A
$GNGGA,154124.70,4816.48254,N,01139.87092,E,1,12,0.68,476.8,M,46.2,M,,*48
$GNGSA,A,3,10,08,21,23,27,32,01,22,14,,,,1.13,0.68,0.90*13
$GNVTG,,T,,M,0.098,N,0.182,K,A*37
$SMGPS,-0.0 m,-0.03 m/s,7.59 VRx,0.000 km,3 m,142.2 °,1:-- (  0.0 km/h)*F8
$SMGPS2,-0.15 X,+0.16 Y,+0.96 Z,0 ENL,0 us*41
$GNRMC,154124.80,A,4816.48255,N,01139.87094,E,0.12,,080522,,,A*52
$GNGGA,154124.80,4816.48255,N,01139.87094,E,1,12,0.68,476.8,M,46.2,M,,*40
$GNGSA,A,3,10,08,21,23,27,32,01,22,14,,,,1.13,0.68,0.90*13
$GNVTG,,T,,M,0.093,N,0.172,K,A*33
$SMGPS,-0.0 m,-0.03 m/s,7.62 VRx,0.000 km,3 m,140.2 °,1:-- (  0.0 km/h)*F2
$SMGPS2,-0.15 X,+0.16 Y,+0.95 Z,0 ENL,0 us*42
$GNRMC,154124.90,A,4816.48256,N,01139.87096,E,0.09,,080522,,,A*58
$GNGGA,154124.90,4816.48256,N,01139.87096,E,1,12,0.68,476.8,M,46.2,M,,*40
$GNGSA,A,3,10,08,21,23,27,32,01,22,14,,,,1.13,0.68,0.90*13
$GNVTG,,T,,M,0.066,N,0.122,K,A*3C
$SMGPS,0.0 m,-0.03 m/s,7.60 VRx,0.000 km,3 m,140.2 °,1:-- (  0.0 km/h)*DD
$SMGPS2,-0.15 X,+0.17 Y,+0.96 Z,0 ENL,0 us*40
$GNRMC,154125.00,A,4816.48257,N,01139.87098,E,0.07,,080522,,,A*51
$GNGGA,154125.00,4816.48257,N,01139.87098,E,1,12,0.68,476.8,M,46.2,M,,*47
$GNGSA,A,3,10,08,21,23,27,32,01,22,14,,,,1.13,0.68,0.90*13
$GNVTG,,T,,M,0.051,N,0.094,K,A*34
$SMGPS,0.0 m,-0.03 m/s,7.61 VRx,0.000 km,3 m,140.2 °,1:-- (  0.0 km/h)*DC
$SMGPS2,-0.16 X,+0.17 Y,+0.96 Z,0 ENL,0 us*43
$GNRMC,154125.10,A,4816.48258,N,01139.87099,E,0.07,,080522,,,A*5E
$GNGGA,154125.10,4816.48258,N,01139.87099,E,1,12,0.68,476.8,M,46.2,M,,*48
$GNGSA,A,3,10,08,21,23,27,32,01,22,14,,,,1.13,0.68,0.90*13
$GNVTG,,T,,M,0.057,N,0.106,K,A*38
$SMGPS,0.0 m,-0.03 m/s,7.60 VRx,0.000 km,3 m,140.2 °,1:-- (  0.0 km/h)*DD
$SMGPS2,-0.15 X,+0.16 Y,+0.96 Z,0 ENL,0 us*41
$GNRMC,154125.20,A,4816.48258,N,01139.87100,E,0.03,,080522,,,A*58
$GNGGA,154125.20,4816.48258,N,01139.87100,E,1,12,0.68,476.8,M,46.2,M,,*4A
$GNGSA,A,3,10,08,21,23,27,32,01,22,14,,,,1.13,0.68,0.90*13
$GNVTG,,T,,M,0.025,N,0.046,K,A*38
$SMGPS,0.0 m,-0.03 m/s,7.61 VRx,0.000 km,3 m,140.2 °,1:-- (  0.0 km/h)*DC
$SMGPS2,-0.15 X,+0.16 Y,+0.95 Z,0 ENL,0 us*42
$GNRMC,154125.30,A,4816.48259,N,01139.87101,E,0.10,,080522,,,A*5B
$GNGGA,154125.30,4816.48259,N,01139.87101,E,1,12,0.68,476.8,M,46.2,M,,*4B
$GNGSA,A,3,10,08,21,23,27,32,01,22,14,,,,1.13,0.68,0.90*13
$GNVTG,,T,,M,0.096,N,0.178,K,A*3C
$SMGPS,0.0 m,-0.02 m/s,7.60 VRx,0.000 km,3 m,140.2 °,1:-- (  0.0 km/h)*DC
$SMGPS2,-0.15 X,+0.16 Y,+0.95 Z,0 ENL,0 us*42
$GNRMC,154125.40,A,4816.48260,N,01139.87101,E,0.10,,080522,,,A*56
$GNGGA,154125.40,4816.48260,N,01139.87101,E,1,12,0.68,476.8,M,46.2,M,,*46
$GNGSA,A,3,10,08,21,23,27,32,01,22,14,,,,1.13,0.68,0.90*13
$GNVTG,,T,,M,0.099,N,0.183,K,A*37
$SMGPS,0.0 m,-0.01 m/s,7.62 VRx,0.000 km,3 m,140.2 °,1:-- (  0.0 km/h)*DD
$SMGPS2,-0.15 X,+0.16 Y,+0.96 Z,0 ENL,0 us*41
$GNRMC,154125.50,A,4816.48260,N,01139.87102,E,0.06,,080522,,,A*53
$GNGGA,154125.50,4816.48260,N,01139.87102,E,1,12,0.68,476.8,M,46.2,M,,*44
$GNGSA,A,3,10,08,21,23,27,32,01,22,14,,,,1.13,0.68,0.90*13
$GNVTG,,T,,M,0.060,N,0.111,K,A*3A
$SMGPS,-0.0 m,-0.00 m/s,7.60 VRx,0.000 km,3 m,140.2 °,1:-- (  0.0 km/h)*F3
$SMGPS2,-0.15 X,+0.16 Y,+0.96 Z,0 ENL,0 us*41
$GNRMC,154125.60,A,4816.48261,N,01139.87103,E,0.05,,080522,,,A*53
$GNGGA,154125.60,4816.48261,N,01139.87103,E,1,12,0.68,476.8,M,46.2,M,,*47
$GNGSA,A,3,10,08,21,23,27,32,01,22,14,,,,1.13,0.68,0.90*13
$GNVTG,,T,,M,0.040,N,0.074,K,A*3A
$SMGPS,0.0 m,-0.00 m/s,7.62 VRx,0.000 km,3 m,140.2 °,1:-- (  0.0 km/h)*DC
$SMGPS2,-0.15 X,+0.17 Y,+0.96 Z,0 ENL,0 us*40
$GNRMC,154125.70,A,4816.48260,N,01139.87105,E,0.09,,080522,,,A*59
$GNGGA,154125.70,4816.48260,N,01139.87105,E,1,12,0.68,476.8,M,46.2,M,,*41
$GNGSA,A,3,10,08,21,23,27,32,01,22,14,,,,1.13,0.68,0.90*13
$GNVTG,,T,,M,0.088,N,0.163,K,A*39
$SMGPS,0.0 m,-0.00 m/s,7.59 VRx,0.000 km,3 m,140.2 °,1:-- (  0.0 km/h)*D4
$SMGPS2,-0.15 X,+0.16 Y,+0.95 Z,0 ENL,0 us*42
$GNRMC,154125.80,A,4816.48261,N,01139.87106,E,0.12,,080522,,,A*5E
$GNGGA,154125.80,4816.48261,N,01139.87106,E,1,12,0.62,476.8,M,46.2,M,,*46
$GNGSA,A,3,10,08,21,23,27,32,01,16,22,14,,,1.07,0.62,0.87*1D
$GNVTG,,T,,M,0.119,N,0.220,K,A*34
$SMGPS,0.0 m,-0.00 m/s,7.62 VRx,0.000 km,3 m,138.4 °,1:-- (  0.0 km/h)*D5
$SMGPS2,-0.15 X,+0.17 Y,+0.96 Z,0 ENL,0 us*40
$GNRMC,154125.90,A,4816.48261,N,01139.87107,E,0.16,,080522,,,A*5A
$GNGGA,154125.90,4816.48261,N,01139.87107,E,1,12,0.62,476.8,M,46.2,M,,*46
$GNGSA,A,3,10,08,21,23,27,32,01,16,22,14,,,1.07,0.62,0.87*1D
$GNVTG,,T,,M,0.158,N,0.292,K,A*38
$SMGPS,0.0 m,-0.00 m/s,7.59 VRx,0.000 km,3 m,138.4 °,1:-- (  0.0 km/h)*DD
$SMGPS2,-0.15 X,+0.16 Y,+0.96 Z,0 ENL,0 us*41
$GNRMC,154126.00,A,4816.48262,N,01139.87108,E,0.25,,080522,,,A*5C
$GNGGA,154126.00,4816.48262,N,01139.87108,E,1,12,0.62,476.8,M,46.2,M,,*40
$GNGSA,A,3,10,08,21,23,27,32,01,16,22,14,,,1.07,0.62,0.87*1D
$GNVTG,,T,,M,0.252,N,0.467,K,A*3D
$SMGPS,0.0 m,-0.00 m/s,7.61 VRx,0.000 km,3 m,138.4 °,1:-- (  0.0 km/h)*D6
$SMGPS2,-0.15 X,+0.16 Y,+0.96 Z,0 ENL,0 us*41
$GNRMC,154126.10,A,4816.48263,N,01139.87109,E,0.12,,080522,,,A*59
$GNGGA,154126.10,4816.48263,N,01139.87109,E,1,12,0.62,476.8,M,46.2,M,,*41
$GNGSA,A,3,10,08,21,23,27,32,01,16,22,14,,,1.07,0.62,0.87*1D
$GNVTG,,T,,M,0.117,N,0.216,K,A*3F
$SMGPS,-0.0 m,-0.01 m/s,7.60 VRx,0.000 km,3 m,138.4 °,1:-- (  0.0 km/h)*FB
$SMGPS2,-0.15 X,+0.17 Y,+0.96 Z,0 ENL,0 us*40
$GNRMC,154126.20,A,4816.48262,N,01139.87109,E,0.19,,080522,,,A*50
$GNGGA,154126.20,4816.48262,N,01139.87109,E,1,12,0.61,476.8,M,46.2,M,,*40
$GNGSA,A,3,10,08,21,23,27,32,01,16,22,14,,,1.05,0.61,0.86*1D
$GNVTG,,T,,M,0.193,N,0.358,K,A*38
$SMGPS,0.0 m,-0.02 m/s,7.60 VRx,0.000 km,3 m,138.4 °,1:-- (  0.0 km/h)*D5
$SMGPS2,-0.15 X,+0.16 Y,+0.96 Z,0 ENL,0 us*41
$GNRMC,154126.30,A,4816.48261,N,01139.87110,E,0.19,,080522,,,A*5A
$GNGGA,154126.30,4816.48261,N,01139.87110,E,1,12,0.61,476.8,M,46.2,M,,*4A
$GNGSA,A,3,10,08,21,23,27,32,01,16,22,14,,,1.05,0.61,0.86*1D
$GNVTG,,T,,M,0.190,N,0.352,K,A*31
$SMGPS,-0.0 m,-0.02 m/s,7.60 VRx,0.000 km,3 m,138.4 °,1:-- (  0.0 km/h)*F8
$SMGPS2,-0.15 X,+0.16 Y,+0.95 Z,0 ENL,0 us*42
$GNRMC,154126.40,A,4816.48261,N,01139.87111,E,0.20,,080522,,,A*56
$GNGGA,154126.40,4816.48261,N,01139.87111,E,1,12,0.61,476.8,M,46.2,M,,*4C
$GNGSA,A,3,10,08,21,23,27,32,01,16,22,14,,,1.05,0.61,0.86*1D
$GNVTG,,T,,M,0.200,N,0.370,K,A*3B
$SMGPS,-0.0 m,-0.02 m/s,7.61 VRx,0.000 km,3 m,138.4 °,1:-- (  0.0 km/h)*F9
$SMGPS2,-0.15 X,+0.16 Y,+0.96 Z,0 ENL,0 us*41
$GNRMC,154126.50,A,4816.48261,N,01139.87112,E,0.08,,080522,,,A*5E
$GNGGA,154126.50,4816.48261,N,01139.87112,E,1,12,0.61,476.8,M,46.2,M,,*4E
$GNGSA,A,3,10,08,21,23,27,32,01,16,22,14,,,1.05,0.61,0.86*1D
$GNVTG,,T,,M,0.078,N,0.145,K,A*32
$SMGPS,0.0 m,-0.01 m/s,7.60 VRx,0.000 km,3 m,138.4 °,1:-- (  0.0 km/h)*D6
$SMGPS2,-0.15 X,+0.16 Y,+0.96 Z,0 ENL,0 us*41
$GNRMC,154126.60,A,4816.48261,N,01139.87113,E,0.04,,080522,,,A*50
$GNGGA,154126.60,4816.48261,N,01139.87113,E,1,12,0.61,476.8,M,46.2,M,,*4C
$GNGSA,A,3,10,08,21,23,27,32,01,16,22,14,,,1.05,0.61,0.86*1D
$GNVTG,,T,,M,0.042,N,0.078,K,A*34
$SMGPS,-0.0 m,-0.01 m/s,7.62 VRx,0.000 km,3 m,138.4 °,1:-- (  0.0 km/h)*F9
$SMGPS2,-0.15 X,+0.17 Y,+0.95 Z,0 ENL,0 us*43
$GNRMC,154126.70,A,4816.48261,N,01139.87112,E,0.06,,080522,,,A*52
$GNGGA,154126.70,4816.48261,N,01139.87112,E,1,12,0.61,476.8,M,46.2,M,,*4C
$GNGSA,A,3,10,08,21,23,27,32,01,16,22,14,,,1.05,0.61,0.86*1D
$GNVTG,,T,,M,0.061,N,0.113,K,A*39
$SMGPS,0.0 m,-0.01 m/s,7.59 VRx,0.000 km,3 m,138.4 °,1:-- (  0.0 km/h)*DC
$SMGPS2,-0.15 X,+0.17 Y,+0.96 Z,0 ENL,0 us*40
$GNRMC,154126.80,A,4816.48261,N,01139.87112,E,0.18,,080522,,,A*52
$GNGGA,154126.80,4816.48261,N,01139.87112,E,1,12,0.61,476.8,M,46.2,M,,*43
$GNGSA,A,3,10,08,21,23,27,32,01,16,22,14,,,1.05,0.61,0.86*1D
$GNVTG,,T,,M,0.175,N,0.325,K,A*3A
$SMGPS,0.0 m,-0.00 m/s,7.61 VRx,0.000 km,3 m,138.4 °,1:-- (  0.0 km/h)*D6
$SMGPS2,-0.15 X,+0.16 Y,+0.95 Z,0 ENL,0 us*42
$GNRMC,154126.90,A,4816.48262,N,01139.87112,E,0.03,,080522,,,A*5A
$GNGGA,154126.90,4816.48262,N,01139.87112,E,1,12,0.61,476.8,M,46.2,M,,*41
$GNGSA,A,3,10,08,21,23,27,32,01,16,22,14,,,1.05,0.61,0.86*1D
$GNVTG,,T,,M,0.034,N,0.063,K,A*3F
$SMGPS,-0.0 m,+0.01 m/s,7.60 VRx,0.000 km,3 m,138.4 °,1:-- (  0.0 km/h)*FD
$SMGPS2,-0.15 X,+0.17 Y,+0.95 Z,0 ENL,0 us*43
$GNRMC,154127.00,A,4816.48263,N,01139.87112,E,0.19,,080522,,,A*58
$GNGGA,154127.00,4816.48263,N,01139.87112,E,1,12,0.61,476.8,M,46.2,M,,*48
$GNGSA,A,3,10,08,21,23,27,32,01,16,22,14,,,1.05,0.61,0.86*1D
$GNVTG,,T,,M,0.185,N,0.343,K,A*35
$SMGPS,0.0 m,+0.01 m/s,7.63 VRx,0.000 km,3 m,138.4 °,1:-- (  0.0 km/h)*D3
$SMGPS2,-0.15 X,+0.16 Y,+0.96 Z,0 ENL,0 us*41
$GNRMC,154127.10,A,4816.48265,N,01139.87112,E,0.14,,080522,,,A*52
$GNGGA,154127.10,4816.48265,N,01139.87112,E,1,12,0.61,476.8,M,46.2,M,,*4F
$GNGSA,A,3,10,08,21,23,27,32,01,16,22,14,,,1.05,0.61,0.86*1D
$GNVTG,,T,,M,0.136,N,0.252,K,A*3C
$SMGPS,-0.0 m,+0.01 m/s,7.59 VRx,0.000 km,3 m,138.4 °,1:-- (  0.0 km/h)*F7
$SMGPS2,-0.15 X,+0.16 Y,+0.95 Z,0 ENL,0 us*42
$GNRMC,154127.20,A,4816.48266,N,01139.87112,E,0.07,,080522,,,A*50
$GNGGA,154127.20,4816.48266,N,01139.87112,E,1,12,0.61,476.8,M,46.2,M,,*4F
$GNGSA,A,3,10,08,21,23,27,32,01,16,22,14,,,1.05,0.61,0.86*1D
$GNVTG,,T,,M,0.071,N,0.132,K,A*3B
$SMGPS,0.0 m,+0.01 m/s,7.62 VRx,0.000 km,3 m,138.4 °,1:-- (  0.0 km/h)*D2
$SMGPS2,-0.15 X,+0.16 Y,+0.95 Z,0 ENL,0 us*42
$GNRMC,154127.30,A,4816.48268,N,01139.87112,E,0.12,,080522,,,A*5B
$GNGGA,154127.30,4816.48268,N,01139.87112,E,1,12,0.61,476.8,M,46.2,M,,*40
$GNGSA,A,3,10,08,21,23,27,32,01,16,22,14,,,1.05,0.61,0.86*1D
$GNVTG,,T,,M,0.122,N,0.226,K,A*3A
$SMGPS,0.0 m,+0.01 m/s,7.59 VRx,0.000 km,3 m,138.4 °,1:-- (  0.0 km/h)*DA
$SMGPS2,-0.15 X,+0.17 Y,+0.95 Z,0 ENL,0 us*43
$GNRMC,154127.40,A,4816.48270,N,01139.87113,E,0.20,,080522,,,A*55
$GNGGA,154127.40,4816.48270,N,01139.87113,E,1,12,0.61,476.9,M,46.2,M,,*4E
$GNGSA,A,3,10,08,21,23,27,32,01,16,22,14,,,1.05,0.61,0.86*1D
$GNVTG,,T,,M,0.201,N,0.372,K,A*38
$SMGPS,0.1 m,+0.01 m/s,7.61 VRx,0.000 km,3 m,126.9 °,1:-- (  0.0 km/h)*D2
$SMGPS2,-0.15 X,+0.17 Y,+0.96 Z,0 ENL,0 us*40
$GNRMC,154127.50,A,4816.48271,N,01139.87113,E,0.02,,080522,,,A*55
$GNGGA,154127.50,4816.48271,N,01139.87113,E,1,12,0.61,476.8,M,46.2,M,,*4F
$GNGSA,A,3,10,08,21,23,27,32,01,16,22,14,,,1.05,0.61,0.86*1D
$GNVTG,,T,,M,0.021,N,0.039,K,A*34
$SMGPS,-0.0 m,+0.01 m/s,7.60 VRx,0.000 km,3 m,126.9 °,1:-- (  0.0 km/h)*FF
$SMGPS2,-0.14 X,+0.16 Y,+0.96 Z,29 ENL,0 us*7B
$GNRMC,154127.60,A,4816.48272,N,01139.87112,E,0.12,,080522,,,A*55
$GNGGA,154127.60,4816.48272,N,01139.87112,E,1,12,0.61,476.8,M,46.2,M,,*4E
$GNGSA,A,3,10,08,21,23,27,32,01,16,22,14,,,1.05,0.61,0.86*1D
$GNVTG,,T,,M,0.116,N,0.214,K,A*3C
$SMGPS,-0.0 m,+0.00 m/s,7.61 VRx,0.000 km,3 m,126.9 °,1:-- (  0.0 km/h)*FF
$SMGPS2,-0.15 X,+0.16 Y,+0.96 Z,0 ENL,0 us*41
$GNRMC,154127.70,A,4816.48273,N,01139.87112,E,0.09,,080522,,,A*5F
$GNGGA,154127.70,4816.48273,N,01139.87112,E,1,12,0.61,476.8,M,46.2,M,,*4E
$GNGSA,A,3,10,08,21,23,27,32,01,16,22,14,,,1.05,0.61,0.86*1D
$GNVTG,,T,,M,0.092,N,0.170,K,A*30
$SMGPS,-0.0 m,+0.01 m/s,7.59 VRx,0.000 km,3 m,126.9 °,1:-- (  0.0 km/h)*F5
$SMGPS2,-0.16 X,+0.16 Y,+0.96 Z,0 ENL,0 us*42
$GNRMC,154127.80,A,4816.48275,N,01139.87112,E,0.08,,080522,,,A*57
$GNGGA,154127.80,4816.48275,N,01139.87112,E,1,12,0.61,476.8,M,46.2,M,,*47
$GNGSA,A,3,10,08,21,23,27,32,01,16,22,14,,,1.05,0.61,0.86*1D
$GNVTG,,T,,M,0.078,N,0.145,K,A*32
$SMGPS,0.0 m,+0.01 m/s,7.61 VRx,0.000 km,3 m,126.9 °,1:-- (  0.0 km/h)*D3
$SMGPS2,-0.15 X,+0.17 Y,+0.96 Z,0 ENL,0 us*40
$GNRMC,154127.90,A,4816.48276,N,01139.87112,E,0.07,,080522,,,A*5A
$GNGGA,154127.90,4816.48276,N,01139.87112,E,1,12,0.61,476.8,M,46.2,M,,*45
$GNGSA,A,3,10,08,21,23,27,32,01,16,22,14,,,1.05,0.61,0.86*1D
$GNVTG,,T,,M,0.062,N,0.116,K,A*3F
$SMGPS,0.0 m,+0.00 m/s,7.59 VRx,0.000 km,3 m,126.9 °,1:-- (  0.0 km/h)*D9
$SMGPS2,-0.16 X,+0.16 Y,+0.95 Z,0 ENL,0 us*41
$GNRMC,154128.00,A,4816.48277,N,01139.87111,E,0.12,,080522,,,A*5A
$GNGGA,154128.00,4816.48277,N,01139.87111,E,1,12,0.61,476.8,M,46.2,M,,*41
$GNGSA,A,3,10,08,21,23,27,32,01,16,22,14,,,1.05,0.61,0.86*1D
$GNVTG,,T,,M,0.113,N,0.209,K,A*35
$SMGPS,0.0 m,+0.01 m/s,7.61 VRx,0.000 km,3 m,126.9 °,1:-- (  0.0 km/h)*D3
$SMGPS2,-0.15 X,+0.16 Y,+0.96 Z,0 ENL,0 us*41
$GNRMC,154128.10,A,4816.48278,N,01139.87110,E,0.13,,080522,,,A*54
$GNGGA,154128.10,4816.48278,N,01139.87110,E,1,12,0.61,476.8,M,46.2,M,,*4E
$GNGSA,A,3,10,08,21,23,27,32,01,16,22,14,,,1.05,0.61,0.86*1D
$GNVTG,,T,,M,0.126,N,0.233,K,A*3A
$SMGPS,0.0 m,+0.01 m/s,7.58 VRx,0.000 km,3 m,126.9 °,1:-- (  0.0 km/h)*D9
$SMGPS2,-0.15 X,+0.16 Y,+0.96 Z,0 ENL,0 us*41
$GNRMC,154128.20,A,4816.48279,N,01139.87110,E,0.07,,080522,,,A*53
$GNGGA,154128.20,4816.48279,N,01139.87110,E,1,12,0.61,476.8,M,46.2,M,,*4C
$GNGSA,A,3,10,08,21,23,27,32,01,16,22,14,,,1.05,0.61,0.86*1D
$GNVTG,,T,,M,0.062,N,0.116,K,A*3F
$SMGPS,-0.0 m,+0.01 m/s,7.62 VRx,0.000 km,3 m,126.9 °,1:-- (  0.0 km/h)*FD
$SMGPS2,-0.15 X,+0.17 Y,+0.96 Z,0 ENL,0 us*40
$GNRMC,154128.30,A,4816.48280,N,01139.87109,E,0.12,,080522,,,A*58
$GNGGA,154128.30,4816.48280,N,01139.87109,E,1,12,0.61,476.8,M,46.2,M,,*43
$GNGSA,A,3,10,08,21,23,27,32,01,16,22,14,,,1.05,0.61,0.86*1D
$GNVTG,,T,,M,0.115,N,0.213,K,A*38
$SMGPS,0.0 m,+0.02 m/s,7.56 VRx,0.000 km,3 m,126.9 °,1:-- (  0.0 km/h)*D4
$SMGPS2,-0.15 X,+0.16 Y,+0.96 Z,0 ENL,0 us*41
$GNRMC,154128.40,A,4816.48281,N,01139.87109,E,0.08,,080522,,,A*55
$GNGGA,154128.40,4816.48281,N,01139.87109,E,1,12,0.61,476.8,M,46.2,M,,*45
$GNGSA,A,3,10,08,21,23,27,32,01,16,22,14,,,1.05,0.61,0.86*1D
$GNVTG,,T,,M,0.070,N,0.129,K,A*30
$SMGPS,-0.0 m,+0.02 m/s,7.58 VRx,0.000 km,3 m,126.9 °,1:-- (  0.0 km/h)*F7
$SMGPS2,-0.15 X,+0.16 Y,+0.95 Z,0 ENL,0 us*42
$GNRMC,154128.50,A,4816.48281,N,01139.87108,E,0.07,,080522,,,A*5A
$GNGGA,154128.50,4816.48281,N,01139.87108,E,1,12,0.61,476.8,M,46.2,M,,*45
$GNGSA,A,3,10,08,21,23,27,32,01,16,22,14,,,1.05,0.61,0.86*1D
$GNVTG,,T,,M,0.065,N,0.120,K,A*3D
$SMGPS,-0.0 m,+0.02 m/s,7.58 VRx,0.000 km,3 m,126.9 °,1:-- (  0.0 km/h)*F7
$SMGPS2,-0.16 X,+0.17 Y,+0.96 Z,0 ENL,0 us*43
$GNRMC,154128.60,A,4816.48282,N,01139.87108,E,0.06,,080522,,,A*5B
$GNGGA,154128.60,4816.48282,N,01139.87108,E,1,12,0.61,476.8,M,46.2,M,,*45
$GNGSA,A,3,10,08,21,23,27,32,01,16,22,14,,,1.05,0.61,0.86*1D
$GNVTG,,T,,M,0.048,N,0.089,K,A*30
$SMGPS,0.0 m,+0.03 m/s,7.60 VRx,0.000 km,3 m,126.9 °,1:-- (  0.0 km/h)*D0
$SMGPS2,-0.15 X,+0.17 Y,+0.96 Z,0 ENL,0 us*40
$GNRMC,154128.70,A,4816.48282,N,01139.87109,E,0.07,,080522,,,A*5A
$GNGGA,154128.70,4816.48282,N,01139.87109,E,1,12,0.61,476.8,M,46.2,M,,*45
$GNGSA,A,3,10,08,21,23,27,32,01,16,22,14,,,1.05,0.61,0.86*1D
$GNVTG,,T,,M,0.068,N,0.127,K,A*37
$SMGPS,0.0 m,+0.03 m/s,7.60 VRx,0.000 km,3 m,126.9 °,1:-- (  0.0 km/h)*D0
$SMGPS2,-0.15 X,+0.16 Y,+0.96 Z,0 ENL,0 us*41
$GNRMC,154128.80,A,4816.48283,N,01139.87109,E,0.42,,080522,,,A*55
$GNGGA,154128.80,4816.48283,N,01139.87109,E,1,12,0.61,476.8,M,46.2,M,,*4B
$GNGSA,A,3,10,08,21,23,27,32,01,16,22,14,,,1.05,0.61,0.86*1D
$GNVTG,,T,,M,0.422,N,0.781,K,A*37
$SMGPS,0.0 m,+0.02 m/s,7.60 VRx,0.000 km,3 m,126.9 °,1:-- (  0.0 km/h)*D1
$SMGPS2,-0.15 X,+0.17 Y,+0.95 Z,0 ENL,0 us*43
$GNRMC,154128.90,A,4816.48284,N,01139.87108,E,0.19,,080522,,,A*5C
$GNGGA,154128.90,4816.48284,N,01139.87108,E,1,12,0.61,476.9,M,46.2,M,,*4D
$GNGSA,A,3,10,08,21,23,27,32,01,16,22,14,,,1.05,0.61,0.86*1D
$GNVTG,,T,,M,0.180,N,0.333,K,A*37
$SMGPS,0.1 m,+0.04 m/s,7.58 VRx,0.000 km,3 m,126.9 °,1:-- (  0.0 km/h)*DD
$SMGPS2,-0.15 X,+0.17 Y,+0.95 Z,0 ENL,0 us*43
$GNRMC,154129.00,A,4816.48285,N,01139.87108,E,0.36,,080522,,,A*58
$GNGGA,154129.00,4816.48285,N,01139.87108,E,1,12,0.61,476.9,M,46.2,M,,*44
$GNGSA,A,3,10,08,21,23,27,32,01,16,22,14,,,1.05,0.61,0.86*1D
$GNVTG,,T,,M,0.349,N,0.646,K,A*37
$SMGPS,0.1 m,+0.05 m/s,7.61 VRx,0.000 km,3 m,126.9 °,1:-- (  0.0 km/h)*D6
$SMGPS2,-0.15 X,+0.16 Y,+0.95 Z,0 ENL,0 us*42
$GNRMC,154129.10,A,4816.48286,N,01139.87108,E,0.24,,080522,,,A*59
$GNGGA,154129.10,4816.48286,N,01139.87108,E,1,12,0.61,476.9,M,46.2,M,,*46
$GNGSA,A,3,10,08,21,23,27,32,01,16,22,14,,,1.05,0.61,0.86*1D
$GNVTG,,T,,M,0.221,N,0.409,K,A*31
$SMGPS,0.1 m,+0.06 m/s,7.59 VRx,0.000 km,3 m,126.9 °,1:-- (  0.0 km/h)*DE
$SMGPS2,-0.15 X,+0.17 Y,+0.95 Z,0 ENL,0 us*43
$GNRMC,154129.20,A,4816.48287,N,01139.87106,E,0.20,,080522,,,A*51
$GNGGA,154129.20,4816.48287,N,01139.87106,E,1,12,0.61,476.8,M,46.2,M,,*4B
$GNGSA,A,3,10,08,21,23,27,32,01,16,22,14,,,1.05,0.61,0.86*1D
$GNVTG,,T,,M,0.151,N,0.279,K,A*34
$SMGPS,0.0 m,+0.07 m/s,7.61 VRx,0.000 km,3 m,126.9 °,1:-- (  0.0 km/h)*D5
$SMGPS2,-0.15 X,+0.16 Y,+0.96 Z,0 ENL,0 us*41
$GNRMC,154129.30,A,4816.48289,N,01139.87105,E,0.21,,080522,,,A*5C
$GNGGA,154129.30,4816.48289,N,01139.87105,E,1,12,0.61,476.9,M,46.2,M,,*46
$GNGSA,A,3,10,08,21,23,27,32,01,16,22,14,,,1.05,0.61,0.86*1D
$GNVTG,,T,,M,0.151,N,0.279,K,A*34
$SMGPS,0.1 m,+0.08 m/s,7.58 VRx,0.000 km,3 m,126.9 °,1:-- (  0.0 km/h)*D1
$SMGPS2,-0.15 X,+0.16 Y,+0.96 Z,0 ENL,0 us*41
$GNRMC,154129.40,A,4816.48291,N,01139.87105,E,0.23,,080522,,,A*50
$GNGGA,154129.40,4816.48291,N,01139.87105,E,1,12,0.61,476.8,M,46.2,M,,*49
$GNGSA,A,3,10,08,21,23,27,32,01,16,22,14,,,1.05,0.61,0.86*1D
$GNVTG,,T,,M,0.148,N,0.275,K,A*30
$SMGPS,0.0 m,+0.09 m/s,7.62 VRx,0.000 km,3 m,126.9 °,1:-- (  0.0 km/h)*D8
$SMGPS2,-0.15 X,+0.17 Y,+0.96 Z,0 ENL,0 us*40
$GNRMC,154129.50,A,4816.48293,N,01139.87103,E,0.23,,080522,,,A*55
$GNGGA,154129.50,4816.48293,N,01139.87103,E,1,12,0.61,476.8,M,46.2,M,,*4C
$GNGSA,A,3,10,08,21,23,27,32,01,16,22,14,,,1.05,0.61,0.86*1D
$GNVTG,,T,,M,0.141,N,0.260,K,A*3D
$SMGPS,-0.0 m,+0.10 m/s,7.59 VRx,0.000 km,3 m,126.9 °,1:-- (  0.0 km/h)*F5
$SMGPS2,-0.15 X,+0.16 Y,+0.96 Z,0 ENL,0 us*41
$GNRMC,154129.60,A,4816.48294,N,01139.87102,E,0.37,,080522,,,A*55
$GNGGA,154129.60,4816.48294,N,01139.87102,E,1,12,0.61,476.7,M,46.2,M,,*46
$GNGSA,A,3,10,08,21,23,27,32,01,16,22,14,,,1.05,0.61,0.86*1D
$GNVTG,,T,,M,0.330,N,0.611,K,A*3B
$SMGPS,-0.1 m,+0.09 m/s,7.63 VRx,0.000 km,3 m,128.7 °,1:-- (  0.0 km/h)*F5
$SMGPS2,-0.15 X,+0.16 Y,+0.96 Z,0 ENL,0 us*41
$GNRMC,154129.70,A,4816.48297,N,01139.87100,E,0.48,,080522,,,A*5D
$GNGGA,154129.70,4816.48297,N,01139.87100,E,1,12,0.61,476.7,M,46.2,M,,*46
$GNGSA,A,3,10,08,21,23,27,32,01,16,22,14,,,1.05,0.61,0.86*1D
$GNVTG,,T,,M,0.463,N,0.858,K,A*39
$SMGPS,-0.1 m,+0.06 m/s,7.59 VRx,0.000 km,3 m,128.7 °,1:-- (  0.0 km/h)*F3
$SMGPS2,-0.15 X,+0.17 Y,+0.95 Z,0 ENL,0 us*43
$GNRMC,154129.80,A,4816.48300,N,01139.87099,E,0.62,,080522,,,A*54
$GNGGA,154129.80,4816.48300,N,01139.87099,E,1,12,0.61,476.7,M,46.2,M,,*47
$GNGSA,A,3,10,08,21,23,27,32,01,16,22,14,,,1.05,0.61,0.86*1D
$GNVTG,,T,,M,0.610,N,1.129,K,A*31
$SMGPS,-0.1 m,+0.05 m/s,7.62 VRx,0.000 km,3 m,128.7 °,1:-- (  0.0 km/h)*F8
$SMGPS2,-0.15 X,+0.16 Y,+0.98 Z,1 ENL,0 us*4E
$GNRMC,154129.90,A,4816.48303,N,01139.87098,E,0.39,,080522,,,A*59
$GNGGA,154129.90,4816.48303,N,01139.87098,E,1,12,0.61,476.8,M,46.2,M,,*4B
$GNGSA,A,3,10,08,21,23,27,32,01,16,22,14,,,1.05,0.61,0.86*1D
$GNVTG,,T,,M,0.382,N,0.707,K,A*34
$SMGPS,-0.0 m,+0.03 m/s,7.59 VRx,0.000 km,3 m,128.7 °,1:-- (  0.0 km/h)*F7
$SMGPS2,-0.13 X,+0.10 Y,+0.97 Z,0 ENL,0 us*40
$GNRMC,154130.00,A,4816.48305,N,01139.87098,E,0.40,,080522,,,A*50
$GNGGA,154130.00,4816.48305,N,01139.87098,E,1,12,0.61,476.7,M,46.2,M,,*43
$GNGSA,A,3,10,08,21,23,27,32,01,16,22,14,,,1.05,0.61,0.86*1D
$GNVTG,,T,,M,0.404,N,0.749,K,A*37
$SMGPS,-0.1 m,+0.01 m/s,7.62 VRx,0.000 km,3 m,128.7 °,1:-- (  0.0 km/h)*FC
$SMGPS2,-0.13 X,+0.04 Y,+0.98 Z,0 ENL,0 us*4A
$GNRMC,154130.10,A,4816.48307,N,01139.87097,E,0.18,,080522,,,A*51
$GNGGA,154130.10,4816.48307,N,01139.87097,E,1,12,0.61,476.7,M,46.2,M,,*4F
$GNGSA,A,3,10,08,21,23,27,32,01,16,22,14,,,1.05,0.61,0.86*1D
$GNVTG,,T,,M,0.173,N,0.320,K,A*39
$SMGPS,-0.1 m,-0.01 m/s,7.60 VRx,0.000 km,3 m,128.7 °,1:-- (  0.0 km/h)*F8
$SMGPS2,-0.13 X,+0.00 Y,+0.97 Z,0 ENL,0 us*41
$GNRMC,154130.20,A,4816.48308,N,01139.87096,E,0.23,,080522,,,A*54
$GNGGA,154130.20,4816.48308,N,01139.87096,E,1,12,0.61,476.8,M,46.2,M,,*4D
$GNGSA,A,3,10,08,21,23,27,32,01,16,22,14,,,1.05,0.61,0.86*1D
$GNVTG,,T,,M,0.216,N,0.400,K,A*3C
$SMGPS,-0.0 m,-0.02 m/s,7.60 VRx,0.000 km,3 m,128.7 °,1:-- (  0.0 km/h)*FA
$SMGPS2,-0.15 X,+0.11 Y,+0.96 Z,1 ENL,0 us*47
$GNRMC,154130.30,A,4816.48311,N,01139.87095,E,0.20,,080522,,,A*5D
$GNGGA,154130.30,4816.48311,N,01139.87095,E,1,12,0.61,476.8,M,46.2,M,,*47
$GNGSA,A,3,10,08,21,23,27,32,01,16,22,14,,,1.05,0.61,0.86*1D
$GNVTG,,T,,M,0.179,N,0.331,K,A*33
$SMGPS,-0.0 m,-0.03 m/s,7.60 VRx,0.000 km,3 m,128.7 °,1:-- (  0.0 km/h)*FB
$SMGPS2,-0.15 X,+0.17 Y,+0.94 Z,17 ENL,0 us*74
$GNRMC,154130.40,A,4816.48316,N,01139.87094,E,0.15,,080522,,,A*5A
$GNGGA,154130.40,4816.48316,N,01139.87094,E,1,12,0.61,476.7,M,46.2,M,,*49
$GNGSA,A,3,10,08,21,23,27,32,01,16,22,14,,,1.05,0.61,0.86*1D
$GNVTG,,T,,M,0.115,N,0.213,K,A*38
$SMGPS,-0.1 m,-0.04 m/s,7.62 VRx,0.000 km,3 m,128.7 °,1:-- (  0.0 km/h)*FF
$SMGPS2,-0.16 X,+0.15 Y,+0.96 Z,0 ENL,0 us*41
$GNRMC,154130.50,A,4816.48320,N,01139.87092,E,0.18,,080522,,,A*55
$GNGGA,154130.50,4816.48320,N,01139.87092,E,1,12,0.61,476.8,M,46.2,M,,*44
$GNGSA,A,3,10,08,21,23,27,32,01,16,22,14,,,1.05,0.61,0.86*1D
$GNVTG,,T,,M,0.151,N,0.280,K,A*32
$SMGPS,-0.0 m,-0.05 m/s,7.58 VRx,0.000 km,2 m,111.8 °,1:-- (  0.0 km/h)*F2
$SMGPS2,-0.16 X,+0.17 Y,+0.95 Z,0 ENL,0 us*40
$GNRMC,154130.60,A,4816.48325,N,01139.87090,E,0.26,,080522,,,A*5C
$GNGGA,154130.60,4816.48325,N,01139.87090,E,1,12,0.61,476.8,M,46.2,M,,*40
$GNGSA,A,3,10,08,21,23,27,32,01,16,22,14,,,1.05,0.61,0.86*1D
$GNVTG,,T,,M,0.248,N,0.459,K,A*3B
$SMGPS,0.0 m,-0.04 m/s,7.62 VRx,0.000 km,2 m,111.8 °,1:-- (  0.0 km/h)*D7
$SMGPS2,-0.15 X,+0.17 Y,+0.95 Z,0 ENL,0 us*43
$GNRMC,154130.70,A,4816.48330,N,01139.87090,E,0.30,,080522,,,A*5E
$GNGGA,154130.70,4816.48330,N,01139.87090,E,1,12,0.61,476.8,M,46.2,M,,*45
$GNGSA,A,3,10,08,21,23,27,32,01,16,22,14,,,1.05,0.61,0.86*1D
$GNVTG,,T,,M,0.292,N,0.540,K,A*35
$SMGPS,-0.0 m,-0.04 m/s,7.58 VRx,0.000 km,2 m,113.2 °,1:-- (  0.0 km/h)*FB
$SMGPS2,-0.15 X,+0.15 Y,+0.96 Z,0 ENL,0 us*42
$GNRMC,154130.80,A,4816.48335,N,01139.87089,E,0.13,,080522,,,A*5D
$GNGGA,154130.80,4816.48335,N,01139.87089,E,1,12,0.61,476.8,M,46.2,M,,*47
$GNGSA,A,3,10,08,21,23,27,32,01,16,22,14,,,1.05,0.61,0.86*1D
$GNVTG,,T,,M,0.128,N,0.238,K,A*3F
$SMGPS,0.0 m,-0.03 m/s,7.62 VRx,0.000 km,2 m,113.2 °,1:-- (  0.0 km/h)*D8
$SMGPS2,-0.15 X,+0.13 Y,+0.96 Z,0 ENL,0 us*44
$GNRMC,154130.90,A,4816.48339,N,01139.87087,E,0.16,,080522,,,A*5B
$GNGGA,154130.90,4816.48339,N,01139.87087,E,1,12,0.61,476.8,M,46.2,M,,*44
$GNGSA,A,3,10,08,21,23,27,32,01,16,22,14,,,1.05,0.61,0.86*1D
$GNVTG,,T,,M,0.164,N,0.304,K,A*39
$SMGPS,0.0 m,-0.02 m/s,7.59 VRx,0.000 km,2 m,113.2 °,1:-- (  0.0 km/h)*D1
$SMGPS2,-0.14 X,+0.14 Y,+0.96 Z,0 ENL,0 us*42
$GNRMC,154131.00,A,4816.48344,N,01139.87086,E,0.15,,080522,,,A*5B
$GNGGA,154131.00,4816.48344,N,01139.87086,E,1,12,0.61,476.9,M,46.2,M,,*46
$GNGSA,A,3,10,08,21,23,27,32,01,16,22,14,,,1.05,0.61,0.86*1D
$GNVTG,,T,,M,0.150,N,0.277,K,A*3B
$SMGPS,0.1 m,-0.01 m/s,7.62 VRx,0.000 km,2 m,113.2 °,1:-- (  0.0 km/h)*DB
$SMGPS2,-0.16 X,+0.17 Y,+0.95 Z,0 ENL,0 us*40
$GNRMC,154131.10,A,4816.48348,N,01139.87084,E,0.03,,080522,,,A*53
$GNGGA,154131.10,4816.48348,N,01139.87084,E,1,12,0.61,476.8,M,46.2,M,,*48
$GNGSA,A,3,10,08,21,23,27,32,01,16,22,14,,,1.05,0.61,0.86*1D
$GNVTG,,T,,M,0.003,N,0.006,K,A*38
$SMGPS,0.0 m,+0.00 m/s,7.59 VRx,0.000 km,2 m,113.2 °,1:-- (  0.0 km/h)*D5
$SMGPS2,-0.16 X,+0.16 Y,+0.95 Z,0 ENL,0 us*41
$GNRMC,154131.20,A,4816.48351,N,01139.87082,E,0.13,,080522,,,A*5F
$GNGGA,154131.20,4816.48351,N,01139.87082,E,1,12,0.61,476.8,M,46.2,M,,*45
$GNGSA,A,3,10,08,21,23,27,32,01,16,22,14,,,1.05,0.61,0.86*1D
$GNVTG,,T,,M,0.115,N,0.213,K,A*38
$SMGPS,0.0 m,+0.02 m/s,7.61 VRx,0.000 km,2 m,113.2 °,1:-- (  0.0 km/h)*DC
$SMGPS2,-0.15 X,+0.16 Y,+0.95 Z,0 ENL,0 us*42
$GNRMC,154131.30,A,4816.48355,N,01139.87081,E,0.11,,080522,,,A*5B
$GNGGA,154131.30,4816.48355,N,01139.87081,E,1,12,0.61,476.8,M,46.2,M,,*43
$GNGSA,A,3,10,08,21,23,27,32,01,16,22,14,,,1.05,0.61,0.86*1D
$GNVTG,,T,,M,0.077,N,0.143,K,A*3B
$SMGPS,0.0 m,+0.02 m/s,7.60 VRx,0.000 km,2 m,113.2 °,1:-- (  0.0 km/h)*DD
$SMGPS2,-0.15 X,+0.15 Y,+0.95 Z,0 ENL,0 us*41
$GNRMC,154131.40,A,4816.48358,N,01139.87080,E,0.12,,080522,,,A*53
$GNGGA,154131.40,4816.48358,N,01139.87080,E,1,12,0.61,476.8,M,46.2,M,,*48
$GNGSA,A,3,10,08,21,23,27,32,01,16,22,14,,,1.05,0.61,0.86*1D
$GNVTG,,T,,M,0.078,N,0.145,K,A*32
$SMGPS,0.0 m,+0.02 m/s,7.62 VRx,0.000 km,2 m,113.2 °,1:-- (  0.0 km/h)*DF
$SMGPS2,-0.15 X,+0.15 Y,+0.96 Z,0 ENL,0 us*42
$GNRMC,154131.50,A,4816.48362,N,01139.87079,E,0.09,,080522,,,A*57
$GNGGA,154131.50,4816.48362,N,01139.87079,E,1,12,0.61,476.8,M,46.2,M,,*46
$GNGSA,A,3,10,08,21,23,27,32,01,16,22,14,,,1.05,0.61,0.86*1D
$GNVTG,,T,,M,0.011,N,0.021,K,A*3E
$SMGPS,-0.0 m,+0.02 m/s,7.59 VRx,0.000 km,2 m,113.2 °,1:-- (  0.0 km/h)*FA
$SMGPS2,-0.15 X,+0.14 Y,+0.96 Z,0 ENL,0 us*43
$GNRMC,154131.60,A,4816.48366,N,01139.87078,E,0.13,,080522,,,A*5A
$GNGGA,154131.60,4816.48366,N,01139.87078,E,1,12,0.61,476.9,M,46.2,M,,*41
$GNGSA,A,3,10,08,21,23,27,32,01,16,22,14,,,1.05,0.61,0.86*1D
$GNVTG,,T,,M,0.102,N,0.189,K,A*3E
$SMGPS,0.1 m,+0.03 m/s,7.61 VRx,0.000 km,2 m,113.2 °,1:-- (  0.0 km/h)*DC
$SMGPS2,-0.15 X,+0.14 Y,+0.95 Z,0 ENL,0 us*40
$GNRMC,154131.70,A,4816.48369,N,01139.87077,E,0.12,,080522,,,A*5A
$GNGGA,154131.70,4816.48369,N,01139.87077,E,1,12,0.61,476.8,M,46.2,M,,*41
$GNGSA,A,3,10,08,21,23,27,32,01,16,22,14,,,1.05,0.61,0.86*1D
$GNVTG,,T,,M,0.090,N,0.167,K,A*34
$SMGPS,0.0 m,+0.03 m/s,7.59 VRx,0.000 km,2 m,90.0 °,1:-- (  0.0 km/h)*EE
$SMGPS2,-0.15 X,+0.13 Y,+0.96 Z,0 ENL,0 us*44
$GNRMC,154131.80,A,4816.48373,N,01139.87076,E,0.10,,080522,,,A*5D
$GNGGA,154131.80,4816.48373,N,01139.87076,E,1,12,0.61,476.8,M,46.2,M,,*44
$GNGSA,A,3,10,08,21,23,27,32,01,16,22,14,,,1.05,0.61,0.86*1D
$GNVTG,,T,,M,0.070,N,0.130,K,A*38
$SMGPS,0.0 m,+0.02 m/s,7.62 VRx,0.000 km,2 m,90.0 °,1:-- (  0.0 km/h)*E7
$SMGPS2,-0.15 X,+0.13 Y,+0.96 Z,0 ENL,0 us*44
$GNRMC,154131.90,A,4816.48377,N,01139.87075,E,0.10,,080522,,,A*5B
$GNGGA,154131.90,4816.48377,N,01139.87075,E,1,12,0.61,476.8,M,46.2,M,,*42
$GNGSA,A,3,10,08,21,23,27,32,01,16,22,14,,,1.05,0.61,0.86*1D
$GNVTG,,T,,M,0.082,N,0.152,K,A*31
$SMGPS,-0.0 m,+0.02 m/s,7.58 VRx,0.000 km,2 m,90.0 °,1:-- (  0.0 km/h)*C3
$SMGPS2,-0.15 X,+0.13 Y,+0.96 Z,0 ENL,0 us*44
$GNRMC,154132.00,A,4816.48380,N,01139.87073,E,0.18,,080522,,,A*57
$GNGGA,154132.00,4816.48380,N,01139.87073,E,1,12,0.61,476.8,M,46.2,M,,*46
$GNGSA,A,3,10,08,21,23,27,32,01,16,22,14,,,1.05,0.61,0.86*1D
$GNVTG,,T,,M,0.174,N,0.323,K,A*3D
$SMGPS,0.0 m,+0.02 m/s,7.62 VRx,0.000 km,2 m,90.0 °,1:-- (  0.0 km/h)*E7
$SMGPS2,-0.15 X,+0.13 Y,+0.96 Z,0 ENL,0 us*44
$GNRMC,154132.10,A,4816.48383,N,01139.87073,E,0.13,,080522,,,A*5E
$GNGGA,154132.10,4816.48383,N,01139.87073,E,1,12,0.61,476.8,M,46.2,M,,*44
$GNGSA,A,3,10,08,21,23,27,32,01,16,22,14,,,1.05,0.61,0.86*1D
$GNVTG,,T,,M,0.119,N,0.220,K,A*34
$SMGPS,0.0 m,+0.01 m/s,7.65 VRx,0.000 km,2 m,90.0 °,1:-- (  0.0 km/h)*E3
$SMGPS2,-0.15 X,+0.12 Y,+0.96 Z,0 ENL,0 us*45
$GNRMC,154132.20,A,4816.48386,N,01139.87072,E,0.07,,080522,,,A*5C
$GNGGA,154132.20,4816.48386,N,01139.87072,E,1,12,0.62,476.8,M,46.2,M,,*40
$GNGSA,A,3,10,08,21,23,27,32,01,16,22,14,,,1.06,0.62,0.87*1C
$GNVTG,,T,,M,0.062,N,0.115,K,A*3C
$SMGPS,-0.0 m,+0.02 m/s,7.63 VRx,0.000 km,2 m,90.0 °,1:-- (  0.0 km/h)*CB
$SMGPS2,-0.16 X,+0.13 Y,+0.96 Z,0 ENL,0 us*47
$GNRMC,154132.30,A,4816.48388,N,01139.87071,E,0.07,,080522,,,A*50
$GNGGA,154132.30,4816.48388,N,01139.87071,E,1,12,0.62,476.8,M,46.2,M,,*4C
$GNGSA,A,3,10,08,21,23,27,32,01,16,22,14,,,1.06,0.62,0.87*1C
$GNVTG,,T,,M,0.062,N,0.114,K,A*3D
$SMGPS,-0.0 m,+0.01 m/s,7.59 VRx,0.000 km,2 m,90.0 °,1:-- (  0.0 km/h)*C1
$SMGPS2,-0.16 X,+0.13 Y,+0.97 Z,0 ENL,0 us*46
$GNRMC,154132.40,A,4816.48391,N,01139.87070,E,0.20,,080522,,,A*5B
$GNGGA,154132.40,4816.48391,N,01139.87070,E,1,12,0.62,476.8,M,46.2,M,,*42
$GNGSA,A,3,10,08,21,23,27,32,01,16,22,14,,,1.06,0.62,0.87*1C
$GNVTG,,T,,M,0.194,N,0.360,K,A*34
$SMGPS,-0.0 m,+0.01 m/s,7.62 VRx,0.000 km,2 m,90.0 °,1:-- (  0.0 km/h)*C9
$SMGPS2,-0.16 X,+0.12 Y,+0.95 Z,0 ENL,0 us*45
$GNRMC,154132.50,A,4816.48394,N,01139.87069,E,0.16,,080522,,,A*52
$GNGGA,154132.50,4816.48394,N,01139.87069,E,1,12,0.62,476.8,M,46.2,M,,*4E
$GNGSA,A,3,10,08,21,23,27,32,01,16,22,14,,,1.06,0.62,0.87*1C
$GNVTG,,T,,M,0.157,N,0.291,K,A*34
$SMGPS,0.0 m,+0.01 m/s,7.60 VRx,0.000 km,2 m,90.0 °,1:-- (  0.0 km/h)*E6
$SMGPS2,-0.15 X,+0.12 Y,+0.96 Z,0 ENL,0 us*45
$GNRMC,154132.60,A,4816.48396,N,01139.87068,E,0.09,,080522,,,A*5C
$GNGGA,154132.60,4816.48396,N,01139.87068,E,1,12,0.62,476.8,M,46.2,M,,*4E
$GNGSA,A,3,10,08,21,23,27,32,01,16,22,14,,,1.06,0.62,0.87*1C
$GNVTG,,T,,M,0.085,N,0.158,K,A*3C
$SMGPS,-0.0 m,+0.01 m/s,7.61 VRx,0.000 km,2 m,90.0 °,1:-- (  0.0 km/h)*CA
$SMGPS2,-0.15 X,+0.12 Y,+0.96 Z,0 ENL,0 us*45
$GNRMC,154132.70,A,4816.48398,N,01139.87068,E,0.11,,080522,,,A*5A
$GNGGA,154132.70,4816.48398,N,01139.87068,E,1,12,0.62,476.8,M,46.2,M,,*41
$GNGSA,A,3,10,08,21,23,27,32,01,16,22,14,,,1.06,0.62,0.87*1C
$GNVTG,,T,,M,0.110,N,0.204,K,A*3B
$SMGPS,-0.0 m,+0.02 m/s,7.60 VRx,0.000 km,2 m,90.0 °,1:-- (  0.0 km/h)*C8
$SMGPS2,-0.15 X,+0.10 Y,+0.95 Z,0 ENL,0 us*44
$GNRMC,154132.80,A,4816.48399,N,01139.87067,E,0.11,,080522,,,A*5B
$GNGGA,154132.80,4816.48399,N,01139.87067,E,1,12,0.62,476.8,M,46.2,M,,*40
$GNGSA,A,3,10,08,21,23,27,32,01,16,22,14,,,1.06,0.62,0.87*1C
$GNVTG,,T,,M,0.113,N,0.210,K,A*3D
$SMGPS,0.0 m,+0.01 m/s,7.61 VRx,0.000 km,2 m,90.0 °,1:-- (  0.0 km/h)*E7
$SMGPS2,-0.16 X,+0.12 Y,+0.96 Z,0 ENL,0 us*46
$GNRMC,154132.90,A,4816.48401,N,01139.87067,E,0.14,,080522,,,A*59
$GNGGA,154132.90,4816.48401,N,01139.87067,E,1,12,0.62,476.8,M,46.2,M,,*47
$GNGSA,A,3,10,08,21,23,27,32,01,16,22,14,,,1.06,0.62,0.87*1C
$GNVTG,,T,,M,0.140,N,0.260,K,A*3C
$SMGPS,0.0 m,+0.00 m/s,7.59 VRx,0.000 km,2 m,90.0 °,1:-- (  0.0 km/h)*ED
$SMGPS2,-0.15 X,+0.13 Y,+0.96 Z,0 ENL,0 us*44
$GNRMC,154133.00,A,4816.48403,N,01139.87066,E,0.11,,080522,,,A*57
$GNGGA,154133.00,4816.48403,N,01139.87066,E,1,12,0.62,476.9,M,46.2,M,,*4D
$GNGSA,A,3,10,08,21,23,27,32,01,16,22,14,,,1.06,0.62,0.87*1C
$GNVTG,,T,,M,0.107,N,0.197,K,A*34
$SMGPS,0.1 m,-0.00 m/s,7.62 VRx,0.000 km,2 m,90.0 °,1:-- (  0.0 km/h)*E2
$SMGPS2,-0.15 X,+0.13 Y,+0.96 Z,0 ENL,0 us*44
$GNRMC,154133.10,A,4816.48404,N,01139.87066,E,0.16,,080522,,,A*56
$GNGGA,154133.10,4816.48404,N,01139.87066,E,1,12,0.62,476.8,M,46.2,M,,*4A
$GNGSA,A,3,10,08,21,23,27,32,01,16,22,14,,,1.06,0.62,0.87*1C
$GNVTG,,T,,M,0.161,N,0.297,K,A*37
$SMGPS,-0.0 m,-0.01 m/s,7.59 VRx,0.000 km,2 m,90.0 °,1:-- (  0.0 km/h)*C7
$SMGPS2,-0.14 X,+0.11 Y,+0.96 Z,0 ENL,0 us*47
$GNRMC,154133.20,A,4816.48405,N,01139.87065,E,0.03,,080522,,,A*53
$GNGGA,154133.20,4816.48405,N,01139.87065,E,1,12,0.62,476.8,M,46.2,M,,*4B
$GNGSA,A,3,10,08,21,23,27,32,01,16,22,14,,,1.06,0.62,0.87*1C
$GNVTG,,T,,M,0.027,N,0.050,K,A*3D
$SMGPS,-0.0 m,-0.02 m/s,7.62 VRx,0.000 km,2 m,90.0 °,1:-- (  0.0 km/h)*CC
$SMGPS2,-0.14 X,+0.13 Y,+0.95 Z,0 ENL,0 us*46
$GNRMC,154133.30,A,4816.48406,N,01139.87064,E,0.03,,080522,,,A*50
$GNGGA,154133.30,4816.48406,N,01139.87064,E,1,12,0.62,476.8,M,46.2,M,,*48
$GNGSA,A,3,10,08,21,23,27,32,01,16,22,14,,,1.06,0.62,0.87*1C
$GNVTG,,T,,M,0.032,N,0.060,K,A*3A
$SMGPS,-0.0 m,-0.02 m/s,7.59 VRx,0.000 km,2 m,90.0 °,1:-- (  0.0 km/h)*C4
$SMGPS2,-0.15 X,+0.11 Y,+0.96 Z,0 ENL,0 us*46
$GNRMC,154133.40,A,4816.48407,N,01139.87064,E,0.13,,080522,,,A*57
$GNGGA,154133.40,4816.48407,N,01139.87064,E,1,12,0.62,476.8,M,46.2,M,,*4E
$GNGSA,A,3,10,08,21,23,27,32,01,16,22,14,,,1.06,0.62,0.87*1C
$GNVTG,,T,,M,0.128,N,0.237,K,A*30
$SMGPS,-0.0 m,-0.03 m/s,7.62 VRx,0.000 km,2 m,90.0 °,1:-- (  0.0 km/h)*CD
$SMGPS2,-0.14 X,+0.12 Y,+0.96 Z,0 ENL,0 us*44
$GNRMC,154133.50,A,4816.48408,N,01139.87064,E,0.18,,080522,,,A*52
$GNGGA,154133.50,4816.48408,N,01139.87064,E,1,12,0.62,476.8,M,46.2,M,,*40
$GNGSA,A,3,10,08,21,23,27,32,01,16,22,14,,,1.06,0.62,0.87*1C
$GNVTG,,T,,M,0.175,N,0.325,K,A*3A
$SMGPS,-0.0 m,-0.03 m/s,7.59 VRx,0.000 km,2 m,90.0 °,1:-- (  0.0 km/h)*C5
$SMGPS2,-0.14 X,+0.11 Y,+0.96 Z,0 ENL,0 us*47
$GNRMC,154133.60,A,4816.48409,N,01139.87064,E,0.08,,080522,,,A*51
$GNGGA,154133.60,4816.48409,N,01139.87064,E,1,12,0.62,476.8,M,46.2,M,,*42
$GNGSA,A,3,10,08,21,23,27,32,01,16,22,14,,,1.06,0.62,0.87*1C
$GNVTG,,T,,M,0.071,N,0.131,K,A*38
$SMGPS,0.0 m,-0.02 m/s,7.61 VRx,0.000 km,2 m,90.0 °,1:-- (  0.0 km/h)*E2
$SMGPS2,-0.14 X,+0.11 Y,+0.97 Z,0 ENL,0 us*46
$GNRMC,154133.70,A,4816.48410,N,01139.87064,E,0.14,,080522,,,A*55
$GNGGA,154133.70,4816.48410,N,01139.87064,E,1,12,0.62,476.8,M,46.2,M,,*4B
$GNGSA,A,3,10,08,21,23,27,32,01,16,22,14,,,1.06,0.62,0.87*1C
$GNVTG,,T,,M,0.137,N,0.254,K,A*3B
$SMGPS,0.0 m,-0.02 m/s,7.59 VRx,0.000 km,2 m,90.0 °,1:-- (  0.0 km/h)*E9
$SMGPS2,-0.15 X,+0.13 Y,+0.96 Z,0 ENL,0 us*44
$GNRMC,154133.80,A,4816.48411,N,01139.87063,E,0.19,,080522,,,A*51
$GNGGA,154133.80,4816.48411,N,01139.87063,E,1,12,0.62,476.9,M,46.2,M,,*43
$GNGSA,A,3,10,08,21,23,27,32,01,16,22,14,,,1.06,0.62,0.87*1C
$GNVTG,,T,,M,0.185,N,0.342,K,A*34
$SMGPS,0.1 m,-0.01 m/s,7.61 VRx,0.000 km,2 m,90.0 °,1:-- (  0.0 km/h)*E0
$SMGPS2,-0.14 X,+0.11 Y,+0.96 Z,0 ENL,0 us*47
$GNRMC,154133.90,A,4816.48411,N,01139.87062,E,0.12,,080522,,,A*5A
$GNGGA,154133.90,4816.48411,N,01139.87062,E,1,12,0.62,476.8,M,46.2,M,,*42
$GNGSA,A,3,10,08,21,23,27,32,01,16,22,14,,,1.06,0.62,0.87*1C
$GNVTG,,T,,M,0.122,N,0.227,K,A*3B
$SMGPS,0.0 m,-0.00 m/s,7.59 VRx,0.000 km,2 m,90.0 °,1:-- (  0.0 km/h)*EB
$SMGPS2,-0.14 X,+0.12 Y,+0.96 Z,0 ENL,0 us*44
$GNRMC,154134.00,A,4816.48411,N,01139.87062,E,0.14,,080522,,,A*52
$GNGGA,154134.00,4816.48411,N,01139.87062,E,1,12,0.62,476.8,M,46.2,M,,*4C
$GNGSA,A,3,10,08,21,23,27,32,01,16,22,14,,,1.06,0.62,0.87*1C
$GNVTG,,T,,M,0.139,N,0.257,K,A*36
$SMGPS,-0.0 m,+0.01 m/s,7.61 VRx,0.000 km,2 m,90.0 °,1:-- (  0.0 km/h)*CA
$SMGPS2,-0.15 X,+0.11 Y,+0.96 Z,0 ENL,0 us*46
$GNRMC,154134.10,A,4816.48411,N,01139.87061,E,0.06,,080522,,,A*53
$GNGGA,154134.10,4816.48411,N,01139.87061,E,1,12,0.62,476.9,M,46.2,M,,*4F
$GNGSA,A,3,10,08,21,23,27,32,01,16,22,14,,,1.06,0.62,0.87*1C
$GNVTG,,T,,M,0.045,N,0.084,K,A*30
$SMGPS,0.1 m,+0.02 m/s,7.59 VRx,0.000 km,2 m,90.0 °,1:-- (  0.0 km/h)*EE
$SMGPS2,-0.15 X,+0.11 Y,+0.96 Z,895 ENL,0 us*42
$GNRMC,154134.20,A,4816.48412,N,01139.87061,E,0.06,,080522,,,A*53
$GNGGA,154134.20,4816.48412,N,01139.87061,E,1,12,0.62,476.8,M,46.2,M,,*4E
$GNGSA,A,3,10,08,21,23,27,32,01,16,22,14,,,1.06,0.62,0.87*1C
$GNVTG,,T,,M,0.020,N,0.037,K,A*3B
$SMGPS,-0.0 m,+0.02 m/s,7.60 VRx,0.000 km,2 m,90.0 °,1:-- (  0.0 km/h)*C8
$SMGPS2,-0.14 X,+0.10 Y,+0.96 Z,999 ENL,0 us*4F
$GNRMC,154134.30,A,4816.48413,N,01139.87060,E,0.13,,080522,,,A*56
$GNGGA,154134.30,4816.48413,N,01139.87060,E,1,12,0.61,476.8,M,46.2,M,,*4C
$GNGSA,A,3,10,08,21,23,27,32,01,16,22,14,,,1.05,0.61,0.86*1D
$GNVTG,,T,,M,0.123,N,0.228,K,A*35
$SMGPS,-0.0 m,+0.04 m/s,7.58 VRx,0.000 km,2 m,90.0 °,1:-- (  0.0 km/h)*C5
$SMGPS2,-0.15 X,+0.12 Y,+0.97 Z,79 ENL,0 us*7A
$GNRMC,154134.40,A,4816.48414,N,01139.87059,E,0.19,,080522,,,A*56
$GNGGA,154134.40,4816.48414,N,01139.87059,E,1,12,0.61,476.8,M,46.2,M,,*46
$GNGSA,A,3,10,08,21,23,27,32,01,16,22,14,,,1.05,0.61,0.86*1D
$GNVTG,,T,,M,0.182,N,0.337,K,A*31
$SMGPS,-0.0 m,+0.04 m/s,7.62 VRx,0.000 km,2 m,90.0 °,1:-- (  0.0 km/h)*CC
$SMGPS2,-0.14 X,+0.05 Y,+0.97 Z,0 ENL,0 us*43
$GNRMC,154134.50,A,4816.48415,N,01139.87058,E,0.06,,080522,,,A*59
$GNGGA,154134.50,4816.48415,N,01139.87058,E,1,12,0.62,476.8,M,46.2,M,,*44
$GNGSA,A,3,10,08,21,23,27,32,01,16,22,14,,,1.06,0.62,0.87*1C
$GNVTG,,T,,M,0.045,N,0.083,K,A*37
$SMGPS,0.0 m,+0.04 m/s,7.58 VRx,0.000 km,2 m,62.4 °,1:-- (  0.0 km/h)*E1
$SMGPS2,-0.13 X,+0.06 Y,+0.97 Z,596 ENL,0 us*4D
$GNRMC,154134.60,A,4816.48416,N,01139.87057,E,0.12,,080522,,,A*53
$GNGGA,154134.60,4816.48416,N,01139.87057,E,1,12,0.61,476.8,M,46.2,M,,*48
$GNGSA,A,3,10,08,21,23,27,32,01,16,22,14,,,1.05,0.61,0.86*1D
$GNVTG,,T,,M,0.110,N,0.204,K,A*3B
$SMGPS,-0.0 m,+0.05 m/s,7.61 VRx,0.000 km,2 m,62.4 °,1:-- (  0.0 km/h)*C7
$SMGPS2,-0.13 X,+0.03 Y,+0.98 Z,482 ENL,0 us*43
$GNRMC,154134.70,A,4816.48417,N,01139.87056,E,0.09,,080522,,,A*58
$GNGGA,154134.70,4816.48417,N,01139.87056,E,1,12,0.62,476.8,M,46.2,M,,*4A
$GNGSA,A,3,10,08,21,23,27,32,01,16,22,14,,,1.06,0.62,0.87*1C
$GNVTG,,T,,M,0.086,N,0.159,K,A*3E
$SMGPS,-0.0 m,+0.05 m/s,7.58 VRx,0.000 km,2 m,62.4 °,1:-- (  0.0 km/h)*CD
$SMGPS2,-0.13 X,+0.03 Y,+0.97 Z,39 ENL,0 us*78
$GNRMC,154134.80,A,4816.48418,N,01139.87055,E,0.14,,080522,,,A*57
$GNGGA,154134.80,4816.48418,N,01139.87055,E,1,12,0.62,476.8,M,46.2,M,,*49
$GNGSA,A,3,10,08,21,23,27,32,01,16,22,14,,,1.06,0.62,0.87*1C
$GNVTG,,T,,M,0.143,N,0.265,K,A*3A
$SMGPS,-0.0 m,+0.04 m/s,7.62 VRx,0.000 km,2 m,62.4 °,1:-- (  0.0 km/h)*C5
$SMGPS2,-0.13 X,+0.03 Y,+0.97 Z,0 ENL,0 us*42
$GNRMC,154134.90,A,4816.48419,N,01139.87054,E,0.07,,080522,,,A*54
$GNGGA,154134.90,4816.48419,N,01139.87054,E,1,12,0.62,476.8,M,46.2,M,,*48
$GNGSA,A,3,10,08,21,23,27,32,01,16,22,14,,,1.06,0.62,0.87*1C
$GNVTG,,T,,M,0.073,N,0.136,K,A*3D
$SMGPS,-0.0 m,+0.03 m/s,7.59 VRx,0.000 km,2 m,62.4 °,1:-- (  0.0 km/h)*CA
$SMGPS2,-0.13 X,+0.04 Y,+0.97 Z,0 ENL,0 us*45
$GNRMC,154135.00,A,4816.48420,N,01139.87053,E,0.02,,080522,,,A*54
$GNGGA,154135.00,4816.48420,N,01139.87053,E,1,12,0.62,476.8,M,46.2,M,,*4D
$GNGSA,A,3,10,08,21,23,27,32,01,16,22,14,,,1.06,0.62,0.87*1C
$GNVTG,,T,,M,0.019,N,0.036,K,A*30
$SMGPS,-0.0 m,+0.03 m/s,7.60 VRx,0.000 km,2 m,60.2 °,1:-- (  0.0 km/h)*C4
$SMGPS2,-0.13 X,+0.03 Y,+0.96 Z,0 ENL,0 us*43
$GNRMC,154135.10,A,4816.48422,N,01139.87052,E,0.10,,080522,,,A*55
$GNGGA,154135.10,4816.48422,N,01139.87052,E,1,12,0.62,476.8,M,46.2,M,,*4F
$GNGSA,A,3,10,08,21,23,27,32,01,16,22,14,,,1.06,0.62,0.87*1C
$GNVTG,,T,,M,0.096,N,0.178,K,A*3C
$SMGPS,-0.0 m,+0.02 m/s,7.59 VRx,0.000 km,2 m,60.2 °,1:-- (  0.0 km/h)*CF
$SMGPS2,-0.13 X,+0.06 Y,+0.97 Z,0 ENL,0 us*47
$GNRMC,154135.20,A,4816.48423,N,01139.87050,E,0.09,,080522,,,A*5D
$GNGGA,154135.20,4816.48423,N,01139.87050,E,1,12,0.61,476.8,M,46.2,M,,*4C
$GNGSA,A,3,10,08,21,23,27,32,01,16,22,14,,,1.05,0.61,0.86*1D
$GNVTG,,T,,M,0.089,N,0.164,K,A*3F
$SMGPS,-0.0 m,+0.00 m/s,7.60 VRx,0.000 km,2 m,60.2 °,1:-- (  0.0 km/h)*C7
$SMGPS2,-0.14 X,+0.11 Y,+0.96 Z,0 ENL,0 us*47
$GNRMC,154135.30,A,4816.48424,N,01139.87049,E,0.23,,080522,,,A*5B
$GNGGA,154135.30,4816.48424,N,01139.87049,E,1,12,0.61,476.8,M,46.2,M,,*42
$GNGSA,A,3,10,08,21,23,27,32,01,16,22,14,,,1.05,0.61,0.86*1D
$GNVTG,,T,,M,0.227,N,0.420,K,A*3C
$SMGPS,-0.0 m,-0.01 m/s,7.60 VRx,0.000 km,2 m,60.2 °,1:-- (  0.0 km/h)*C0
$SMGPS2,-0.11 X,+0.05 Y,+0.98 Z,1 ENL,0 us*48
$GNRMC,154135.40,A,4816.48425,N,01139.87048,E,0.27,,080522,,,A*58
$GNGGA,154135.40,4816.48425,N,01139.87048,E,1,12,0.61,476.8,M,46.2,M,,*45
$GNGSA,A,3,10,08,21,23,27,32,01,16,22,14,,,1.05,0.61,0.86*1D
$GNVTG,,T,,M,0.270,N,0.500,K,A*3D
$SMGPS,-0.0 m,-0.02 m/s,7.61 VRx,0.000 km,2 m,60.2 °,1:-- (  0.0 km/h)*C2
$SMGPS2,-0.11 X,+0.11 Y,+1.02 Z,36 ENL,0 us*7B
$GNRMC,154135.50,A,4816.48427,N,01139.87047,E,0.34,,080522,,,A*56
$GNGGA,154135.50,4816.48427,N,01139.87047,E,1,12,0.61,476.8,M,46.2,M,,*49
$GNGSA,A,3,10,08,21,23,27,32,01,16,22,14,,,1.05,0.61,0.86*1D
$GNVTG,,T,,M,0.340,N,0.630,K,A*3F
$SMGPS,-0.0 m,-0.03 m/s,7.59 VRx,0.000 km,2 m,60.2 °,1:-- (  0.0 km/h)*C8
$SMGPS2,-0.17 X,-0.07 Y,+0.81 Z,369 ENL,0 us*4F
$GNRMC,154135.60,A,4816.48428,N,01139.87047,E,0.16,,080522,,,A*5A
$GNGGA,154135.60,4816.48428,N,01139.87047,E,1,12,0.61,476.8,M,46.2,M,,*45
$GNGSA,A,3,10,08,21,23,27,32,01,16,22,14,,,1.05,0.61,0.86*1D
$GNVTG,,T,,M,0.159,N,0.294,K,A*3F
$SMGPS,-0.0 m,-0.03 m/s,7.62 VRx,0.000 km,2 m,60.2 °,1:-- (  0.0 km/h)*C0
$SMGPS2,-0.14 X,+0.02 Y,+0.98 Z,19 ENL,0 us*73
$GNRMC,154135.70,A,4816.48429,N,01139.87046,E,0.18,,080522,,,A*55
$GNGGA,154135.70,4816.48429,N,01139.87046,E,1,12,0.62,476.8,M,46.2,M,,*47
$GNGSA,A,3,10,08,21,23,27,32,01,16,22,14,,,1.06,0.62,0.87*1C
$GNVTG,,T,,M,0.174,N,0.323,K,A*3D
$SMGPS,-0.0 m,-0.03 m/s,7.58 VRx,0.000 km,2 m,60.2 °,1:-- (  0.0 km/h)*C9
$SMGPS2,-0.16 X,+0.16 Y,+0.95 Z,0 ENL,0 us*41
$GNRMC,154135.80,A,4816.48428,N,01139.87045,E,0.31,,080522,,,A*53
$GNGGA,154135.80,4816.48428,N,01139.87045,E,1,12,0.61,476.8,M,46.2,M,,*49
$GNGSA,A,3,10,08,21,23,27,32,01,16,22,14,,,1.05,0.61,0.86*1D
$GNVTG,,T,,M,0.311,N,0.576,K,A*3A
$SMGPS,-0.0 m,-0.04 m/s,7.62 VRx,0.000 km,2 m,60.2 °,1:-- (  0.0 km/h)*C7
$SMGPS2,-0.15 X,+0.11 Y,+0.96 Z,0 ENL,0 us*46
$GNRMC,154135.90,A,4816.48428,N,01139.87044,E,0.16,,080522,,,A*56
$GNGGA,154135.90,4816.48428,N,01139.87044,E,1,12,0.61,476.8,M,46.2,M,,*49
$GNGSA,A,3,10,08,21,23,27,32,01,16,22,14,,,1.05,0.61,0.86*1D
$GNVTG,,T,,M,0.160,N,0.296,K,A*37
$SMGPS,-0.0 m,-0.03 m/s,7.58 VRx,0.000 km,2 m,60.2 °,1:-- (  0.0 km/h)*C9
$SMGPS2,-0.15 X,+0.12 Y,+0.96 Z,0 ENL,0 us*45
$GNRMC,154136.00,A,4816.48428,N,01139.87045,E,0.27,,080522,,,A*5F
$GNGGA,154136.00,4816.48428,N,01139.87045,E,1,12,0.61,476.8,M,46.2,M,,*42
$GNGSA,A,3,10,08,21,23,27,32,01,16,22,14,,,1.05,0.61,0.86*1D
$GNVTG,,T,,M,0.268,N,0.497,K,A*3B
$SMGPS,-0.0 m,-0.03 m/s,7.61 VRx,0.000 km,2 m,60.2 °,1:-- (  0.0 km/h)*C3
$SMGPS2,-0.16 X,+0.12 Y,+0.95 Z,0 ENL,0 us*45
$GNRMC,154136.10,A,4816.48428,N,01139.87045,E,0.37,,080522,,,A*5F
$GNGGA,154136.10,4816.48428,N,01139.87045,E,1,12,0.61,476.8,M,46.2,M,,*43
$GNGSA,A,3,10,08,21,23,27,32,01,16,22,14,,,1.05,0.61,0.86*1D
$GNVTG,,T,,M,0.373,N,0.691,K,A*34
$SMGPS,-0.0 m,-0.02 m/s,7.59 VRx,0.000 km,2 m,60.2 °,1:-- (  0.0 km/h)*C9
$SMGPS2,-0.15 X,+0.12 Y,+0.96 Z,0 ENL,0 us*45
$GNRMC,154136.20,A,4816.48428,N,01139.87045,E,0.11,,080522,,,A*58
$GNGGA,154136.20,4816.48428,N,01139.87045,E,1,12,0.61,476.8,M,46.2,M,,*40
$GNGSA,A,3,10,08,21,23,27,32,01,16,22,14,,,1.05,0.61,0.86*1D
$GNVTG,,T,,M,0.110,N,0.203,K,A*3C
$SMGPS,0.0 m,-0.01 m/s,7.61 VRx,0.000 km,2 m,60.2 °,1:-- (  0.0 km/h)*EC
$SMGPS2,-0.15 X,+0.12 Y,+0.96 Z,0 ENL,0 us*45
$GNRMC,154136.30,A,4816.48429,N,01139.87044,E,0.08,,080522,,,A*51
$GNGGA,154136.30,4816.48429,N,01139.87044,E,1,12,0.61,476.9,M,46.2,M,,*40
$GNGSA,A,3,10,08,21,23,27,32,01,16,22,14,,,1.05,0.61,0.86*1D
$GNVTG,,T,,M,0.082,N,0.153,K,A*30
$SMGPS,0.1 m,-0.00 m/s,7.59 VRx,0.000 km,2 m,60.2 °,1:-- (  0.0 km/h)*E7
$SMGPS2,-0.15 X,+0.11 Y,+0.96 Z,0 ENL,0 us*46
$GNRMC,154136.40,A,4816.48430,N,01139.87043,E,0.24,,080522,,,A*57
$GNGGA,154136.40,4816.48430,N,01139.87043,E,1,12,0.61,476.7,M,46.2,M,,*46
$GNGSA,A,3,10,08,21,23,27,32,01,16,22,14,,,1.05,0.61,0.86*1D
$GNVTG,,T,,M,0.238,N,0.441,K,A*35
$SMGPS,-0.1 m,-0.00 m/s,7.60 VRx,0.000 km,2 m,60.2 °,1:-- (  0.0 km/h)*C0
$SMGPS2,-0.15 X,+0.12 Y,+0.96 Z,0 ENL,0 us*45
$GNRMC,154136.50,A,4816.48431,N,01139.87043,E,0.35,,080522,,,A*57
$GNGGA,154136.50,4816.48431,N,01139.87043,E,1,12,0.61,476.7,M,46.2,M,,*46
$GNGSA,A,3,10,08,21,23,27,32,01,16,22,14,,,1.05,0.61,0.86*1D
$GNVTG,,T,,M,0.346,N,0.641,K,A*3F
$SMGPS,-0.1 m,-0.01 m/s,7.59 VRx,0.000 km,2 m,60.2 °,1:-- (  0.0 km/h)*CB
$SMGPS2,-0.15 X,+0.12 Y,+0.96 Z,0 ENL,0 us*45
$GNRMC,154136.60,A,4816.48431,N,01139.87043,E,0.07,,080522,,,A*55
$GNGGA,154136.60,4816.48431,N,01139.87043,E,1,12,0.61,476.8,M,46.2,M,,*4A
$GNGSA,A,3,10,08,21,23,27,32,01,16,22,14,,,1.05,0.61,0.86*1D
$GNVTG,,T,,M,0.071,N,0.131,K,A*38
$SMGPS,0.0 m,+0.00 m/s,7.61 VRx,0.000 km,2 m,60.2 °,1:-- (  0.0 km/h)*EB
$SMGPS2,-0.15 X,+0.12 Y,+0.96 Z,0 ENL,0 us*45
$GNRMC,154136.70,A,4816.48432,N,01139.87042,E,0.06,,080522,,,A*57
$GNGGA,154136.70,4816.48432,N,01139.87042,E,1,12,0.61,476.8,M,46.2,M,,*49
$GNGSA,A,3,10,08,21,23,27,32,01,16,22,14,,,1.05,0.61,0.86*1D
$GNVTG,,T,,M,0.059,N,0.110,K,A*31
$SMGPS,0.0 m,+0.01 m/s,7.59 VRx,0.000 km,2 m,60.2 °,1:-- (  0.0 km/h)*E1
$SMGPS2,-0.16 X,+0.12 Y,+0.96 Z,0 ENL,0 us*46
$GNRMC,154136.80,A,4816.48432,N,01139.87041,E,0.14,,080522,,,A*58
$GNGGA,154136.80,4816.48432,N,01139.87041,E,1,12,0.61,476.8,M,46.2,M,,*45
$GNGSA,A,3,10,08,21,23,27,32,01,16,22,14,,,1.05,0.61,0.86*1D
$GNVTG,,T,,M,0.136,N,0.252,K,A*3C
