$GPSSETUP,8AE8,0,1,1,0,0,1,0,0,0,1,3,0,0,0,0,6,0,C8,C8,1F4,1C2,32,64,7C,64,7D0,5,1,1,1E,0,0,0,0,0,0,1003,4,10,5,6,10,10,10,10,10,10,10,10,10,BC10,0,7C,0,108,302,604,0,20F,0,0,0,0,0,0,0,0,0,0,0,0,0,0,0,0,0,0,0,0,0,0,0,0,0,0,0,0,0,0,0,0,0,20,12C,877D*47
$GNRMC,154738.90,A,4816.48302,N,01139.86301,E,0.13,,080522,,,A*54
$GNGGA,154738.90,4816.48302,N,01139.86301,E,1,12,1.13,484.4,M,46.2,M,,*4B
$GNGSA,A,3,01,08,21,10,27,14,,,,,,,1.84,1.13,1.46*1A
$GNVTG,,T,,M,0.130,N,0.241,K,A*38
$SMGPS,0.0 m,+0.01 m/s,7.64 VRx,0.000 km,1 m,21.2 °,1:-- (  0.0 km/h)*E9
$SMGPS2,-0.18 X,-0.06 Y,+0.96 Z,1 ENL,0 us*4A
$GNRMC,154739.00,A,4816.48343,N,01139.86336,E,0.24,,080522,,,A*59
$GNGGA,154739.00,4816.48343,N,01139.86336,E,1,12,0.69,484.4,M,46.2,M,,*4E
$GNGSA,A,3,01,08,21,10,27,32,23,16,14,,,,1.16,0.69,0.93*13
$GNVTG,,T,,M,0.242,N,0.449,K,A*30
$SMGPS,0.0 m,+0.02 m/s,7.65 VRx,0.000 km,3 m,12.5 °,1:-- (  0.0 km/h)*EE
$SMGPS2,-0.19 X,-0.07 Y,+0.96 Z,1 ENL,0 us*4A
$GNRMC,154739.10,A,4816.48381,N,01139.86351,E,1.54,,080522,,,A*51
$GNGGA,154739.10,4816.48381,N,01139.86351,E,1,12,0.69,484.5,M,46.2,M,,*41
$GNGSA,A,3,01,08,21,10,27,32,23,16,14,,,,1.16,0.69,0.93*13
$GNVTG,,T,,M,1.538,N,2.849,K,A*35
$SMGPS,0.1 m,+0.03 m/s,7.69 VRx,0.000 km,4 m,16.2 °,1:-- (  0.0 km/h)*E6
$SMGPS2,-0.19 X,-0.06 Y,+0.96 Z,0 ENL,0 us*4A
$GNRMC,154739.20,A,4816.48417,N,01139.86345,E,1.61,,080522,,,A*59
$GNGGA,154739.20,4816.48417,N,01139.86345,E,1,12,0.75,484.4,M,46.2,M,,*43
$GNGSA,A,3,01,08,21,10,27,32,23,16,14,,,,1.27,0.75,1.02*15
$GNVTG,,T,,M,1.606,N,2.975,K,A*35
$SMGPS,0.0 m,+0.03 m/s,7.58 VRx,0.001 km,4 m,15.8 °,1:-- (  0.0 km/h)*ED
$SMGPS2,-0.19 X,-0.07 Y,+0.95 Z,1 ENL,0 us*49
$GNRMC,154739.30,A,4816.48456,N,01139.86360,E,1.08,,080522,,,A*55
$GNGGA,154739.30,4816.48456,N,01139.86360,E,1,12,0.71,484.4,M,46.2,M,,*44
$GNGSA,A,3,01,08,21,10,27,32,23,22,16,14,,,1.19,0.71,0.95*13
$GNVTG,,T,,M,1.080,N,2.001,K,A*37
$SMGPS,0.0 m,+0.03 m/s,7.60 VRx,0.002 km,5 m,11.0 °,1:-- (  0.0 km/h)*E8
$SMGPS2,-0.18 X,-0.06 Y,+0.97 Z,0 ENL,0 us*4A
$GNRMC,154739.40,A,4816.48458,N,01139.86385,E,2.02,220.80,080522,,,A*48
$GNGGA,154739.40,4816.48458,N,01139.86385,E,1,12,0.71,484.5,M,46.2,M,,*47
$GNGSA,A,3,01,08,21,10,27,32,23,22,16,14,,,1.19,0.71,0.95*13
$GNVTG,220.80,T,,M,2.017,N,3.735,K,A*2D
$SMGPS,0.1 m,+0.03 m/s,7.57 VRx,0.002 km,5 m,14.8 °,1:-- (  0.0 km/h)*E0
$SMGPS2,-0.19 X,-0.07 Y,+0.97 Z,1 ENL,0 us*4B
$GNRMC,154739.50,A,4816.48472,N,01139.86404,E,1.23,,080522,,,A*59
$GNGGA,154739.50,4816.48472,N,01139.86404,E,1,12,0.71,484.5,M,46.2,M,,*40
$GNGSA,A,3,01,08,21,10,27,32,23,22,16,14,,,1.19,0.71,0.95*13
$GNVTG,,T,,M,1.231,N,2.281,K,A*35
$SMGPS,0.1 m,+0.04 m/s,7.59 VRx,0.002 km,5 m,17.7 °,1:-- (  0.0 km/h)*E5
$SMGPS2,-0.19 X,-0.07 Y,+0.96 Z,2 ENL,0 us*49
$GNRMC,154739.60,A,4816.48462,N,01139.86440,E,0.68,,080522,,,A*55
$GNGGA,154739.60,4816.48462,N,01139.86440,E,1,12,0.65,484.4,M,46.2,M,,*46
$GNGSA,A,3,01,08,21,10,27,32,23,22,16,14,,,1.09,0.65,0.87*14
$GNVTG,,T,,M,0.672,N,1.245,K,A*3C
$SMGPS,0.0 m,+0.05 m/s,7.58 VRx,0.003 km,6 m,16.5 °,1:-- (  0.0 km/h)*E5
$SMGPS2,-0.19 X,-0.07 Y,+0.96 Z,1 ENL,0 us*4A
$GNRMC,154739.70,A,4816.48466,N,01139.86465,E,0.19,,080522,,,A*51
$GNGGA,154739.70,4816.48466,N,01139.86465,E,1,12,0.65,484.4,M,46.2,M,,*44
$GNGSA,A,3,01,08,21,10,27,32,23,22,16,14,,,1.09,0.65,0.87*14
$GNVTG,,T,,M,0.171,N,0.317,K,A*3F
$SMGPS,0.0 m,+0.05 m/s,7.58 VRx,0.003 km,6 m,20.8 °,1:-- (  0.0 km/h)*ED
$SMGPS2,-0.19 X,-0.06 Y,+0.97 Z,1 ENL,0 us*4A
$GNRMC,154739.80,A,4816.48455,N,01139.86489,E,0.44,,080522,,,A*54
$GNGGA,154739.80,4816.48455,N,01139.86489,E,1,12,0.65,484.4,M,46.2,M,,*49
$GNGSA,A,3,01,08,21,10,27,32,23,22,16,14,,,1.09,0.65,0.87*14
$GNVTG,,T,,M,0.434,N,0.804,K,A*32
$SMGPS,0.0 m,+0.05 m/s,7.58 VRx,0.003 km,6 m,23.2 °,1:-- (  0.0 km/h)*E4
$SMGPS2,-0.18 X,-0.08 Y,+0.96 Z,1 ENL,0 us*44
$GNRMC,154739.90,A,4816.48452,N,01139.86509,E,0.71,,080522,,,A*5D
$GNGGA,154739.90,4816.48452,N,01139.86509,E,1,12,0.65,484.4,M,46.2,M,,*46
$GNGSA,A,3,01,08,21,10,27,32,23,22,16,14,,,1.09,0.65,0.87*14
$GNVTG,,T,,M,0.703,N,1.302,K,A*39
$SMGPS,-0.0 m,+0.04 m/s,7.59 VRx,0.003 km,6 m,29.0 °,1:-- (  0.0 km/h)*C1
$SMGPS2,-0.18 X,-0.07 Y,+0.97 Z,0 ENL,0 us*4B
$GNRMC,154740.00,A,4816.48451,N,01139.86530,E,0.56,,080522,,,A*56
$GNGGA,154740.00,4816.48451,N,01139.86530,E,1,12,0.65,484.4,M,46.2,M,,*48
$GNGSA,A,3,01,08,21,10,27,32,23,22,16,14,,,1.09,0.65,0.87*14
$GNVTG,,T,,M,0.559,N,1.036,K,A*30
$SMGPS,0.0 m,+0.04 m/s,7.57 VRx,0.003 km,6 m,31.4 °,1:-- (  0.0 km/h)*EF
$SMGPS2,-0.19 X,-0.06 Y,+0.96 Z,24 ENL,0 us*7C
$GNRMC,154740.10,A,4816.48458,N,01139.86552,E,0.43,,080522,,,A*5E
$GNGGA,154740.10,4816.48458,N,01139.86552,E,1,12,0.64,484.4,M,46.2,M,,*45
$GNGSA,A,3,01,08,21,10,27,32,23,22,16,14,,,1.08,0.64,0.87*14
$GNVTG,,T,,M,0.422,N,0.781,K,A*37
$SMGPS,0.0 m,+0.04 m/s,7.60 VRx,0.003 km,6 m,34.2 °,1:-- (  0.0 km/h)*E8
$SMGPS2,-0.19 X,-0.06 Y,+0.96 Z,26 ENL,0 us*7E
$GNRMC,154740.20,A,4816.48458,N,01139.86563,E,0.70,,080522,,,A*5F
$GNGGA,154740.20,4816.48458,N,01139.86563,E,1,12,0.64,484.4,M,46.2,M,,*44
$GNGSA,A,3,01,08,21,10,27,32,23,22,16,14,,,1.08,0.64,0.87*14
$GNVTG,,T,,M,0.703,N,1.302,K,A*39
$SMGPS,-0.0 m,+0.02 m/s,7.56 VRx,0.003 km,6 m,35.3 °,1:-- (  0.0 km/h)*C6
$SMGPS2,-0.22 X,-0.09 Y,+0.96 Z,69 ENL,0 us*72
$GNRMC,154740.30,A,4816.48458,N,01139.86569,E,0.58,,080522,,,A*5E
$GNGGA,154740.30,4816.48458,N,01139.86569,E,1,12,0.64,484.4,M,46.2,M,,*4F
$GNGSA,A,3,01,08,21,10,27,32,23,22,16,14,,,1.08,0.64,0.87*14
$GNVTG,,T,,M,0.584,N,1.081,K,A*3C
$SMGPS,-0.0 m,+0.01 m/s,7.60 VRx,0.003 km,6 m,36.3 °,1:-- (  0.0 km/h)*C3
$SMGPS2,-0.16 X,-0.26 Y,+1.04 Z,420 ENL,0 us*4B
$GNRMC,154740.40,A,4816.48455,N,01139.86576,E,1.01,,080522,,,A*57
$GNGGA,154740.40,4816.48455,N,01139.86576,E,1,12,0.61,484.3,M,46.2,M,,*49
$GNGSA,A,3,01,08,21,10,27,32,23,22,16,14,,,1.04,0.61,0.85*1F
$GNVTG,,T,,M,1.009,N,1.869,K,A*33
$SMGPS,-0.1 m,-0.01 m/s,7.56 VRx,0.003 km,6 m,37.3 °,1:-- (  0.0 km/h)*C0
$SMGPS2,-0.45 X,-0.28 Y,+1.09 Z,49 ENL,0 us*75
$GNRMC,154740.50,A,4816.48445,N,01139.86583,E,1.26,,080522,,,A*58
$GNGGA,154740.50,4816.48445,N,01139.86583,E,1,12,0.61,484.4,M,46.2,M,,*44
$GNGSA,A,3,01,08,21,10,27,32,23,22,16,14,,,1.04,0.61,0.85*1F
$GNVTG,,T,,M,1.263,N,2.339,K,A*30
$SMGPS,-0.0 m,-0.01 m/s,7.60 VRx,0.003 km,6 m,37.3 °,1:-- (  0.0 km/h)*C4
$SMGPS2,-0.52 X,-0.49 Y,+1.17 Z,0 ENL,0 us*46
$GNRMC,154740.60,A,4816.48431,N,01139.86585,E,1.70,193.24,080522,,,A*4E
$GNGGA,154740.60,4816.48431,N,01139.86585,E,1,12,0.61,484.4,M,46.2,M,,*42
$GNGSA,A,3,01,08,21,10,27,32,23,22,16,14,,,1.04,0.61,0.85*1F
$GNVTG,193.24,T,,M,1.697,N,3.143,K,A*22
$SMGPS,0.0 m,-0.00 m/s,7.57 VRx,0.003 km,6 m,38.3 °,1:-- (  0.0 km/h)*E3
$SMGPS2,-0.42 X,-0.63 Y,+1.13 Z,1 ENL,0 us*4A
$GNRMC,154740.70,A,4816.48419,N,01139.86597,E,3.26,171.08,080522,,,A*45
$GNGGA,154740.70,4816.48419,N,01139.86597,E,1,12,0.61,484.6,M,46.2,M,,*48
$GNGSA,A,3,01,08,21,10,27,32,23,22,16,14,,,1.04,0.61,0.85*1F
$GNVTG,171.08,T,,M,3.261,N,6.038,K,A*27
$SMGPS,0.2 m,+0.02 m/s,7.59 VRx,0.003 km,6 m,38.3 °,1:-- (  0.0 km/h)*EB
$SMGPS2,-0.41 X,-0.58 Y,+0.91 Z,1 ENL,0 us*4A
$GNRMC,154740.80,A,4816.48406,N,01139.86607,E,2.81,170.76,080522,,,A*4A
$GNGGA,154740.80,4816.48406,N,01139.86607,E,1,12,0.61,484.6,M,46.2,M,,*43
$GNGSA,A,3,01,08,21,10,27,32,23,22,16,14,,,1.04,0.61,0.85*1F
$GNVTG,170.76,T,,M,2.809,N,5.203,K,A*23
$SMGPS,0.2 m,+0.06 m/s,7.57 VRx,0.004 km,7 m,39.3 °,1:-- (  0.0 km/h)*E6
$SMGPS2,-0.36 X,-0.36 Y,+0.92 Z,29 ENL,0 us*7B
$GNRMC,154740.90,A,4816.48391,N,01139.86617,E,3.36,166.57,080522,,,A*4A
$GNGGA,154740.90,4816.48391,N,01139.86617,E,1,12,0.61,484.6,M,46.2,M,,*4A
$GNGSA,A,3,01,08,21,10,27,32,23,22,16,14,,,1.04,0.61,0.85*1F
$GNVTG,166.57,T,,M,3.354,N,6.212,K,A*26
$SMGPS,0.2 m,+0.10 m/s,7.59 VRx,0.004 km,6 m,45.4 °,1:-- (  0.0 km/h)*E2
$SMGPS2,-0.17 X,+0.25 Y,+0.66 Z,10 ENL,0 us*7D
$GNRMC,154741.00,A,4816.48388,N,01139.86631,E,1.93,164.00,080522,,,A*43
$GNGGA,154741.00,4816.48388,N,01139.86631,E,1,12,0.61,484.5,M,46.2,M,,*4D
$GNGSA,A,3,01,08,21,10,27,32,23,22,16,14,,,1.04,0.61,0.85*1F
$GNVTG,164.00,T,,M,1.918,N,3.552,K,A*20
$SMGPS,0.1 m,+0.13 m/s,7.57 VRx,0.005 km,6 m,46.8 °,1:-- (  0.0 km/h)*E2
$SMGPS2,-0.65 X,-0.42 Y,+0.28 Z,133 ENL,0 us*45
$GNRMC,154741.10,A,4816.48384,N,01139.86650,E,2.52,178.94,080522,,,A*47
$GNGGA,154741.10,4816.48384,N,01139.86650,E,1,12,0.61,484.6,M,46.2,M,,*44
$GNGSA,A,3,01,08,21,10,27,32,23,22,16,14,,,1.04,0.61,0.85*1F
$GNVTG,178.94,T,,M,2.504,N,4.637,K,A*25
$SMGPS,0.2 m,+0.17 m/s,7.58 VRx,0.005 km,6 m,47.7 °,1:-- (  0.0 km/h)*E4
$SMGPS2,-0.59 X,-0.08 Y,+0.52 Z,23 ENL,0 us*79
$GNRMC,154741.20,A,4816.48381,N,01139.86662,E,2.12,182.52,080522,,,A*4B
$GNGGA,154741.20,4816.48381,N,01139.86662,E,1,12,0.61,484.6,M,46.2,M,,*43
$GNGSA,A,3,01,08,21,10,27,32,23,22,16,14,,,1.04,0.61,0.85*1F
$GNVTG,182.52,T,,M,2.081,N,3.855,K,A*2F
$SMGPS,0.2 m,+0.22 m/s,7.57 VRx,0.005 km,6 m,48.5 °,1:-- (  0.0 km/h)*E0
$SMGPS2,-0.53 X,-0.25 Y,+0.59 Z,1 ENL,0 us*47
$GNRMC,154741.30,A,4816.48367,N,01139.86662,E,2.24,187.86,080522,,,A*4B
$GNGGA,154741.30,4816.48367,N,01139.86662,E,1,12,0.61,484.5,M,46.2,M,,*49
$GNGSA,A,3,01,08,21,10,27,32,23,22,16,14,,,1.04,0.61,0.85*1F
$GNVTG,187.86,T,,M,2.191,N,4.057,K,A*2E
$SMGPS,0.1 m,+0.23 m/s,7.59 VRx,0.005 km,7 m,49.4 °,1:-- (  0.0 km/h)*ED
$SMGPS2,-0.68 X,-0.20 Y,+0.69 Z,0 ENL,0 us*48
$GNRMC,154741.40,A,4816.48348,N,01139.86660,E,2.91,196.69,080522,,,A*4C
$GNGGA,154741.40,4816.48348,N,01139.86660,E,1,12,0.61,484.5,M,46.2,M,,*41
$GNGSA,A,3,01,08,21,10,27,32,23,22,16,14,,,1.04,0.61,0.85*1F
$GNVTG,196.69,T,,M,2.879,N,5.333,K,A*20
$SMGPS,0.1 m,+0.22 m/s,7.56 VRx,0.005 km,7 m,49.4 °,1:-- (  0.0 km/h)*E3
$SMGPS2,-0.75 X,-0.02 Y,+0.95 Z,1 ENL,0 us*46
$GNRMC,154741.50,A,4816.48330,N,01139.86664,E,2.94,201.46,080522,,,A*43
$GNGGA,154741.50,4816.48330,N,01139.86664,E,1,12,0.61,484.6,M,46.2,M,,*48
$GNGSA,A,3,01,08,21,10,27,32,23,22,16,14,,,1.04,0.61,0.85*1F
$GNVTG,201.46,T,,M,2.909,N,5.388,K,A*26
$SMGPS,0.2 m,+0.21 m/s,7.58 VRx,0.006 km,6 m,55.5 °,1:-- (  0.0 km/h)*E3
$SMGPS2,-0.68 X,+0.23 Y,+1.14 Z,2 ENL,0 us*44
$GNRMC,154741.60,A,4816.48316,N,01139.86668,E,3.06,203.00,080522,,,A*42
$GNGGA,154741.60,4816.48316,N,01139.86668,E,1,12,0.61,484.6,M,46.2,M,,*43
$GNGSA,A,3,01,08,21,10,27,32,23,22,16,14,,,1.04,0.61,0.85*1F
$GNVTG,203.00,T,,M,3.030,N,5.611,K,A*21
$SMGPS,0.2 m,+0.20 m/s,7.56 VRx,0.006 km,6 m,56.3 °,1:-- (  0.0 km/h)*E9
$SMGPS2,-0.44 X,+0.49 Y,+1.02 Z,8 ENL,0 us*4B
$GNRMC,154741.70,A,4816.48303,N,01139.86668,E,2.13,195.18,080522,,,A*47
$GNGGA,154741.70,4816.48303,N,01139.86668,E,1,12,0.61,484.7,M,46.2,M,,*47
$GNGSA,A,3,01,08,21,10,27,32,23,22,16,14,,,1.04,0.61,0.85*1F
$GNVTG,195.18,T,,M,2.094,N,3.878,K,A*2C
$SMGPS,0.3 m,+0.22 m/s,7.60 VRx,0.006 km,6 m,56.3 °,1:-- (  0.0 km/h)*EF
$SMGPS2,-0.24 X,+0.34 Y,+0.54 Z,1 ENL,0 us*4C
$GNRMC,154741.80,A,4816.48295,N,01139.86671,E,2.56,169.03,080522,,,A*46
$GNGGA,154741.80,4816.48295,N,01139.86671,E,1,12,0.61,484.7,M,46.2,M,,*4E
$GNGSA,A,3,01,08,21,10,27,32,23,22,16,14,,,1.04,0.61,0.85*1F
$GNVTG,169.03,T,,M,2.527,N,4.681,K,A*27
$SMGPS,0.3 m,+0.22 m/s,7.56 VRx,0.007 km,6 m,63.4 °,1:-- (  0.0 km/h)*EA
$SMGPS2,-0.47 X,+0.25 Y,+0.65 Z,0 ENL,0 us*4A
$GNRMC,154741.90,A,4816.48293,N,01139.86680,E,2.05,161.21,080522,,,A*41
$GNGGA,154741.90,4816.48293,N,01139.86680,E,1,12,0.61,484.7,M,46.2,M,,*47
$GNGSA,A,3,01,08,21,10,27,32,23,22,16,14,,,1.04,0.61,0.85*1F
$GNVTG,161.21,T,,M,2.014,N,3.730,K,A*26
$SMGPS,0.3 m,+0.22 m/s,7.57 VRx,0.007 km,6 m,63.4 °,1:-- (  0.0 km/h)*EB
$SMGPS2,-0.55 X,+0.08 Y,+0.91 Z,35 ENL,0 us*7B
$GNRMC,154742.00,A,4816.48292,N,01139.86689,E,2.14,163.46,080522,,,A*40
$GNGGA,154742.00,4816.48292,N,01139.86689,E,1,12,0.61,484.7,M,46.2,M,,*45
$GNGSA,A,3,01,08,21,10,27,32,23,22,16,14,,,1.04,0.61,0.85*1F
$GNVTG,163.46,T,,M,2.108,N,3.905,K,A*21
$SMGPS,0.3 m,+0.22 m/s,7.54 VRx,0.007 km,6 m,64.0 °,1:-- (  0.0 km/h)*EB
$SMGPS2,-0.38 X,+0.14 Y,+0.77 Z,2 ENL,0 us*41
$GNRMC,154742.10,A,4816.48286,N,01139.86696,E,2.34,162.48,080522,,,A*47
$GNGGA,154742.10,4816.48286,N,01139.86696,E,1,12,0.61,484.7,M,46.2,M,,*4F
$GNGSA,A,3,01,08,21,10,27,32,23,22,16,14,,,1.04,0.61,0.85*1F
$GNVTG,162.48,T,,M,2.309,N,4.277,K,A*24
$SMGPS,0.3 m,+0.23 m/s,7.56 VRx,0.007 km,6 m,64.6 °,1:-- (  0.0 km/h)*EE
$SMGPS2,-0.40 X,+0.15 Y,+0.82 Z,1 ENL,0 us*46
$GNRMC,154742.20,A,4816.48279,N,01139.86701,E,2.69,167.60,080522,,,A*4C
$GNGGA,154742.20,4816.48279,N,01139.86701,E,1,12,0.61,484.8,M,46.2,M,,*4C
$GNGSA,A,3,01,08,21,10,27,32,23,22,16,14,,,1.04,0.61,0.85*1F
$GNVTG,167.60,T,,M,2.659,N,4.925,K,A*27
$SMGPS,0.4 m,+0.23 m/s,7.56 VRx,0.007 km,6 m,64.6 °,1:-- (  0.0 km/h)*E9
$SMGPS2,-0.72 X,+0.25 Y,+0.81 Z,1 ENL,0 us*47
$GNRMC,154742.30,A,4816.48268,N,01139.86707,E,2.75,166.66,080522,,,A*41
$GNGGA,154742.30,4816.48268,N,01139.86707,E,1,12,0.61,484.8,M,46.2,M,,*4B
$GNGSA,A,3,01,08,21,10,27,32,23,22,16,14,,,1.04,0.61,0.85*1F
$GNVTG,166.66,T,,M,2.720,N,5.037,K,A*24
$SMGPS,0.4 m,+0.23 m/s,7.60 VRx,0.007 km,6 m,65.2 °,1:-- (  0.0 km/h)*E9
$SMGPS2,-0.60 X,+0.27 Y,+0.85 Z,1 ENL,0 us*42
$GNRMC,154742.40,A,4816.48259,N,01139.86710,E,2.26,176.63,080522,,,A*40
$GNGGA,154742.40,4816.48259,N,01139.86710,E,1,12,0.61,484.9,M,46.2,M,,*49
$GNGSA,A,3,01,08,21,10,27,32,23,22,16,14,,,1.04,0.61,0.85*1F
$GNVTG,176.63,T,,M,2.230,N,4.130,K,A*23
$SMGPS,0.5 m,+0.21 m/s,7.56 VRx,0.007 km,6 m,65.2 °,1:-- (  0.0 km/h)*EF
$SMGPS2,-0.15 X,+0.42 Y,+0.77 Z,33 ENL,0 us*7F
$GNRMC,154742.50,A,4816.48254,N,01139.86715,E,2.40,179.07,080522,,,A*44
$GNGGA,154742.50,4816.48254,N,01139.86715,E,1,12,0.61,484.8,M,46.2,M,,*41
$GNGSA,A,3,01,08,21,10,27,32,23,22,16,14,,,1.04,0.61,0.85*1F
$GNVTG,179.07,T,,M,2.379,N,4.407,K,A*23
$SMGPS,0.4 m,+0.20 m/s,7.56 VRx,0.008 km,6 m,72.9 °,1:-- (  0.0 km/h)*ED
$SMGPS2,-0.03 X,+0.38 Y,+0.67 Z,2 ENL,0 us*46
$GNRMC,154742.60,A,4816.48247,N,01139.86719,E,2.74,172.66,080522,,,A*42
$GNGGA,154742.60,4816.48247,N,01139.86719,E,1,12,0.61,484.8,M,46.2,M,,*4C
$GNGSA,A,3,01,08,21,10,27,32,23,22,16,14,,,1.04,0.61,0.85*1F
$GNVTG,172.66,T,,M,2.717,N,5.032,K,A*20
$SMGPS,0.4 m,+0.20 m/s,7.55 VRx,0.008 km,6 m,73.5 °,1:-- (  0.0 km/h)*E3
$SMGPS2,-0.12 X,+0.35 Y,+0.79 Z,4 ENL,0 us*42
$GNRMC,154742.70,A,4816.48237,N,01139.86725,E,3.12,172.06,080522,,,A*4C
$GNGGA,154742.70,4816.48237,N,01139.86725,E,1,12,0.61,484.8,M,46.2,M,,*45
$GNGSA,A,3,01,08,21,10,27,32,23,22,16,14,,,1.04,0.61,0.85*1F
$GNVTG,172.06,T,,M,3.102,N,5.744,K,A*23
$SMGPS,0.4 m,+0.19 m/s,7.59 VRx,0.008 km,6 m,73.5 °,1:-- (  0.0 km/h)*E5
$SMGPS2,-0.19 X,+0.85 Y,+0.56 Z,0 ENL,0 us*4B
$GNRMC,154742.80,A,4816.48229,N,01139.86731,E,2.70,168.87,080522,,,A*4E
$GNGGA,154742.80,4816.48229,N,01139.86731,E,1,12,0.61,484.8,M,46.2,M,,*40
$GNGSA,A,3,01,08,21,10,27,32,23,22,16,14,,,1.04,0.61,0.85*1F
$GNVTG,168.87,T,,M,2.679,N,4.962,K,A*20
$SMGPS,0.4 m,+0.17 m/s,7.57 VRx,0.008 km,6 m,73.8 °,1:-- (  0.0 km/h)*E8
$SMGPS2,-0.18 X,+0.74 Y,+0.73 Z,15 ENL,0 us*77
$GNRMC,154742.90,A,4816.48219,N,01139.86737,E,1.98,169.38,080522,,,A*4A
$GNGGA,154742.90,4816.48219,N,01139.86737,E,1,12,0.61,484.7,M,46.2,M,,*4B
$GNGSA,A,3,01,08,21,10,27,32,23,22,16,14,,,1.04,0.61,0.85*1F
$GNVTG,169.38,T,,M,1.960,N,3.630,K,A*2E
$SMGPS,0.3 m,+0.15 m/s,7.59 VRx,0.008 km,6 m,73.8 °,1:-- (  0.0 km/h)*E3
$SMGPS2,-0.17 X,+0.84 Y,+0.58 Z,1 ENL,0 us*4B
$GNRMC,154743.00,A,4816.48205,N,01139.86740,E,2.57,164.23,080522,,,A*48
$GNGGA,154743.00,4816.48205,N,01139.86740,E,1,12,0.61,484.6,M,46.2,M,,*4F
$GNGSA,A,3,01,08,21,10,27,32,23,22,16,14,,,1.04,0.61,0.85*1F
$GNVTG,164.23,T,,M,2.556,N,4.733,K,A*26
$SMGPS,0.2 m,+0.12 m/s,7.54 VRx,0.008 km,6 m,73.8 °,1:-- (  0.0 km/h)*E8
$SMGPS2,-0.13 X,+0.78 Y,+0.59 Z,99 ENL,0 us*7C
$GNRMC,154743.10,A,4816.48194,N,01139.86741,E,1.74,162.44,080522,,,A*46
$GNGGA,154743.10,4816.48194,N,01139.86741,E,1,12,0.61,484.7,M,46.2,M,,*45
$GNGSA,A,3,01,08,21,10,27,32,23,22,16,14,,,1.04,0.61,0.85*1F
$GNVTG,162.44,T,,M,1.726,N,3.197,K,A*28
$SMGPS,0.3 m,+0.09 m/s,7.58 VRx,0.009 km,6 m,82.0 °,1:-- (  0.0 km/h)*E8
$SMGPS2,-0.09 X,+0.87 Y,+0.64 Z,69 ENL,0 us*76
$GNRMC,154743.20,A,4816.48185,N,01139.86747,E,1.76,159.39,080522,,,A*43
$GNGGA,154743.20,4816.48185,N,01139.86747,E,1,12,0.61,484.8,M,46.2,M,,*4F
$GNGSA,A,3,01,08,21,10,27,32,23,22,16,14,,,1.04,0.61,0.85*1F
$GNVTG,159.39,T,,M,1.750,N,3.241,K,A*23
$SMGPS,0.4 m,+0.07 m/s,7.55 VRx,0.009 km,6 m,82.0 °,1:-- (  0.0 km/h)*EC
$SMGPS2,-0.06 X,+0.78 Y,+0.72 Z,22 ENL,0 us*71
$GNRMC,154743.30,A,4816.48178,N,01139.86754,E,1.89,152.59,080522,,,A*4F
$GNGGA,154743.30,4816.48178,N,01139.86754,E,1,12,0.61,484.6,M,46.2,M,,*40
$GNGSA,A,3,01,08,21,10,27,32,23,22,16,14,,,1.04,0.61,0.85*1F
$GNVTG,152.59,T,,M,1.886,N,3.494,K,A*24
$SMGPS,0.2 m,+0.05 m/s,7.57 VRx,0.009 km,6 m,82.0 °,1:-- (  0.0 km/h)*EA
$SMGPS2,-0.12 X,+0.63 Y,+0.70 Z,117 ENL,0 us*4B
$GNRMC,154743.40,A,4816.48171,N,01139.86763,E,1.40,158.27,080522,,,A*43
$GNGGA,154743.40,4816.48171,N,01139.86763,E,1,12,0.61,484.6,M,46.2,M,,*4A
$GNGSA,A,3,01,08,21,10,27,32,23,22,16,14,,,1.04,0.61,0.85*1F
$GNVTG,158.27,T,,M,1.397,N,2.588,K,A*21
$SMGPS,0.2 m,+0.02 m/s,7.57 VRx,0.009 km,6 m,82.1 °,1:-- (  0.0 km/h)*EC
$SMGPS2,-0.12 X,+0.55 Y,+0.69 Z,113 ENL,0 us*42
$GNRMC,154743.50,A,4816.48163,N,01139.86767,E,1.47,157.18,080522,,,A*41
$GNGGA,154743.50,4816.48163,N,01139.86767,E,1,12,0.61,484.6,M,46.2,M,,*4C
$GNGSA,A,3,01,08,21,10,27,32,23,22,16,14,,,1.04,0.61,0.85*1F
$GNVTG,157.18,T,,M,1.470,N,2.723,K,A*2F
$SMGPS,0.2 m,-0.00 m/s,7.56 VRx,0.010 km,6 m,82.3 °,1:-- (  0.0 km/h)*E3
$SMGPS2,-0.18 X,+0.56 Y,+0.77 Z,63 ENL,0 us*72
$GNRMC,154743.60,A,4816.48156,N,01139.86773,E,1.58,156.99,080522,,,A*47
$GNGGA,154743.60,4816.48156,N,01139.86773,E,1,12,0.61,484.7,M,46.2,M,,*4D
$GNGSA,A,3,01,08,21,10,27,32,23,22,16,14,,,1.04,0.61,0.85*1F
$GNVTG,156.99,T,,M,1.583,N,2.931,K,A*27
$SMGPS,0.3 m,+0.00 m/s,7.55 VRx,0.010 km,6 m,90.0 °,1:-- (  0.0 km/h)*E7
$SMGPS2,-0.19 X,+0.56 Y,+0.83 Z,69 ENL,0 us*72
$GNRMC,154743.70,A,4816.48149,N,01139.86775,E,1.30,161.83,080522,,,A*4F
$GNGGA,154743.70,4816.48149,N,01139.86775,E,1,12,0.61,484.6,M,46.2,M,,*45
$GNGSA,A,3,01,08,21,10,27,32,23,22,16,14,,,1.04,0.61,0.85*1F
$GNVTG,161.83,T,,M,1.295,N,2.398,K,A*21
$SMGPS,0.2 m,+0.00 m/s,7.57 VRx,0.010 km,6 m,90.0 °,1:-- (  0.0 km/h)*E4
$SMGPS2,-0.23 X,+0.53 Y,+0.84 Z,47 ENL,0 us*75
$GNRMC,154743.80,A,4816.48141,N,01139.86775,E,1.59,171.53,080522,,,A*4B
$GNGGA,154743.80,4816.48141,N,01139.86775,E,1,12,0.61,484.6,M,46.2,M,,*42
$GNGSA,A,3,01,08,21,10,27,32,23,22,16,14,,,1.04,0.61,0.85*1F
$GNVTG,171.53,T,,M,1.586,N,2.936,K,A*26
$SMGPS,0.2 m,-0.01 m/s,7.55 VRx,0.011 km,6 m,90.0 °,1:-- (  0.0 km/h)*E0
$SMGPS2,-0.19 X,+0.66 Y,+0.94 Z,53 ENL,0 us*7E
$GNRMC,154743.90,A,4816.48134,N,01139.86778,E,1.47,176.05,080522,,,A*4E
$GNGGA,154743.90,4816.48134,N,01139.86778,E,1,12,0.61,484.7,M,46.2,M,,*4D
$GNGSA,A,3,01,08,21,10,27,32,23,22,16,14,,,1.04,0.61,0.85*1F
$GNVTG,176.05,T,,M,1.473,N,2.727,K,A*27
$SMGPS,0.3 m,-0.02 m/s,7.58 VRx,0.011 km,6 m,90.0 °,1:-- (  0.0 km/h)*EF
$SMGPS2,-0.16 X,+0.62 Y,+0.79 Z,33 ENL,0 us*70
$GNRMC,154744.00,A,4816.48128,N,01139.86781,E,1.42,172.86,080522,,,A*41
$GNGGA,154744.00,4816.48128,N,01139.86781,E,1,12,0.61,484.7,M,46.2,M,,*48
$GNGSA,A,3,01,08,21,10,27,32,23,22,16,14,,,1.04,0.61,0.85*1F
$GNVTG,172.86,T,,M,1.421,N,2.631,K,A*29
$SMGPS,0.3 m,-0.02 m/s,7.54 VRx,0.011 km,6 m,90.0 °,1:-- (  0.0 km/h)*E3
$SMGPS2,-0.14 X,+0.60 Y,+0.79 Z,60 ENL,0 us*76
$GNRMC,154744.10,A,4816.48124,N,01139.86786,E,1.16,170.85,080522,,,A*4B
$GNGGA,154744.10,4816.48124,N,01139.86786,E,1,12,0.61,484.7,M,46.2,M,,*42
$GNGSA,A,3,01,08,21,10,27,32,23,22,16,14,,,1.04,0.61,0.85*1F
$GNVTG,170.85,T,,M,1.156,N,2.141,K,A*2D
$SMGPS,0.3 m,-0.01 m/s,7.56 VRx,0.011 km,6 m,90.0 °,1:-- (  0.0 km/h)*E2
$SMGPS2,-0.15 X,+0.54 Y,+0.79 Z,213 ENL,0 us*46
$GNRMC,154744.20,A,4816.48120,N,01139.86791,E,1.39,170.37,080522,,,A*4E
$GNGGA,154744.20,4816.48120,N,01139.86791,E,1,12,0.61,484.5,M,46.2,M,,*41
$GNGSA,A,3,01,08,21,10,27,32,23,22,16,14,,,1.04,0.61,0.85*1F
$GNVTG,170.37,T,,M,1.386,N,2.567,K,A*2B
$SMGPS,0.1 m,-0.01 m/s,7.54 VRx,0.011 km,7 m,90.0 °,1:-- (  0.0 km/h)*E3
$SMGPS2,-0.11 X,+0.51 Y,+0.79 Z,174 ENL,0 us*45
$GNRMC,154744.30,A,4816.48118,N,01139.86798,E,0.96,166.99,080522,,,A*4A
$GNGGA,154744.30,4816.48118,N,01139.86798,E,1,12,0.61,484.5,M,46.2,M,,*42
$GNGSA,A,3,01,08,21,10,27,32,23,22,16,14,,,1.04,0.61,0.85*1F
$GNVTG,166.99,T,,M,0.959,N,1.776,K,A*20
$SMGPS,0.1 m,-0.02 m/s,7.57 VRx,0.012 km,7 m,101.0 °,1:-- (  0.0 km/h)*D9
$SMGPS2,-0.08 X,+0.46 Y,+0.82 Z,305 ENL,0 us*4B
$GNRMC,154744.40,A,4816.48117,N,01139.86803,E,1.15,160.08,080522,,,A*4B
$GNGGA,154744.40,4816.48117,N,01139.86803,E,1,12,0.61,484.5,M,46.2,M,,*47
$GNGSA,A,3,01,08,21,10,27,32,23,22,16,14,,,1.04,0.61,0.85*1F
$GNVTG,160.08,T,,M,1.153,N,2.135,K,A*2F
$SMGPS,0.1 m,-0.01 m/s,7.55 VRx,0.012 km,7 m,101.0 °,1:-- (  0.0 km/h)*D8
$SMGPS2,-0.09 X,+0.43 Y,+0.87 Z,197 ENL,0 us*43
$GNRMC,154744.50,A,4816.48116,N,01139.86807,E,1.44,157.96,080522,,,A*48
$GNGGA,154744.50,4816.48116,N,01139.86807,E,1,12,0.61,484.5,M,46.2,M,,*43
$GNGSA,A,3,01,08,21,10,27,32,23,22,16,14,,,1.04,0.61,0.85*1F
$GNVTG,157.96,T,,M,1.436,N,2.659,K,A*27
$SMGPS,0.1 m,-0.01 m/s,7.57 VRx,0.012 km,7 m,100.6 °,1:-- (  0.0 km/h)*DD
$SMGPS2,-0.17 X,+0.55 Y,+0.89 Z,147 ENL,0 us*48
$GNRMC,154744.60,A,4816.48114,N,01139.86810,E,1.25,156.13,080522,,,A*44
$GNGGA,154744.60,4816.48114,N,01139.86810,E,1,12,0.61,484.5,M,46.2,M,,*44
$GNGSA,A,3,01,08,21,10,27,32,23,22,16,14,,,1.04,0.61,0.85*1F
$GNVTG,156.13,T,,M,1.246,N,2.307,K,A*24
$SMGPS,0.1 m,-0.00 m/s,7.55 VRx,0.012 km,7 m,100.6 °,1:-- (  0.0 km/h)*DE
$SMGPS2,-0.18 X,+0.56 Y,+0.91 Z,484 ENL,0 us*47
$GNRMC,154744.70,A,4816.48113,N,01139.86814,E,1.26,150.70,080522,,,A*46
$GNGGA,154744.70,4816.48113,N,01139.86814,E,1,12,0.61,484.5,M,46.2,M,,*46
$GNGSA,A,3,01,08,21,10,27,32,23,22,16,14,,,1.04,0.61,0.85*1F
$GNVTG,150.70,T,,M,1.263,N,2.339,K,A*2D
$SMGPS,0.1 m,+0.00 m/s,7.58 VRx,0.012 km,7 m,100.6 °,1:-- (  0.0 km/h)*D5
$SMGPS2,-0.19 X,+0.58 Y,+0.79 Z,86 ENL,0 us*78
$GNRMC,154744.80,A,4816.48111,N,01139.86817,E,0.84,156.14,080522,,,A*45
$GNGGA,154744.80,4816.48111,N,01139.86817,E,1,12,0.61,484.5,M,46.2,M,,*48
$GNGSA,A,3,01,08,21,10,27,32,23,22,16,14,,,1.04,0.61,0.85*1F
$GNVTG,156.14,T,,M,0.841,N,1.558,K,A*20
$SMGPS,0.1 m,+0.00 m/s,7.57 VRx,0.012 km,7 m,100.4 °,1:-- (  0.0 km/h)*D8
$SMGPS2,-0.11 X,+0.40 Y,+0.73 Z,1 ENL,0 us*4C
$GNRMC,154744.90,A,4816.48109,N,01139.86820,E,1.12,157.79,080522,,,A*4D
$GNGGA,154744.90,4816.48109,N,01139.86820,E,1,12,0.61,484.4,M,46.2,M,,*45
$GNGSA,A,3,01,08,21,10,27,32,23,22,16,14,,,1.04,0.61,0.85*1F
$GNVTG,157.79,T,,M,1.121,N,2.075,K,A*2D
$SMGPS,0.0 m,+0.01 m/s,7.58 VRx,0.012 km,7 m,100.4 °,1:-- (  0.0 km/h)*D7
$SMGPS2,-0.16 X,+0.53 Y,+0.77 Z,0 ENL,0 us*4C
$GNRMC,154745.00,A,4816.48106,N,01139.86824,E,1.31,155.76,080522,,,A*42
$GNGGA,154745.00,4816.48106,N,01139.86824,E,1,12,0.61,484.4,M,46.2,M,,*46
$GNGSA,A,3,01,08,21,10,27,32,23,22,16,14,,,1.04,0.61,0.85*1F
$GNVTG,155.76,T,,M,1.310,N,2.425,K,A*21
$SMGPS,-0.0 m,+0.01 m/s,7.57 VRx,0.012 km,7 m,100.4 °,1:-- (  0.0 km/h)*F5
$SMGPS2,-0.18 X,+0.57 Y,+0.75 Z,0 ENL,0 us*44
$GNRMC,154745.10,A,4816.48102,N,01139.86826,E,1.15,162.98,080522,,,A*47
$GNGGA,154745.10,4816.48102,N,01139.86826,E,1,12,0.61,484.4,M,46.2,M,,*41
$GNGSA,A,3,01,08,21,10,27,32,23,22,16,14,,,1.04,0.61,0.85*1F
$GNVTG,162.98,T,,M,1.145,N,2.121,K,A*26
$SMGPS,0.0 m,+0.01 m/s,7.58 VRx,0.013 km,7 m,100.2 °,1:-- (  0.0 km/h)*D0
$SMGPS2,-0.19 X,+0.59 Y,+0.77 Z,1 ENL,0 us*48
$GNRMC,154745.20,A,4816.48100,N,01139.86828,E,0.82,,080522,,,A*5D
$GNGGA,154745.20,4816.48100,N,01139.86828,E,1,12,0.61,484.5,M,46.2,M,,*4F
$GNGSA,A,3,01,08,21,10,27,32,23,22,16,14,,,1.04,0.61,0.85*1F
$GNVTG,,T,,M,0.823,N,1.524,K,A*36
$SMGPS,0.1 m,+0.02 m/s,7.56 VRx,0.013 km,7 m,100.2 °,1:-- (  0.0 km/h)*DC
$SMGPS2,-0.23 X,+0.52 Y,+0.83 Z,10 ENL,0 us*71
$GNRMC,154745.30,A,4816.48097,N,01139.86830,E,1.08,160.21,080522,,,A*43
$GNGGA,154745.30,4816.48097,N,01139.86830,E,1,12,0.61,484.5,M,46.2,M,,*48
$GNGSA,A,3,01,08,21,10,27,32,23,22,16,14,,,1.04,0.61,0.85*1F
$GNVTG,160.21,T,,M,1.084,N,2.007,K,A*2F
$SMGPS,0.1 m,+0.03 m/s,7.59 VRx,0.013 km,7 m,100.2 °,1:-- (  0.0 km/h)*D2
$SMGPS2,-0.27 X,+0.56 Y,+0.87 Z,128 ENL,0 us*4F
$GNRMC,154745.40,A,4816.48093,N,01139.86832,E,1.14,160.27,080522,,,A*49
$GNGGA,154745.40,4816.48093,N,01139.86832,E,1,12,0.61,484.5,M,46.2,M,,*49
$GNGSA,A,3,01,08,21,10,27,32,23,22,16,14,,,1.04,0.61,0.85*1F
$GNVTG,160.27,T,,M,1.134,N,2.099,K,A*24
$SMGPS,0.1 m,+0.03 m/s,7.54 VRx,0.013 km,7 m,100.2 °,1:-- (  0.0 km/h)*DF
$SMGPS2,-0.17 X,+0.53 Y,+0.81 Z,67 ENL,0 us*75
$GNRMC,154745.50,A,4816.48091,N,01139.86836,E,0.58,,080522,,,A*5B
$GNGGA,154745.50,4816.48091,N,01139.86836,E,1,12,0.61,484.5,M,46.2,M,,*4E
$GNGSA,A,3,01,08,21,10,27,32,23,22,16,14,,,1.04,0.61,0.85*1F
$GNVTG,,T,,M,0.580,N,1.074,K,A*32
$SMGPS,0.1 m,+0.05 m/s,7.59 VRx,0.013 km,7 m,100.2 °,1:-- (  0.0 km/h)*D4
$SMGPS2,-0.05 X,+0.43 Y,+0.84 Z,34 ENL,0 us*74
$GNRMC,154745.60,A,4816.48089,N,01139.86840,E,1.04,157.55,080522,,,A*45
$GNGGA,154745.60,4816.48089,N,01139.86840,E,1,12,0.61,484.5,M,46.2,M,,*45
$GNGSA,A,3,01,08,21,10,27,32,23,22,16,14,,,1.04,0.61,0.85*1F
$GNVTG,157.55,T,,M,1.038,N,1.922,K,A*22
$SMGPS,0.1 m,+0.07 m/s,7.54 VRx,0.013 km,7 m,100.0 °,1:-- (  0.0 km/h)*D9
$SMGPS2,-0.18 X,+0.41 Y,+0.76 Z,154 ENL,0 us*40
$GNRMC,154745.70,A,4816.48084,N,01139.86846,E,1.35,154.38,080522,,,A*45
$GNGGA,154745.70,4816.48084,N,01139.86846,E,1,12,0.61,484.4,M,46.2,M,,*4E
$GNGSA,A,3,01,08,21,10,27,32,23,22,16,14,,,1.04,0.61,0.85*1F
$GNVTG,154.38,T,,M,1.342,N,2.486,K,A*24
$SMGPS,-0.0 m,+0.08 m/s,7.57 VRx,0.013 km,7 m,100.0 °,1:-- (  0.0 km/h)*F9
$SMGPS2,-0.32 X,+0.47 Y,+0.70 Z,53 ENL,0 us*7E
$GNRMC,154745.80,A,4816.48081,N,01139.86851,E,0.75,,080522,,,A*59
$GNGGA,154745.80,4816.48081,N,01139.86851,E,1,12,0.61,484.4,M,46.2,M,,*42
$GNGSA,A,3,01,08,21,10,27,32,23,22,16,14,,,1.04,0.61,0.85*1F
$GNVTG,,T,,M,0.735,N,1.362,K,A*3A
$SMGPS,-0.0 m,+0.08 m/s,7.56 VRx,0.013 km,7 m,100.0 °,1:-- (  0.0 km/h)*F8
$SMGPS2,-0.35 X,+0.49 Y,+0.69 Z,6 ENL,0 us*4F
$GNRMC,154745.90,A,4816.48077,N,01139.86852,E,0.85,156.82,080522,,,A*4B
$GNGGA,154745.90,4816.48077,N,01139.86852,E,1,12,0.61,484.4,M,46.2,M,,*49
$GNGSA,A,3,01,08,21,10,27,32,23,22,16,14,,,1.04,0.61,0.85*1F
$GNVTG,156.82,T,,M,0.841,N,1.557,K,A*20
$SMGPS,-0.0 m,+0.07 m/s,7.56 VRx,0.013 km,7 m,99.8 °,1:-- (  0.0 km/h)*CE
$SMGPS2,-0.48 X,+0.66 Y,+0.71 Z,118 ENL,0 us*4F
$GNRMC,154746.00,A,4816.48073,N,01139.86852,E,0.85,148.40,080522,,,A*44
$GNGGA,154746.00,4816.48073,N,01139.86852,E,1,12,0.61,484.3,M,46.2,M,,*40
$GNGSA,A,3,01,08,21,10,27,32,23,22,16,14,,,1.04,0.61,0.85*1F
$GNVTG,148.40,T,,M,0.842,N,1.559,K,A*2C
$SMGPS,-0.1 m,+0.05 m/s,7.54 VRx,0.013 km,7 m,99.8 °,1:-- (  0.0 km/h)*CF
$SMGPS2,-0.45 X,+0.64 Y,+0.67 Z,273 ENL,0 us*49
$GNRMC,154746.10,A,4816.48069,N,01139.86853,E,0.73,,080522,,,A*51
$GNGGA,154746.10,4816.48069,N,01139.86853,E,1,12,0.61,484.4,M,46.2,M,,*4C
$GNGSA,A,3,01,08,21,10,27,32,23,22,16,14,,,1.04,0.61,0.85*1F
$GNVTG,,T,,M,0.731,N,1.354,K,A*3B
$SMGPS,0.0 m,+0.04 m/s,7.56 VRx,0.013 km,7 m,99.8 °,1:-- (  0.0 km/h)*E0
$SMGPS2,-0.38 X,+0.62 Y,+0.66 Z,87 ENL,0 us*7D
$GNRMC,154746.20,A,4816.48067,N,01139.86854,E,0.96,133.52,080522,,,A*48
$GNGGA,154746.20,4816.48067,N,01139.86854,E,1,12,0.61,484.4,M,46.2,M,,*46
$GNGSA,A,3,01,08,21,10,27,32,23,22,16,14,,,1.04,0.61,0.85*1F
$GNVTG,133.52,T,,M,0.958,N,1.773,K,A*23
$SMGPS,0.0 m,+0.02 m/s,7.55 VRx,0.013 km,8 m,106.1 °,1:-- (  0.0 km/h)*D4
$SMGPS2,-0.42 X,+0.58 Y,+0.71 Z,71 ENL,0 us*76
$GNRMC,154746.30,A,4816.48064,N,01139.86856,E,1.01,130.86,080522,,,A*4D
$GNGGA,154746.30,4816.48064,N,01139.86856,E,1,12,0.61,484.4,M,46.2,M,,*46
$GNGSA,A,3,01,08,21,10,27,32,23,22,16,14,,,1.04,0.61,0.85*1F
$GNVTG,130.86,T,,M,1.005,N,1.862,K,A*26
$SMGPS,-0.0 m,+0.01 m/s,7.55 VRx,0.013 km,8 m,106.1 °,1:-- (  0.0 km/h)*FA
$SMGPS2,-0.41 X,+0.54 Y,+0.75 Z,778 ENL,0 us*43
$GNRMC,154746.40,A,4816.48060,N,01139.86859,E,1.32,135.04,080522,,,A*4E
$GNGGA,154746.40,4816.48060,N,01139.86859,E,1,12,0.61,484.3,M,46.2,M,,*4D
$GNGSA,A,3,01,08,21,10,27,32,23,22,16,14,,,1.04,0.61,0.85*1F
$GNVTG,135.04,T,,M,1.315,N,2.435,K,A*26
$SMGPS,-0.1 m,-0.01 m/s,7.54 VRx,0.013 km,8 m,106.1 °,1:-- (  0.0 km/h)*FC
$SMGPS2,-0.41 X,+0.54 Y,+0.69 Z,81 ENL,0 us*7F
$GNRMC,154746.50,A,4816.48056,N,01139.86862,E,1.24,137.23,080522,,,A*42
$GNGGA,154746.50,4816.48056,N,01139.86862,E,1,12,0.61,484.4,M,46.2,M,,*46
$GNGSA,A,3,01,08,21,10,27,32,23,22,16,14,,,1.04,0.61,0.85*1F
$GNVTG,137.23,T,,M,1.235,N,2.288,K,A*22
$SMGPS,0.0 m,-0.02 m/s,7.57 VRx,0.013 km,8 m,106.1 °,1:-- (  0.0 km/h)*D0
$SMGPS2,-0.44 X,+0.61 Y,+0.57 Z,159 ENL,0 us*45
$GNRMC,154746.60,A,4816.48052,N,01139.86866,E,1.16,132.35,080522,,,A*42
$GNGGA,154746.60,4816.48052,N,01139.86866,E,1,12,0.61,484.4,M,46.2,M,,*45
$GNGSA,A,3,01,08,21,10,27,32,23,22,16,14,,,1.04,0.61,0.85*1F
$GNVTG,132.35,T,,M,1.155,N,2.139,K,A*2C
$SMGPS,-0.0 m,-0.02 m/s,7.55 VRx,0.013 km,8 m,105.8 °,1:-- (  0.0 km/h)*F5
$SMGPS2,-0.48 X,+0.64 Y,+0.56 Z,203 ENL,0 us*41
$GNRMC,154746.70,A,4816.48047,N,01139.86870,E,1.39,133.47,080522,,,A*49
$GNGGA,154746.70,4816.48047,N,01139.86870,E,1,12,0.61,484.4,M,46.2,M,,*47
$GNGSA,A,3,01,08,21,10,27,32,23,22,16,14,,,1.04,0.61,0.85*1F
$GNVTG,133.47,T,,M,1.387,N,2.569,K,A*24
$SMGPS,-0.0 m,-0.03 m/s,7.58 VRx,0.013 km,8 m,105.8 °,1:-- (  0.0 km/h)*F9
$SMGPS2,-0.58 X,+0.77 Y,+0.48 Z,14 ENL,0 us*79
$GNRMC,154746.80,A,4816.48043,N,01139.86875,E,0.87,,080522,,,A*5F
$GNGGA,154746.80,4816.48043,N,01139.86875,E,1,12,0.61,484.4,M,46.2,M,,*49
$GNGSA,A,3,01,08,21,10,27,32,23,22,16,14,,,1.04,0.61,0.85*1F
$GNVTG,,T,,M,0.868,N,1.608,K,A*34
$SMGPS,0.0 m,-0.04 m/s,7.56 VRx,0.013 km,8 m,105.8 °,1:-- (  0.0 km/h)*DD
$SMGPS2,-0.45 X,+0.68 Y,+0.47 Z,3 ENL,0 us*42
$GNRMC,154746.90,A,4816.48039,N,01139.86879,E,0.78,,080522,,,A*5F
$GNGGA,154746.90,4816.48039,N,01139.86879,E,1,12,0.61,484.4,M,46.2,M,,*49
$GNGSA,A,3,01,08,21,10,27,32,23,22,16,14,,,1.04,0.61,0.85*1F
$GNVTG,,T,,M,0.777,N,1.438,K,A*34
$SMGPS,-0.0 m,-0.04 m/s,7.60 VRx,0.013 km,8 m,105.5 °,1:-- (  0.0 km/h)*F8
$SMGPS2,-0.47 X,+0.79 Y,+0.49 Z,1 ENL,0 us*4C
$GNRMC,154747.00,A,4816.48035,N,01139.86883,E,1.05,137.01,080522,,,A*4F
$GNGGA,154747.00,4816.48035,N,01139.86883,E,1,12,0.61,484.4,M,46.2,M,,*48
$GNGSA,A,3,01,08,21,10,27,32,23,22,16,14,,,1.04,0.61,0.85*1F
$GNVTG,137.01,T,,M,1.045,N,1.935,K,A*29
$SMGPS,-0.0 m,-0.05 m/s,7.55 VRx,0.013 km,8 m,105.5 °,1:-- (  0.0 km/h)*FF
$SMGPS2,-0.44 X,+0.70 Y,+0.54 Z,1 ENL,0 us*4A
$GNRMC,154747.10,A,4816.48031,N,01139.86887,E,0.92,,080522,,,A*5B
$GNGGA,154747.10,4816.48031,N,01139.86887,E,1,12,0.61,484.3,M,46.2,M,,*4E
$GNGSA,A,3,01,08,21,10,27,32,23,22,16,14,,,1.04,0.61,0.85*1F
$GNVTG,,T,,M,0.916,N,1.697,K,A*3A
$SMGPS,-0.1 m,-0.05 m/s,7.58 VRx,0.013 km,8 m,105.5 °,1:-- (  0.0 km/h)*F3
$SMGPS2,-0.47 X,+0.66 Y,+0.60 Z,3 ENL,0 us*4B
$GNRMC,154747.20,A,4816.48027,N,01139.86891,E,0.97,,080522,,,A*5D
$GNGGA,154747.20,4816.48027,N,01139.86891,E,1,12,0.61,484.3,M,46.2,M,,*4D
$GNGSA,A,3,01,08,21,10,27,32,23,22,16,14,,,1.04,0.61,0.85*1F
$GNVTG,,T,,M,0.962,N,1.781,K,A*3F
$SMGPS,-0.1 m,-0.07 m/s,7.56 VRx,0.013 km,8 m,105.3 °,1:-- (  0.0 km/h)*F9
$SMGPS2,-0.48 X,+0.66 Y,+0.58 Z,154 ENL,0 us*4C
$GNRMC,154747.30,A,4816.48022,N,01139.86895,E,1.28,148.22,080522,,,A*4B
$GNGGA,154747.30,4816.48022,N,01139.86895,E,1,12,0.61,484.3,M,46.2,M,,*4D
$GNGSA,A,3,01,08,21,10,27,32,23,22,16,14,,,1.04,0.61,0.85*1F
$GNVTG,148.22,T,,M,1.272,N,2.357,K,A*2B
$SMGPS,-0.1 m,-0.09 m/s,7.54 VRx,0.013 km,8 m,105.3 °,1:-- (  0.0 km/h)*F5
$SMGPS2,-0.47 X,+0.66 Y,+0.53 Z,323 ENL,0 us*4A
$GNRMC,154747.40,A,4816.48017,N,01139.86897,E,1.21,152.54,080522,,,A*4B
$GNGGA,154747.40,4816.48017,N,01139.86897,E,1,12,0.61,484.3,M,46.2,M,,*4E
$GNGSA,A,3,01,08,21,10,27,32,23,22,16,14,,,1.04,0.61,0.85*1F
$GNVTG,152.54,T,,M,1.194,N,2.212,K,A*2A
$SMGPS,-0.1 m,-0.10 m/s,7.51 VRx,0.014 km,8 m,110.9 °,1:-- (  0.0 km/h)*F1
$SMGPS2,-0.46 X,+0.72 Y,+0.52 Z,183 ENL,0 us*47
$GNRMC,154747.50,A,4816.48011,N,01139.86898,E,1.06,158.93,080522,,,A*47
$GNGGA,154747.50,4816.48011,N,01139.86898,E,1,12,0.61,484.4,M,46.2,M,,*41
$GNGSA,A,3,01,08,21,10,27,32,23,22,16,14,,,1.04,0.61,0.85*1F
$GNVTG,158.93,T,,M,1.048,N,1.942,K,A*26
$SMGPS,-0.0 m,-0.10 m/s,7.55 VRx,0.014 km,9 m,110.4 °,1:-- (  0.0 km/h)*F8
$SMGPS2,-0.48 X,+0.77 Y,+0.49 Z,55 ENL,0 us*7C
$GNRMC,154747.60,A,4816.48008,N,01139.86898,E,0.58,,080522,,,A*5E
$GNGGA,154747.60,4816.48008,N,01139.86898,E,1,12,0.61,484.4,M,46.2,M,,*4A
$GNGSA,A,3,01,08,21,10,27,32,23,22,16,14,,,1.04,0.61,0.85*1F
$GNVTG,,T,,M,0.549,N,1.016,K,A*33
$SMGPS,-0.0 m,-0.11 m/s,7.56 VRx,0.014 km,9 m,110.4 °,1:-- (  0.0 km/h)*FA
$SMGPS2,-0.37 X,+0.73 Y,+0.51 Z,14 ENL,0 us*7C
$GNRMC,154747.70,A,4816.48007,N,01139.86899,E,0.20,,080522,,,A*5E
$GNGGA,154747.70,4816.48007,N,01139.86899,E,1,12,0.61,484.4,M,46.2,M,,*45
$GNGSA,A,3,01,08,21,10,27,32,23,22,16,14,,,1.04,0.61,0.85*1F
$GNVTG,,T,,M,0.071,N,0.132,K,A*3B
$SMGPS,-0.0 m,-0.11 m/s,7.56 VRx,0.014 km,9 m,110.4 °,1:-- (  0.0 km/h)*FA
$SMGPS2,-0.39 X,+0.76 Y,+0.53 Z,45 ENL,0 us*71
$GNRMC,154747.80,A,4816.48008,N,01139.86900,E,0.70,,080522,,,A*5A
$GNGGA,154747.80,4816.48008,N,01139.86900,E,1,12,0.61,484.4,M,46.2,M,,*44
$GNGSA,A,3,01,08,21,10,27,32,23,22,16,14,,,1.04,0.61,0.85*1F
$GNVTG,,T,,M,0.673,N,1.246,K,A*3E
$SMGPS,-0.0 m,-0.11 m/s,7.53 VRx,0.014 km,9 m,110.4 °,1:-- (  0.0 km/h)*FF
$SMGPS2,-0.36 X,+0.71 Y,+0.59 Z,179 ENL,0 us*4D
$GNRMC,154747.90,A,4816.48010,N,01139.86903,E,0.40,,080522,,,A*52
$GNGGA,154747.90,4816.48010,N,01139.86903,E,1,12,0.61,484.4,M,46.2,M,,*4F
$GNGSA,A,3,01,08,21,10,27,32,23,22,16,14,,,1.04,0.61,0.85*1F
$GNVTG,,T,,M,0.368,N,0.682,K,A*3C
$SMGPS,-0.0 m,-0.09 m/s,7.58 VRx,0.014 km,9 m,110.4 °,1:-- (  0.0 km/h)*FD
$SMGPS2,-0.36 X,+0.66 Y,+0.61 Z,37 ENL,0 us*7B
$GNRMC,154748.00,A,4816.48012,N,01139.86905,E,0.55,,080522,,,A*54
$GNGGA,154748.00,4816.48012,N,01139.86905,E,1,12,0.61,484.4,M,46.2,M,,*4D
$GNGSA,A,3,01,08,21,10,27,32,23,22,16,14,,,1.04,0.61,0.85*1F
$GNVTG,,T,,M,0.535,N,0.990,K,A*3E
$SMGPS,0.0 m,-0.08 m/s,7.55 VRx,0.014 km,9 m,110.4 °,1:-- (  0.0 km/h)*DC
$SMGPS2,-0.37 X,+0.63 Y,+0.64 Z,3 ENL,0 us*4D
$GNRMC,154748.10,A,4816.48013,N,01139.86908,E,0.14,,080522,,,A*5C
$GNGGA,154748.10,4816.48013,N,01139.86908,E,1,12,0.61,484.4,M,46.2,M,,*40
$GNGSA,A,3,01,08,21,10,27,32,23,22,16,14,,,1.04,0.61,0.85*1F
$GNVTG,,T,,M,0.121,N,0.224,K,A*3B
$SMGPS,0.0 m,-0.06 m/s,7.56 VRx,0.014 km,9 m,110.4 °,1:-- (  0.0 km/h)*D1
$SMGPS2,-0.41 X,+0.64 Y,+0.63 Z,376 ENL,0 us*4D
$GNRMC,154748.20,A,4816.48014,N,01139.86911,E,0.25,,080522,,,A*52
$GNGGA,154748.20,4816.48014,N,01139.86911,E,1,12,0.61,484.4,M,46.2,M,,*4C
$GNGSA,A,3,01,08,21,10,27,32,23,22,16,14,,,1.04,0.61,0.85*1F
$GNVTG,,T,,M,0.240,N,0.444,K,A*3F
$SMGPS,0.0 m,-0.05 m/s,7.53 VRx,0.014 km,9 m,110.1 °,1:-- (  0.0 km/h)*D2
$SMGPS2,-0.38 X,+0.66 Y,+0.68 Z,312 ENL,0 us*48
$GNRMC,154748.30,A,4816.48015,N,01139.86915,E,0.26,,080522,,,A*55
$GNGGA,154748.30,4816.48015,N,01139.86915,E,1,12,0.61,484.4,M,46.2,M,,*48
$GNGSA,A,3,01,08,21,10,27,32,23,22,16,14,,,1.04,0.61,0.85*1F
$GNVTG,,T,,M,0.255,N,0.471,K,A*3D
$SMGPS,0.0 m,-0.04 m/s,7.56 VRx,0.014 km,9 m,110.1 °,1:-- (  0.0 km/h)*D6
$SMGPS2,-0.41 X,+0.62 Y,+0.60 Z,62 ENL,0 us*7E
$GNRMC,154748.40,A,4816.48016,N,01139.86918,E,0.33,,080522,,,A*58
$GNGGA,154748.40,4816.48016,N,01139.86918,E,1,12,0.61,484.4,M,46.2,M,,*41
$GNGSA,A,3,01,08,21,10,27,32,23,22,16,14,,,1.04,0.61,0.85*1F
$GNVTG,,T,,M,0.333,N,0.616,K,A*3F
$SMGPS,-0.0 m,-0.04 m/s,7.54 VRx,0.014 km,9 m,110.1 °,1:-- (  0.0 km/h)*F9
$SMGPS2,-0.37 X,+0.60 Y,+0.68 Z,108 ENL,0 us*48
$GNRMC,154748.50,A,4816.48018,N,01139.86921,E,0.50,,080522,,,A*58
$GNGGA,154748.50,4816.48018,N,01139.86921,E,1,12,0.61,484.3,M,46.2,M,,*43
$GNGSA,A,3,01,08,21,10,27,32,23,22,16,14,,,1.04,0.61,0.85*1F
$GNVTG,,T,,M,0.499,N,0.925,K,A*37
$SMGPS,-0.1 m,-0.03 m/s,7.56 VRx,0.014 km,9 m,110.1 °,1:-- (  0.0 km/h)*FD
$SMGPS2,-0.40 X,+0.56 Y,+0.67 Z,167 ENL,0 us*4B
$GNRMC,154748.60,A,4816.48019,N,01139.86925,E,0.31,,080522,,,A*59
$GNGGA,154748.60,4816.48019,N,01139.86925,E,1,12,0.61,484.4,M,46.2,M,,*42
$GNGSA,A,3,01,08,21,10,27,32,23,22,16,14,,,1.04,0.61,0.85*1F
$GNVTG,,T,,M,0.311,N,0.576,K,A*3A
$SMGPS,-0.0 m,-0.03 m/s,7.56 VRx,0.014 km,9 m,109.8 °,1:-- (  0.0 km/h)*FD
$SMGPS2,-0.40 X,+0.55 Y,+0.70 Z,12 ENL,0 us*7D
$GNRMC,154748.70,A,4816.48020,N,01139.86928,E,0.27,,080522,,,A*58
$GNGGA,154748.70,4816.48020,N,01139.86928,E,1,12,0.61,484.4,M,46.2,M,,*44
$GNGSA,A,3,01,08,21,10,27,32,23,22,16,14,,,1.04,0.61,0.85*1F
$GNVTG,,T,,M,0.263,N,0.487,K,A*31
$SMGPS,-0.0 m,-0.04 m/s,7.57 VRx,0.014 km,9 m,109.8 °,1:-- (  0.0 km/h)*FB
$SMGPS2,-0.42 X,+0.51 Y,+0.73 Z,1 ENL,0 us*4A
$GNRMC,154748.80,A,4816.48020,N,01139.86932,E,0.32,,080522,,,A*58
$GNGGA,154748.80,4816.48020,N,01139.86932,E,1,12,0.61,484.3,M,46.2,M,,*47
$GNGSA,A,3,01,08,21,10,27,32,23,22,16,14,,,1.04,0.61,0.85*1F
$GNVTG,,T,,M,0.312,N,0.577,K,A*38
$SMGPS,-0.1 m,-0.04 m/s,7.57 VRx,0.014 km,9 m,109.8 °,1:-- (  0.0 km/h)*FA
$SMGPS2,-0.42 X,+0.55 Y,+0.68 Z,1 ENL,0 us*44
$GNRMC,154748.90,A,4816.48021,N,01139.86935,E,0.36,,080522,,,A*5B
$GNGGA,154748.90,4816.48021,N,01139.86935,E,1,12,0.61,484.4,M,46.2,M,,*47
$GNGSA,A,3,01,08,21,10,27,32,23,22,16,14,,,1.04,0.61,0.85*1F
$GNVTG,,T,,M,0.348,N,0.644,K,A*34
$SMGPS,-0.0 m,-0.03 m/s,7.57 VRx,0.014 km,9 m,109.8 °,1:-- (  0.0 km/h)*FC
$SMGPS2,-0.49 X,+0.55 Y,+0.70 Z,1 ENL,0 us*46
$GNRMC,154749.00,A,4816.48022,N,01139.86937,E,0.25,,080522,,,A*50
$GNGGA,154749.00,4816.48022,N,01139.86937,E,1,12,0.61,484.4,M,46.2,M,,*4E
$GNGSA,A,3,01,08,21,10,27,32,23,22,16,14,,,1.04,0.61,0.85*1F
$GNVTG,,T,,M,0.232,N,0.429,K,A*31
$SMGPS,-0.0 m,-0.03 m/s,7.56 VRx,0.014 km,9 m,109.5 °,1:-- (  0.0 km/h)*F0
$SMGPS2,-0.45 X,+0.47 Y,+0.75 Z,0 ENL,0 us*4D
$GNRMC,154749.10,A,4816.48023,N,01139.86940,E,0.26,,080522,,,A*53
$GNGGA,154749.10,4816.48023,N,01139.86940,E,1,12,0.61,484.4,M,46.2,M,,*4E
$GNGSA,A,3,01,08,21,10,27,32,23,22,16,14,,,1.04,0.61,0.85*1F
$GNVTG,,T,,M,0.246,N,0.455,K,A*39
$SMGPS,-0.0 m,-0.03 m/s,7.59 VRx,0.014 km,9 m,109.5 °,1:-- (  0.0 km/h)*FF
$SMGPS2,-0.47 X,+0.36 Y,+0.79 Z,0 ENL,0 us*45
$GNRMC,154749.20,A,4816.48024,N,01139.86943,E,0.21,,080522,,,A*53
$GNGGA,154749.20,4816.48024,N,01139.86943,E,1,12,0.61,484.4,M,46.2,M,,*49
$GNGSA,A,3,01,08,21,10,27,32,23,22,16,14,,,1.04,0.61,0.85*1F
$GNVTG,,T,,M,0.190,N,0.352,K,A*31
$SMGPS,-0.0 m,-0.03 m/s,7.55 VRx,0.014 km,9 m,104.2 °,1:-- (  0.0 km/h)*F9
$SMGPS2,-0.50 X,+0.32 Y,+0.85 Z,0 ENL,0 us*44
$GNRMC,154749.30,A,4816.48025,N,01139.86945,E,0.19,,080522,,,A*5E
$GNGGA,154749.30,4816.48025,N,01139.86945,E,1,12,0.61,484.4,M,46.2,M,,*4F
$GNGSA,A,3,01,08,21,10,27,32,23,22,16,14,,,1.04,0.61,0.85*1F
$GNVTG,,T,,M,0.174,N,0.322,K,A*3C
$SMGPS,-0.0 m,-0.02 m/s,7.59 VRx,0.014 km,9 m,104.2 °,1:-- (  0.0 km/h)*F4
$SMGPS2,-0.49 X,+0.26 Y,+0.85 Z,0 ENL,0 us*49
$GNRMC,154749.40,A,4816.48025,N,01139.86946,E,0.13,,080522,,,A*50
$GNGGA,154749.40,4816.48025,N,01139.86946,E,1,12,0.61,484.4,M,46.2,M,,*4B
$GNGSA,A,3,01,08,21,10,27,32,23,22,16,14,,,1.04,0.61,0.85*1F
$GNVTG,,T,,M,0.110,N,0.204,K,A*3B
$SMGPS,0.0 m,-0.01 m/s,7.56 VRx,0.014 km,9 m,103.9 °,1:-- (  0.0 km/h)*D9
$SMGPS2,-0.51 X,+0.25 Y,+0.85 Z,1 ENL,0 us*42
$GNRMC,154749.50,A,4816.48026,N,01139.86947,E,0.10,,080522,,,A*50
$GNGGA,154749.50,4816.48026,N,01139.86947,E,1,12,0.61,484.4,M,46.2,M,,*48
$GNGSA,A,3,01,08,21,10,27,32,23,22,16,14,,,1.04,0.61,0.85*1F
$GNVTG,,T,,M,0.091,N,0.168,K,A*3A
$SMGPS,0.0 m,-0.01 m/s,7.59 VRx,0.014 km,9 m,103.9 °,1:-- (  0.0 km/h)*D6
$SMGPS2,-0.51 X,+0.14 Y,+0.84 Z,1 ENL,0 us*41
$GNRMC,154749.60,A,4816.48025,N,01139.86947,E,0.16,,080522,,,A*56
$GNGGA,154749.60,4816.48025,N,01139.86947,E,1,12,0.61,484.4,M,46.2,M,,*48
$GNGSA,A,3,01,08,21,10,27,32,23,22,16,14,,,1.04,0.61,0.85*1F
$GNVTG,,T,,M,0.158,N,0.293,K,A*39
$SMGPS,0.0 m,-0.00 m/s,7.57 VRx,0.014 km,9 m,103.9 °,1:-- (  0.0 km/h)*D9
$SMGPS2,-0.49 X,+0.14 Y,+0.82 Z,1 ENL,0 us*4E
$GNRMC,154749.70,A,4816.48025,N,01139.86948,E,0.09,,080522,,,A*56
$GNGGA,154749.70,4816.48025,N,01139.86948,E,1,12,0.61,484.4,M,46.2,M,,*46
$GNGSA,A,3,01,08,21,10,27,32,23,22,16,14,,,1.04,0.61,0.85*1F
$GNVTG,,T,,M,0.086,N,0.159,K,A*3E
$SMGPS,0.0 m,+0.01 m/s,7.57 VRx,0.014 km,9 m,103.9 °,1:-- (  0.0 km/h)*DE
$SMGPS2,-0.48 X,+0.16 Y,+0.81 Z,1 ENL,0 us*4E
$GNRMC,154749.80,A,4816.48025,N,01139.86948,E,0.06,,080522,,,A*56
$GNGGA,154749.80,4816.48025,N,01139.86948,E,1,12,0.61,484.4,M,46.2,M,,*49
$GNGSA,A,3,01,08,21,10,27,32,23,22,16,14,,,1.04,0.61,0.85*1F
$GNVTG,,T,,M,0.061,N,0.113,K,A*39
$SMGPS,0.0 m,+0.02 m/s,7.56 VRx,0.014 km,9 m,103.9 °,1:-- (  0.0 km/h)*DC
$SMGPS2,-0.48 X,+0.12 Y,+0.89 Z,0 ENL,0 us*43
$GNRMC,154749.90,A,4816.48025,N,01139.86947,E,0.10,,080522,,,A*5F
$GNGGA,154749.90,4816.48025,N,01139.86947,E,1,12,0.61,484.5,M,46.2,M,,*46
$GNGSA,A,3,01,08,21,10,27,32,23,22,16,14,,,1.04,0.61,0.85*1F
$GNVTG,,T,,M,0.088,N,0.162,K,A*38
$SMGPS,0.1 m,+0.04 m/s,7.58 VRx,0.014 km,9 m,103.9 °,1:-- (  0.0 km/h)*D5
$SMGPS2,-0.46 X,+0.10 Y,+0.87 Z,0 ENL,0 us*41
$GNRMC,154750.00,A,4816.48025,N,01139.86946,E,0.26,,080522,,,A*5A
$GNGGA,154750.00,4816.48025,N,01139.86946,E,1,12,0.61,484.5,M,46.2,M,,*46
$GNGSA,A,3,01,08,21,10,27,32,23,22,16,14,,,1.04,0.61,0.85*1F
$GNVTG,,T,,M,0.247,N,0.458,K,A*35
$SMGPS,0.1 m,+0.05 m/s,7.56 VRx,0.014 km,9 m,103.9 °,1:-- (  0.0 km/h)*DA
$SMGPS2,-0.45 X,+0.08 Y,+0.85 Z,1 ENL,0 us*48
$GNRMC,154750.10,A,4816.48024,N,01139.86945,E,0.17,,080522,,,A*5B
$GNGGA,154750.10,4816.48024,N,01139.86945,E,1,12,0.61,484.5,M,46.2,M,,*45
$GNGSA,A,3,01,08,21,10,27,32,23,22,16,14,,,1.04,0.61,0.85*1F
$GNVTG,,T,,M,0.134,N,0.247,K,A*3A
$SMGPS,0.1 m,+0.05 m/s,7.58 VRx,0.014 km,9 m,103.9 °,1:-- (  0.0 km/h)*D4
$SMGPS2,-0.36 X,+0.05 Y,+0.89 Z,1 ENL,0 us*4D
$GNRMC,154750.20,A,4816.48024,N,01139.86945,E,0.20,,080522,,,A*5C
$GNGGA,154750.20,4816.48024,N,01139.86945,E,1,12,0.61,484.4,M,46.2,M,,*47
$GNGSA,A,3,01,08,21,10,27,32,23,22,16,14,,,1.04,0.61,0.85*1F
$GNVTG,,T,,M,0.164,N,0.304,K,A*39
$SMGPS,0.0 m,+0.06 m/s,7.56 VRx,0.014 km,9 m,103.9 °,1:-- (  0.0 km/h)*D8
$SMGPS2,-0.35 X,+0.00 Y,+0.86 Z,179 ENL,0 us*4A
$GNRMC,154750.30,A,4816.48025,N,01139.86946,E,0.19,,080522,,,A*55
$GNGGA,154750.30,4816.48025,N,01139.86946,E,1,12,0.61,484.4,M,46.2,M,,*44
$GNGSA,A,3,01,08,21,10,27,32,23,22,16,14,,,1.04,0.61,0.85*1F
$GNVTG,,T,,M,0.139,N,0.257,K,A*36
$SMGPS,0.0 m,+0.07 m/s,7.58 VRx,0.014 km,9 m,103.9 °,1:-- (  0.0 km/h)*D7
$SMGPS2,-0.27 X,-0.11 Y,+0.90 Z,2 ENL,0 us*45
$GNRMC,154750.40,A,4816.48025,N,01139.86948,E,0.39,,080522,,,A*5E
$GNGGA,154750.40,4816.48025,N,01139.86948,E,1,12,0.61,484.4,M,46.2,M,,*4D
$GNGSA,A,3,01,08,21,10,27,32,23,22,16,14,,,1.04,0.61,0.85*1F
$GNVTG,,T,,M,0.366,N,0.678,K,A*37
$SMGPS,0.0 m,+0.07 m/s,7.56 VRx,0.014 km,9 m,103.9 °,1:-- (  0.0 km/h)*D9
$SMGPS2,-0.31 X,-0.08 Y,+0.94 Z,1 ENL,0 us*4D
$GNRMC,154750.50,A,4816.48024,N,01139.86950,E,0.58,,080522,,,A*50
$GNGGA,154750.50,4816.48024,N,01139.86950,E,1,12,0.61,484.4,M,46.2,M,,*44
$GNGSA,A,3,01,08,21,10,27,32,23,22,16,14,,,1.04,0.61,0.85*1F
$GNVTG,,T,,M,0.567,N,1.050,K,A*3D
$SMGPS,0.0 m,+0.07 m/s,7.59 VRx,0.014 km,9 m,103.9 °,1:-- (  0.0 km/h)*D6
$SMGPS2,-0.35 X,-0.07 Y,+0.92 Z,0 ENL,0 us*41
$GNRMC,154750.60,A,4816.48023,N,01139.86954,E,0.86,150.70,080522,,,A*4E
$GNGGA,154750.60,4816.48023,N,01139.86954,E,1,12,0.61,484.4,M,46.2,M,,*44
$GNGSA,A,3,01,08,21,10,27,32,23,22,16,14,,,1.04,0.61,0.85*1F
$GNVTG,150.70,T,,M,0.848,N,1.571,K,A*26
$SMGPS,0.0 m,+0.06 m/s,7.56 VRx,0.014 km,9 m,103.9 °,1:-- (  0.0 km/h)*D8
$SMGPS2,-0.37 X,-0.06 Y,+0.98 Z,0 ENL,0 us*48
$GNRMC,154750.70,A,4816.48021,N,01139.86958,E,0.94,149.18,080522,,,A*44
$GNGGA,154750.70,4816.48021,N,01139.86958,E,1,12,0.61,484.4,M,46.2,M,,*4B
$GNGSA,A,3,01,08,21,10,27,32,23,22,16,14,,,1.04,0.61,0.85*1F
$GNVTG,149.18,T,,M,0.937,N,1.735,K,A*2B
$SMGPS,0.0 m,+0.06 m/s,7.58 VRx,0.014 km,9 m,103.9 °,1:-- (  0.0 km/h)*D6
$SMGPS2,-0.42 X,+0.08 Y,+0.83 Z,0 ENL,0 us*48
$GNRMC,154750.80,A,4816.48020,N,01139.86962,E,0.60,,080522,,,A*53
$GNGGA,154750.80,4816.48020,N,01139.86962,E,1,12,0.61,484.4,M,46.2,M,,*4C
$GNGSA,A,3,01,08,21,10,27,32,23,22,16,14,,,1.04,0.61,0.85*1F
$GNVTG,,T,,M,0.589,N,1.091,K,A*30
$SMGPS,0.0 m,+0.05 m/s,7.55 VRx,0.014 km,9 m,108.9 °,1:-- (  0.0 km/h)*D3
$SMGPS2,-0.38 X,+0.05 Y,+0.84 Z,2 ENL,0 us*4D
$GNRMC,154750.90,A,4816.48019,N,01139.86964,E,0.48,,080522,,,A*54
$GNGGA,154750.90,4816.48019,N,01139.86964,E,1,12,0.61,484.4,M,46.2,M,,*41
$GNGSA,A,3,01,08,21,10,27,32,23,22,16,14,,,1.04,0.61,0.85*1F
$GNVTG,,T,,M,0.476,N,0.881,K,A*39
$SMGPS,0.0 m,+0.05 m/s,7.59 VRx,0.014 km,9 m,108.9 °,1:-- (  0.0 km/h)*DF
$SMGPS2,-0.44 X,+0.02 Y,+0.91 Z,0 ENL,0 us*47
$GNRMC,154751.00,A,4816.48018,N,01139.86967,E,0.47,,080522,,,A*51
$GNGGA,154751.00,4816.48018,N,01139.86967,E,1,12,0.61,484.4,M,46.2,M,,*4B
$GNGSA,A,3,01,08,21,10,27,32,23,22,16,14,,,1.04,0.61,0.85*1F
$GNVTG,,T,,M,0.467,N,0.866,K,A*30
$SMGPS,-0.0 m,+0.05 m/s,7.63 VRx,0.014 km,9 m,108.9 °,1:-- (  0.0 km/h)*FB
$SMGPS2,-0.48 X,+0.09 Y,+0.92 Z,0 ENL,0 us*43
$GNRMC,154751.10,A,4816.48018,N,01139.86969,E,0.29,,080522,,,A*56
$GNGGA,154751.10,4816.48018,N,01139.86969,E,1,12,0.61,484.4,M,46.2,M,,*44
$GNGSA,A,3,01,08,21,10,27,32,23,22,16,14,,,1.04,0.61,0.85*1F
$GNVTG,,T,,M,0.281,N,0.520,K,A*31
$SMGPS,-0.0 m,+0.05 m/s,7.58 VRx,0.014 km,9 m,108.9 °,1:-- (  0.0 km/h)*F3
$SMGPS2,-0.42 X,+0.10 Y,+0.87 Z,0 ENL,0 us*45
$GNRMC,154751.20,A,4816.48017,N,01139.86970,E,0.17,,080522,,,A*5F
$GNGGA,154751.20,4816.48017,N,01139.86970,E,1,12,0.61,484.4,M,46.2,M,,*40
$GNGSA,A,3,01,08,21,10,27,32,23,22,16,14,,,1.04,0.61,0.85*1F
$GNVTG,,T,,M,0.165,N,0.305,K,A*39
$SMGPS,-0.0 m,+0.04 m/s,7.57 VRx,0.014 km,9 m,108.6 °,1:-- (  0.0 km/h)*F2
$SMGPS2,-0.36 X,+0.08 Y,+0.89 Z,0 ENL,0 us*41
$GNRMC,154751.30,A,4816.48017,N,01139.86971,E,0.14,,080522,,,A*5C
$GNGGA,154751.30,4816.48017,N,01139.86971,E,1,12,0.61,484.4,M,46.2,M,,*40
$GNGSA,A,3,01,08,21,10,27,32,23,22,16,14,,,1.04,0.61,0.85*1F
$GNVTG,,T,,M,0.141,N,0.261,K,A*3C
$SMGPS,-0.0 m,+0.04 m/s,7.57 VRx,0.014 km,9 m,108.6 °,1:-- (  0.0 km/h)*F2
$SMGPS2,-0.41 X,+0.13 Y,+0.92 Z,0 ENL,0 us*41
$GNRMC,154751.40,A,4816.48017,N,01139.86973,E,0.18,,080522,,,A*55
$GNGGA,154751.40,4816.48017,N,01139.86973,E,1,12,0.61,484.4,M,46.2,M,,*45
$GNGSA,A,3,01,08,21,10,27,32,23,22,16,14,,,1.04,0.61,0.85*1F
$GNVTG,,T,,M,0.174,N,0.323,K,A*3D
$SMGPS,-0.0 m,+0.04 m/s,7.56 VRx,0.014 km,9 m,108.6 °,1:-- (  0.0 km/h)*F3
$SMGPS2,-0.46 X,+0.16 Y,+0.95 Z,0 ENL,0 us*44
$GNRMC,154751.50,A,4816.48018,N,01139.86974,E,0.16,,080522,,,A*52
$GNGGA,154751.50,4816.48018,N,01139.86974,E,1,12,0.61,484.3,M,46.2,M,,*4B
$GNGSA,A,3,01,08,21,10,27,32,23,22,16,14,,,1.04,0.61,0.85*1F
$GNVTG,,T,,M,0.156,N,0.290,K,A*34
$SMGPS,-0.1 m,+0.03 m/s,7.58 VRx,0.014 km,9 m,108.6 °,1:-- (  0.0 km/h)*FB
$SMGPS2,-0.37 X,+0.17 Y,+0.86 Z,1 ENL,0 us*40
$GNRMC,154751.60,A,4816.48018,N,01139.86976,E,0.14,,080522,,,A*51
$GNGGA,154751.60,4816.48018,N,01139.86976,E,1,12,0.61,484.4,M,46.2,M,,*4D
$GNGSA,A,3,01,08,21,10,27,32,23,22,16,14,,,1.04,0.61,0.85*1F
$GNVTG,,T,,M,0.139,N,0.257,K,A*36
$SMGPS,-0.0 m,+0.02 m/s,7.56 VRx,0.014 km,9 m,108.6 °,1:-- (  0.0 km/h)*F5
$SMGPS2,-0.35 X,+0.13 Y,+0.87 Z,0 ENL,0 us*46
$GNRMC,154751.70,A,4816.48019,N,01139.86976,E,0.22,,080522,,,A*54
$GNGGA,154751.70,4816.48019,N,01139.86976,E,1,12,0.61,484.4,M,46.2,M,,*4D
$GNGSA,A,3,01,08,21,10,27,32,23,22,16,14,,,1.04,0.61,0.85*1F
$GNVTG,,T,,M,0.224,N,0.415,K,A*39
$SMGPS,0.0 m,+0.02 m/s,7.59 VRx,0.014 km,9 m,108.6 °,1:-- (  0.0 km/h)*D7
$SMGPS2,-0.33 X,+0.11 Y,+0.92 Z,0 ENL,0 us*46
$GNRMC,154751.80,A,4816.48020,N,01139.86977,E,0.18,,080522,,,A*59
$GNGGA,154751.80,4816.48020,N,01139.86977,E,1,12,0.61,484.4,M,46.2,M,,*49
$GNGSA,A,3,01,08,21,10,27,32,23,22,16,14,,,1.04,0.61,0.85*1F
$GNVTG,,T,,M,0.181,N,0.336,K,A*33
$SMGPS,0.0 m,+0.01 m/s,7.36 VRx,0.014 km,9 m,108.6 °,1:-- (  0.0 km/h)*DD
$SMGPS2,-0.39 X,+0.13 Y,+0.86 Z,527 ENL,0 us*4B
$GNRMC,154751.90,A,4816.48020,N,01139.86978,E,0.13,,080522,,,A*5C
$GNGGA,154751.90,4816.48020,N,01139.86978,E,1,12,0.61,484.4,M,46.2,M,,*47
$GNGSA,A,3,01,08,21,10,27,32,23,22,16,14,,,1.04,0.61,0.85*1F
$GNVTG,,T,,M,0.130,N,0.242,K,A*3B
$SMGPS,0.0 m,+0.01 m/s,6.77 VRx,0.014 km,9 m,108.6 °,1:-- (  0.0 km/h)*D9
$SMGPS2,-0.22 X,+0.11 Y,+0.87 Z,999 ENL,0 us*4B
$GNRMC,154752.00,A,4816.48021,N,01139.86979,E,0.06,,080522,,,A*52
$GNGGA,154752.00,4816.48021,N,01139.86979,E,1,12,0.61,484.2,M,46.2,M,,*4B
$GNGSA,A,3,01,08,21,10,27,32,23,22,16,14,,,1.04,0.61,0.85*1F
$GNVTG,,T,,M,0.029,N,0.054,K,A*37
$SMGPS,-0.2 m,-0.02 m/s,7.21 VRx,0.014 km,9 m,108.6 °,1:-- (  0.0 km/h)*F1
$SMGPS2,-0.26 X,+0.09 Y,+0.86 Z,970 ENL,0 us*40
$GNRMC,154752.10,A,4816.48021,N,01139.86981,E,0.16,,080522,,,A*55
$GNGGA,154752.10,4816.48021,N,01139.86981,E,1,12,0.61,484.5,M,46.2,M,,*4A
$GNGSA,A,3,01,08,21,10,27,32,23,22,16,14,,,1.04,0.61,0.85*1F
$GNVTG,,T,,M,0.153,N,0.284,K,A*34
$SMGPS,0.1 m,-0.02 m/s,7.55 VRx,0.014 km,9 m,108.6 °,1:-- (  0.0 km/h)*DC
$SMGPS2,-0.38 X,+0.13 Y,+1.03 Z,288 ENL,0 us*44
$GNRMC,154752.20,A,4816.48021,N,01139.86982,E,0.08,,080522,,,A*5A
$GNGGA,154752.20,4816.48021,N,01139.86982,E,1,12,0.61,484.5,M,46.2,M,,*4A
$GNGSA,A,3,01,08,21,10,27,32,23,22,16,14,,,1.04,0.61,0.85*1F
$GNVTG,,T,,M,0.079,N,0.147,K,A*31
$SMGPS,0.1 m,-0.01 m/s,7.54 VRx,0.014 km,9 m,108.6 °,1:-- (  0.0 km/h)*DE
$SMGPS2,-0.32 X,+0.15 Y,+0.88 Z,25 ENL,0 us*7F
$GNRMC,154752.30,A,4816.48021,N,01139.86983,E,0.08,,080522,,,A*5A
$GNGGA,154752.30,4816.48021,N,01139.86983,E,1,12,0.61,484.5,M,46.2,M,,*4A
$GNGSA,A,3,01,08,21,10,27,32,23,22,16,14,,,1.04,0.61,0.85*1F
$GNVTG,,T,,M,0.081,N,0.150,K,A*30
$SMGPS,0.1 m,-0.00 m/s,7.55 VRx,0.014 km,10 m,108.2 °,1:-- (  0.0 km/h)*E2
$SMGPS2,-0.30 X,+0.18 Y,+0.89 Z,116 ENL,0 us*40
$GNRMC,154752.40,A,4816.48022,N,01139.86983,E,0.04,,080522,,,A*52
$GNGGA,154752.40,4816.48022,N,01139.86983,E,1,12,0.61,484.5,M,46.2,M,,*4E
$GNGSA,A,3,01,08,21,10,27,32,23,22,16,14,,,1.04,0.61,0.85*1F
$GNVTG,,T,,M,0.018,N,0.033,K,A*34
$SMGPS,0.1 m,+0.00 m/s,7.54 VRx,0.014 km,10 m,108.2 °,1:-- (  0.0 km/h)*E5
$SMGPS2,-0.32 X,+0.21 Y,+0.89 Z,1 ENL,0 us*4F
$GNRMC,154752.50,A,4816.48023,N,01139.86983,E,0.12,,080522,,,A*55
$GNGGA,154752.50,4816.48023,N,01139.86983,E,1,12,0.61,484.4,M,46.2,M,,*4F
$GNGSA,A,3,01,08,21,10,27,32,23,22,16,14,,,1.04,0.61,0.85*1F
$GNVTG,,T,,M,0.113,N,0.208,K,A*34
$SMGPS,-0.0 m,+0.00 m/s,7.56 VRx,0.014 km,10 m,108.2 °,1:-- (  0.0 km/h)*CB
$SMGPS2,-0.28 X,+0.26 Y,+0.86 Z,1 ENL,0 us*4C
$GNRMC,154752.60,A,4816.48023,N,01139.86983,E,0.11,,080522,,,A*55
$GNGGA,154752.60,4816.48023,N,01139.86983,E,1,12,0.61,484.4,M,46.2,M,,*4C
$GNGSA,A,3,01,08,21,10,27,32,23,22,16,14,,,1.04,0.61,0.85*1F
$GNVTG,,T,,M,0.105,N,0.194,K,A*35
$SMGPS,-0.0 m,-0.00 m/s,7.54 VRx,0.014 km,9 m,103.2 °,1:-- (  0.0 km/h)*FC
$SMGPS2,-0.24 X,+0.30 Y,+0.82 Z,0 ENL,0 us*42
$GNRMC,154752.70,A,4816.48024,N,01139.86985,E,0.27,,080522,,,A*50
$GNGGA,154752.70,4816.48024,N,01139.86985,E,1,12,0.61,484.4,M,46.2,M,,*4C
$GNGSA,A,3,01,08,21,10,27,32,23,22,16,14,,,1.04,0.61,0.85*1F
$GNVTG,,T,,M,0.250,N,0.463,K,A*3B
$SMGPS,0.0 m,+0.02 m/s,7.54 VRx,0.014 km,9 m,103.2 °,1:-- (  0.0 km/h)*D5
$SMGPS2,-0.37 X,+0.36 Y,+0.96 Z,0 ENL,0 us*43
$GNRMC,154752.80,A,4816.48026,N,01139.86987,E,0.57,,080522,,,A*58
$GNGGA,154752.80,4816.48026,N,01139.86987,E,1,12,0.61,484.3,M,46.2,M,,*44
$GNGSA,A,3,01,08,21,10,27,32,23,22,16,14,,,1.04,0.61,0.85*1F
$GNVTG,,T,,M,0.571,N,1.058,K,A*32
$SMGPS,-0.1 m,+0.01 m/s,7.54 VRx,0.014 km,9 m,103.2 °,1:-- (  0.0 km/h)*FA
$SMGPS2,-0.46 X,+0.28 Y,+0.95 Z,1 ENL,0 us*48
$GNRMC,154752.90,A,4816.48028,N,01139.86989,E,0.09,,080522,,,A*52
$GNGGA,154752.90,4816.48028,N,01139.86989,E,1,12,0.61,484.3,M,46.2,M,,*45
$GNGSA,A,3,01,08,21,10,27,32,23,22,16,14,,,1.04,0.61,0.85*1F
$GNVTG,,T,,M,0.085,N,0.157,K,A*33
$SMGPS,-0.1 m,+0.00 m/s,7.57 VRx,0.014 km,9 m,103.2 °,1:-- (  0.0 km/h)*F8
$SMGPS2,-0.39 X,+0.23 Y,+0.86 Z,0 ENL,0 us*48
$GNRMC,154753.00,A,4816.48029,N,01139.86990,E,0.05,,080522,,,A*5F
$GNGGA,154753.00,4816.48029,N,01139.86990,E,1,12,0.61,484.3,M,46.2,M,,*44
$GNGSA,A,3,01,08,21,10,27,32,23,22,16,14,,,1.04,0.61,0.85*1F
$GNVTG,,T,,M,0.051,N,0.095,K,A*35
$SMGPS,-0.1 m,-0.02 m/s,7.54 VRx,0.014 km,9 m,103.2 °,1:-- (  0.0 km/h)*FF
$SMGPS2,-0.37 X,+0.21 Y,+0.91 Z,1 ENL,0 us*43
$GNRMC,154753.10,A,4816.48030,N,01139.86992,E,0.15,,080522,,,A*55
$GNGGA,154753.10,4816.48030,N,01139.86992,E,1,12,0.61,484.4,M,46.2,M,,*48
$GNGSA,A,3,01,08,21,10,27,32,23,22,16,14,,,1.04,0.61,0.85*1F
$GNVTG,,T,,M,0.138,N,0.255,K,A*35
$SMGPS,-0.0 m,-0.03 m/s,7.58 VRx,0.014 km,9 m,103.2 °,1:-- (  0.0 km/h)*F3
$SMGPS2,-0.37 X,+0.22 Y,+0.91 Z,0 ENL,0 us*41
$GNRMC,154753.20,A,4816.48031,N,01139.86993,E,0.20,,080522,,,A*50
$GNGGA,154753.20,4816.48031,N,01139.86993,E,1,12,0.61,484.4,M,46.2,M,,*4B
$GNGSA,A,3,01,08,21,10,27,32,23,22,16,14,,,1.04,0.61,0.85*1F
$GNVTG,,T,,M,0.191,N,0.354,K,A*36
$SMGPS,-0.0 m,-0.03 m/s,7.54 VRx,0.014 km,9 m,103.2 °,1:-- (  0.0 km/h)*FF
$SMGPS2,-0.38 X,+0.20 Y,+0.92 Z,1 ENL,0 us*4E
$GNRMC,154753.30,A,4816.48032,N,01139.86993,E,0.29,,080522,,,A*5B
$GNGGA,154753.30,4816.48032,N,01139.86993,E,1,12,0.61,484.4,M,46.2,M,,*49
$GNGSA,A,3,01,08,21,10,27,32,23,22,16,14,,,1.04,0.61,0.85*1F
$GNVTG,,T,,M,0.286,N,0.530,K,A*37
$SMGPS,0.0 m,-0.03 m/s,7.58 VRx,0.014 km,9 m,103.2 °,1:-- (  0.0 km/h)*DE
$SMGPS2,-0.41 X,+0.18 Y,+0.92 Z,1 ENL,0 us*4B
$GNRMC,154753.40,A,4816.48032,N,01139.86994,E,0.24,,080522,,,A*56
$GNGGA,154753.40,4816.48032,N,01139.86994,E,1,12,0.61,484.4,M,46.2,M,,*49
$GNGSA,A,3,01,08,21,10,27,32,23,22,16,14,,,1.04,0.61,0.85*1F
$GNVTG,,T,,M,0.237,N,0.438,K,A*34
$SMGPS,-0.0 m,-0.03 m/s,7.55 VRx,0.014 km,9 m,103.2 °,1:-- (  0.0 km/h)*FE
$SMGPS2,-0.30 X,+0.13 Y,+0.85 Z,0 ENL,0 us*41
$GNRMC,154753.50,A,4816.48032,N,01139.86994,E,0.33,,080522,,,A*51
$GNGGA,154753.50,4816.48032,N,01139.86994,E,1,12,0.61,484.4,M,46.2,M,,*48
$GNGSA,A,3,01,08,21,10,27,32,23,22,16,14,,,1.04,0.61,0.85*1F
$GNVTG,,T,,M,0.328,N,0.607,K,A*35
$SMGPS,0.0 m,-0.03 m/s,7.57 VRx,0.014 km,9 m,103.0 °,1:-- (  0.0 km/h)*D3
$SMGPS2,-0.28 X,+0.14 Y,+0.86 Z,0 ENL,0 us*4C
$GNRMC,154753.60,A,4816.48031,N,01139.86995,E,0.30,,080522,,,A*53
$GNGGA,154753.60,4816.48031,N,01139.86995,E,1,12,0.61,484.4,M,46.2,M,,*49
$GNGSA,A,3,01,08,21,10,27,32,23,22,16,14,,,1.04,0.61,0.85*1F
$GNVTG,,T,,M,0.293,N,0.543,K,A*37
$SMGPS,-0.0 m,-0.03 m/s,7.55 VRx,0.014 km,9 m,103.0 °,1:-- (  0.0 km/h)*FC
$SMGPS2,-0.32 X,+0.15 Y,+0.90 Z,1 ENL,0 us*40
$GNRMC,154753.70,A,4816.48031,N,01139.86996,E,0.12,,080522,,,A*51
$GNGGA,154753.70,4816.48031,N,01139.86996,E,1,12,0.61,484.4,M,46.2,M,,*4B
$GNGSA,A,3,01,08,21,10,27,32,23,22,16,14,,,1.04,0.61,0.85*1F
$GNVTG,,T,,M,0.122,N,0.225,K,A*39
$SMGPS,-0.0 m,-0.02 m/s,7.57 VRx,0.014 km,9 m,103.0 °,1:-- (  0.0 km/h)*FF
$SMGPS2,-0.35 X,+0.13 Y,+0.94 Z,1 ENL,0 us*45
$GNRMC,154753.80,A,4816.48031,N,01139.86997,E,0.06,,080522,,,A*5A
$GNGGA,154753.80,4816.48031,N,01139.86997,E,1,12,0.61,484.4,M,46.2,M,,*45
$GNGSA,A,3,01,08,21,10,27,32,23,22,16,14,,,1.04,0.61,0.85*1F
$GNVTG,,T,,M,0.059,N,0.109,K,A*39
$SMGPS,-0.0 m,-0.01 m/s,7.55 VRx,0.014 km,9 m,103.0 °,1:-- (  0.0 km/h)*FE
$SMGPS2,-0.38 X,+0.15 Y,+0.94 Z,1 ENL,0 us*4E
$GNRMC,154753.90,A,4816.48031,N,01139.86998,E,0.07,,080522,,,A*55
$GNGGA,154753.90,4816.48031,N,01139.86998,E,1,12,0.61,484.4,M,46.2,M,,*4B
$GNGSA,A,3,01,08,21,10,27,32,23,22,16,14,,,1.04,0.61,0.85*1F
$GNVTG,,T,,M,0.067,N,0.125,K,A*3A
$SMGPS,-0.0 m,-0.01 m/s,7.57 VRx,0.014 km,9 m,103.0 °,1:-- (  0.0 km/h)*FC
$SMGPS2,-0.35 X,+0.16 Y,+0.92 Z,1 ENL,0 us*46
$GNRMC,154754.00,A,4816.48031,N,01139.86999,E,0.09,,080522,,,A*54
$GNGGA,154754.00,4816.48031,N,01139.86999,E,1,12,0.61,484.4,M,46.2,M,,*44
$GNGSA,A,3,01,08,21,10,27,32,23,22,16,14,,,1.04,0.61,0.85*1F
$GNVTG,,T,,M,0.090,N,0.166,K,A*35
$SMGPS,-0.0 m,-0.01 m/s,7.55 VRx,0.014 km,9 m,103.0 °,1:-- (  0.0 km/h)*FE
$SMGPS2,-0.35 X,+0.16 Y,+0.89 Z,1 ENL,0 us*4C
$GNRMC,154754.10,A,4816.48031,N,01139.87000,E,0.03,,080522,,,A*57
$GNGGA,154754.10,4816.48031,N,01139.87000,E,1,12,0.61,484.4,M,46.2,M,,*4D
$GNGSA,A,3,01,08,21,10,27,32,23,22,16,14,,,1.04,0.61,0.85*1F
$GNVTG,,T,,M,0.030,N,0.056,K,A*3D
$SMGPS,0.0 m,-0.01 m/s,7.57 VRx,0.014 km,9 m,103.0 °,1:-- (  0.0 km/h)*D1
$SMGPS2,-0.32 X,+0.13 Y,+0.89 Z,1 ENL,0 us*4E
$GNRMC,154754.20,A,4816.48031,N,01139.87001,E,0.10,,080522,,,A*57
$GNGGA,154754.20,4816.48031,N,01139.87001,E,1,12,0.61,484.4,M,46.2,M,,*4F
$GNGSA,A,3,01,08,21,10,27,32,23,22,16,14,,,1.04,0.61,0.85*1F
$GNVTG,,T,,M,0.096,N,0.178,K,A*3C
$SMGPS,-0.0 m,-0.01 m/s,7.55 VRx,0.014 km,9 m,103.0 °,1:-- (  0.0 km/h)*FE
$SMGPS2,-0.35 X,+0.11 Y,+0.92 Z,1 ENL,0 us*41
$GNRMC,154754.30,A,4816.48031,N,01139.87001,E,0.06,,080522,,,A*51
$GNGGA,154754.30,4816.48031,N,01139.87001,E,1,12,0.61,484.4,M,46.2,M,,*4E
$GNGSA,A,3,01,08,21,10,27,32,23,22,16,14,,,1.04,0.61,0.85*1F
$GNVTG,,T,,M,0.064,N,0.119,K,A*36
$SMGPS,-0.0 m,-0.00 m/s,7.58 VRx,0.014 km,9 m,103.0 °,1:-- (  0.0 km/h)*F2
$SMGPS2,-0.37 X,+0.14 Y,+0.93 Z,1 ENL,0 us*47
$GNRMC,154754.40,A,4816.48031,N,01139.87003,E,0.08,,080522,,,A*5A
$GNGGA,154754.40,4816.48031,N,01139.87003,E,1,12,0.61,484.4,M,46.2,M,,*4B
$GNGSA,A,3,01,08,21,10,27,32,23,22,16,14,,,1.04,0.61,0.85*1F
$GNVTG,,T,,M,0.076,N,0.140,K,A*39
$SMGPS,-0.0 m,-0.01 m/s,7.54 VRx,0.014 km,9 m,103.0 °,1:-- (  0.0 km/h)*FF
$SMGPS2,-0.39 X,+0.15 Y,+0.94 Z,1 ENL,0 us*4F
$GNRMC,154754.50,A,4816.48030,N,01139.87004,E,0.07,,080522,,,A*52
$GNGGA,154754.50,4816.48030,N,01139.87004,E,1,12,0.61,484.4,M,46.2,M,,*4C
$GNGSA,A,3,01,08,21,10,27,32,23,22,16,14,,,1.04,0.61,0.85*1F
$GNVTG,,T,,M,0.065,N,0.120,K,A*3D
$SMGPS,-0.0 m,-0.01 m/s,7.57 VRx,0.014 km,9 m,103.0 °,1:-- (  0.0 km/h)*FC
$SMGPS2,-0.36 X,+0.14 Y,+0.95 Z,1 ENL,0 us*40
$GNRMC,154754.60,A,4816.48030,N,01139.87004,E,0.04,,080522,,,A*52
$GNGGA,154754.60,4816.48030,N,01139.87004,E,1,12,0.61,484.4,M,46.2,M,,*4F
$GNGSA,A,3,01,08,21,10,27,32,23,22,16,14,,,1.04,0.61,0.85*1F
$GNVTG,,T,,M,0.042,N,0.078,K,A*34
$SMGPS,-0.0 m,-0.01 m/s,7.55 VRx,0.014 km,9 m,103.0 °,1:-- (  0.0 km/h)*FE
$SMGPS2,-0.33 X,+0.20 Y,+0.98 Z,0 ENL,0 us*4E
$GNRMC,154754.70,A,4816.48030,N,01139.87005,E,0.25,,080522,,,A*51
$GNGGA,154754.70,4816.48030,N,01139.87005,E,1,12,0.61,484.4,M,46.2,M,,*4F
$GNGSA,A,3,01,08,21,10,27,32,23,22,16,14,,,1.04,0.61,0.85*1F
$GNVTG,,T,,M,0.246,N,0.455,K,A*39
$SMGPS,0.0 m,-0.01 m/s,7.58 VRx,0.014 km,9 m,103.0 °,1:-- (  0.0 km/h)*DE
$SMGPS2,-0.31 X,+0.15 Y,+1.00 Z,0 ENL,0 us*4A
$GNRMC,154754.80,A,4816.48030,N,01139.87007,E,0.19,,080522,,,A*53
$GNGGA,154754.80,4816.48030,N,01139.87007,E,1,12,0.61,484.4,M,46.2,M,,*42
$GNGSA,A,3,01,08,21,10,27,32,23,22,16,14,,,1.04,0.61,0.85*1F
$GNVTG,,T,,M,0.189,N,0.350,K,A*3B
$SMGPS,0.0 m,+0.00 m/s,7.56 VRx,0.014 km,9 m,103.0 °,1:-- (  0.0 km/h)*D7
$SMGPS2,-0.26 X,+0.08 Y,+0.99 Z,0 ENL,0 us*41
$GNRMC,154754.90,A,4816.48031,N,01139.87007,E,0.37,,080522,,,A*5F
$GNGGA,154754.90,4816.48031,N,01139.87007,E,1,12,0.61,484.5,M,46.2,M,,*43
$GNGSA,A,3,01,08,21,10,27,32,23,22,16,14,,,1.04,0.61,0.85*1F
$GNVTG,,T,,M,0.366,N,0.678,K,A*37
$SMGPS,0.1 m,+0.02 m/s,7.56 VRx,0.014 km,10 m,102.8 °,1:-- (  0.0 km/h)*E5
$SMGPS2,-0.14 X,+0.01 Y,+0.97 Z,1 ENL,0 us*46
$GNRMC,154755.00,A,4816.48031,N,01139.87007,E,0.41,,080522,,,A*56
$GNGGA,154755.00,4816.48031,N,01139.87007,E,1,12,0.61,484.5,M,46.2,M,,*4B
$GNGSA,A,3,01,08,21,10,27,32,23,22,16,14,,,1.04,0.61,0.85*1F
$GNVTG,,T,,M,0.410,N,0.760,K,A*39
$SMGPS,0.1 m,+0.03 m/s,7.56 VRx,0.014 km,10 m,102.8 °,1:-- (  0.0 km/h)*E4
$SMGPS2,+0.02 X,+0.00 Y,+0.90 Z,0 ENL,0 us*40
$GNRMC,154755.10,A,4816.48031,N,01139.87011,E,1.30,115.49,080522,,,A*41
$GNGGA,154755.10,4816.48031,N,01139.87011,E,1,12,0.61,484.5,M,46.2,M,,*4D
$GNGSA,A,3,01,08,21,10,27,32,23,22,16,14,,,1.04,0.61,0.85*1F
$GNVTG,115.49,T,,M,1.295,N,2.398,K,A*24
$SMGPS,0.1 m,+0.06 m/s,7.56 VRx,0.014 km,10 m,102.8 °,1:-- (  0.0 km/h)*E1
$SMGPS2,-0.07 X,+0.04 Y,+0.78 Z,0 ENL,0 us*41
$GNRMC,154755.20,A,4816.48031,N,01139.87016,E,1.05,105.97,080522,,,A*41
$GNGGA,154755.20,4816.48031,N,01139.87016,E,1,12,0.61,484.5,M,46.2,M,,*49
$GNGSA,A,3,01,08,21,10,27,32,23,22,16,14,,,1.04,0.61,0.85*1F
$GNVTG,105.97,T,,M,1.041,N,1.928,K,A*2F
$SMGPS,0.1 m,+0.08 m/s,7.56 VRx,0.014 km,10 m,102.8 °,1:-- (  0.0 km/h)*EF
$SMGPS2,-0.12 X,+0.04 Y,+0.91 Z,1 ENL,0 us*43
$GNRMC,154755.30,A,4816.48032,N,01139.87022,E,1.38,87.91,080522,,,A*77
$GNGGA,154755.30,4816.48032,N,01139.87022,E,1,12,0.61,484.5,M,46.2,M,,*4C
$GNGSA,A,3,01,08,21,10,27,32,23,22,16,14,,,1.04,0.61,0.85*1F
$GNVTG,87.91,T,,M,1.370,N,2.537,K,A*12
$SMGPS,0.1 m,+0.10 m/s,7.57 VRx,0.014 km,10 m,102.8 °,1:-- (  0.0 km/h)*E7
$SMGPS2,-0.24 X,-0.12 Y,+1.00 Z,1 ENL,0 us*4E
$GNRMC,154755.40,A,4816.48033,N,01139.87028,E,1.17,92.75,080522,,,A*78
$GNGGA,154755.40,4816.48033,N,01139.87028,E,1,12,0.61,484.5,M,46.2,M,,*40
$GNGSA,A,3,01,08,21,10,27,32,23,22,16,14,,,1.04,0.61,0.85*1F
$GNVTG,92.75,T,,M,1.152,N,2.134,K,A*19
