$GPSSETUP,8AE8,0,1,1,0,0,1,0,0,0,1,3,0,0,0,0,6,0,C8,C8,1F4,1C2,32,64,7C,64,7D0,5,1,1,1E,0,0,0,0,0,0,1003,4,10,5,6,10,10,10,10,10,10,10,10,10,BC10,0,80,0,108,302,604,0,20F,0,0,0,0,0,0,0,0,0,0,0,0,0,0,0,0,0,0,0,0,0,0,0,0,0,0,0,0,0,0,0,0,0,20,12C,1EC6*46
$GNRMC,172944.80,A,4816.47891,N,01139.86672,E,0.78,,080522,,,A,V*2C
$GNGNS,172944.80,4816.47891,N,01139.86672,E,AAAN,10,1.12,480.2,46.2,,,V*1A
$GNGSA,A,3,03,08,10,21,01,32,,,,,,,1.97,1.12,1.61,1*03
$GNGSA,A,3,66,,,,,,,,,,,,2.15,1.33,1.69,2*0B
$GNGSA,A,3,,,,,,,,,,,,,2.15,1.33,1.69,3*0A
$GNVTG,,T,,M,0.781,N,1.447,K,A*35
$SMGPS,-0.1 m,-0.03 m/s,7.12 VRx,0.000 km,1 m,341.6 °,1:-- (  0.0 km/h),480.3 m*B1
$SMGPS2,-0.03 X,+0.17 Y,+1.03 Z,1 ENL,0 us,0.0 kmh,967.37 hPa,967.24 hPa,-0.03 m/s*08
$GNRMC,172944.90,A,4816.47878,N,01139.86675,E,0.61,,080522,,,A,V*25
$GNGNS,172944.90,4816.47878,N,01139.86675,E,AAAN,09,1.20,480.2,46.2,,,V*12
$GNGSA,A,3,03,08,10,21,01,,,,,,,,2.01,1.20,1.60,1*0E
$GNGSA,A,3,66,,,,,,,,,,,,1.97,1.12,1.61,2*09
$GNGSA,A,3,15,05,03,,,,,,,,,,1.97,1.12,1.61,3*0A
$GNVTG,,T,,M,0.609,N,1.128,K,A*38
$SMGPS,-0.1 m,-0.04 m/s,7.12 VRx,0.000 km,3 m,338.0 °,1:-- (  0.0 km/h),480.3 m*BC
$SMGPS2,-0.16 X,-0.05 Y,+0.98 Z,3 ENL,0 us,0.0 kmh,967.37 hPa,967.24 hPa,-0.05 m/s*0E
$GNRMC,172945.00,A,4816.47851,N,01139.86691,E,0.98,,080522,,,A,V*2A
$GNGNS,172945.00,4816.47851,N,01139.86691,E,AAAN,11,1.06,480.2,46.2,,,V*16
$GNGSA,A,3,03,08,10,21,01,27,,,,,,,1.70,1.06,1.33,1*0C
$GNGSA,A,3,66,,,,,,,,,,,,2.01,1.20,1.60,2*05
$GNGSA,A,3,34,05,03,,,,,,,,,,2.01,1.20,1.60,3*05
$GNVTG,,T,,M,0.973,N,1.802,K,A*3B
$SMGPS,-0.1 m,-0.05 m/s,7.08 VRx,0.000 km,3 m,338.0 °,1:-- (  0.0 km/h),479.4 m*B7
$SMGPS2,-0.21 X,-0.14 Y,+0.95 Z,2 ENL,0 us,0.0 kmh,967.38 hPa,967.24 hPa,-0.05 m/s*09
$GNRMC,172945.10,A,4816.47812,N,01139.86723,E,0.45,,080522,,,A,V*24
$GNGNS,172945.10,4816.47812,N,01139.86723,E,AAAN,09,1.10,480.2,46.2,,,V*16
$GNGSA,A,3,03,08,10,01,27,,,,,,,,1.84,1.10,1.47,1*00
$GNGSA,A,3,66,81,,,,,,,,,,,1.70,1.06,1.33,2*0B
$GNGSA,A,3,34,05,03,,,,,,,,,,1.70,1.06,1.33,3*02
$GNVTG,,T,,M,0.435,N,0.805,K,A*32
$SMGPS,-0.1 m,-0.06 m/s,7.05 VRx,0.000 km,2 m,336.6 °,1:-- (  0.0 km/h),478.8 m*BD
$SMGPS2,-0.19 X,-0.11 Y,+1.01 Z,1 ENL,0 us,0.0 kmh,967.38 hPa,967.25 hPa,-0.06 m/s*0A
$GNRMC,172945.20,A,4816.47781,N,01139.86728,E,0.35,,080522,,,A,V*2E
$GNGNS,172945.20,4816.47781,N,01139.86728,E,AAAN,14,0.95,480.2,46.2,,,V*1B
$GNGSA,A,3,03,08,10,21,01,22,32,27,,,,,1.61,0.95,1.30,1*05
$GNGSA,A,3,66,,,,,,,,,,,,1.84,1.10,1.47,2*0D
$GNGSA,A,3,34,05,03,,,,,,,,,,1.84,1.10,1.47,3*0D
$GNVTG,,T,,M,0.330,N,0.611,K,A*3B
$SMGPS,-0.1 m,-0.07 m/s,7.08 VRx,0.000 km,1 m,336.1 °,1:-- (  0.0 km/h),478.1 m*BC
$SMGPS2,-0.18 X,-0.07 Y,+0.95 Z,1 ENL,0 us,0.0 kmh,967.38 hPa,967.24 hPa,-0.07 m/s*00
$GNRMC,172945.30,A,4816.47759,N,01139.86729,E,0.15,,080522,,,A,V*29
$GNGNS,172945.30,4816.47759,N,01139.86729,E,AAAN,15,0.77,480.2,46.2,,,V*13
$GNGSA,A,3,03,08,10,21,01,22,32,27,17,,,,1.25,0.77,0.99,1*0D
$GNGSA,A,3,66,81,,,,,,,,,,,1.61,0.95,1.30,2*03
$GNGSA,A,3,15,34,05,03,,,,,,,,,1.61,0.95,1.30,3*0E
$GNVTG,,T,,M,0.047,N,0.086,K,A*30
$SMGPS,-0.1 m,-0.07 m/s,7.05 VRx,0.000 km,1 m,341.6 °,1:-- (  0.0 km/h),477.1 m*B9
$SMGPS2,-0.14 X,-0.04 Y,+0.95 Z,1 ENL,0 us,0.0 kmh,967.38 hPa,967.24 hPa,-0.07 m/s*0F
$GNRMC,172945.40,A,4816.47734,N,01139.86746,E,0.22,,080522,,,A,V*28
$GNGNS,172945.40,4816.47734,N,01139.86746,E,AAAN,16,0.74,480.3,46.2,,,V*17
$GNGSA,A,3,03,08,10,21,01,22,32,27,17,,,,1.19,0.74,0.93,1*0B
$GNGSA,A,3,66,81,,,,,,,,,,,1.25,0.77,0.99,2*0D
$GNGSA,A,3,15,34,05,03,,,,,,,,,1.25,0.77,0.99,3*00
$GNVTG,,T,,M,0.154,N,0.285,K,A*32
$SMGPS,-0.0 m,-0.08 m/s,7.08 VRx,0.000 km,0 m,270.0 °,1:-- (  0.0 km/h),475.9 m*B4
$SMGPS2,-0.16 X,-0.03 Y,+1.01 Z,1 ENL,0 us,0.0 kmh,967.37 hPa,967.24 hPa,-0.07 m/s*09
$GNRMC,172945.50,A,4816.47735,N,01139.86755,E,0.19,,080522,,,A,V*22
$GNGNS,172945.50,4816.47735,N,01139.86755,E,AAAN,17,0.72,480.2,46.2,,,V*13
$GNGSA,A,3,03,08,10,21,01,22,32,27,17,,,,1.18,0.72,0.93,1*0C
$GNGSA,A,3,66,81,,,,,,,,,,,1.19,0.74,0.93,2*0B
$GNGSA,A,3,15,34,05,03,09,,,,,,,,1.19,0.74,0.93,3*0F
$GNVTG,,T,,M,0.119,N,0.220,K,A*34
$SMGPS,-0.1 m,-0.08 m/s,7.05 VRx,0.000 km,0 m,270.0 °,1:-- (  0.0 km/h),475.4 m*B5
$SMGPS2,-0.16 X,-0.10 Y,+0.93 Z,2 ENL,0 us,0.0 kmh,967.38 hPa,967.24 hPa,-0.07 m/s*0D
$GNRMC,172945.60,A,4816.47737,N,01139.86780,E,0.46,,080522,,,A,V*21
$GNGNS,172945.60,4816.47737,N,01139.86780,E,AAAN,17,0.72,480.3,46.2,,,V*1B
$GNGSA,A,3,03,08,10,21,01,22,32,27,17,,,,1.18,0.72,0.93,1*0C
$GNGSA,A,3,66,81,88,,,,,,,,,,1.18,0.72,0.93,2*0C
$GNGSA,A,3,15,34,05,03,09,,,,,,,,1.18,0.72,0.93,3*08
$GNVTG,,T,,M,0.439,N,0.813,K,A*39
$SMGPS,0.0 m,-0.08 m/s,7.09 VRx,0.000 km,0 m,270.0 °,1:-- (  0.0 km/h),475.5 m*94
$SMGPS2,-0.21 X,-0.19 Y,+0.94 Z,1 ENL,0 us,0.0 kmh,967.37 hPa,967.25 hPa,-0.07 m/s*0A
$GNRMC,172945.70,A,4816.47739,N,01139.86788,E,0.19,,080522,,,A,V*2C
$GNGNS,172945.70,4816.47739,N,01139.86788,E,AAAN,17,0.72,480.3,46.2,,,V*1C
$GNGSA,A,3,03,08,10,21,01,22,32,27,17,,,,1.18,0.72,0.93,1*0C
$GNGSA,A,3,66,81,88,,,,,,,,,,1.18,0.72,0.93,2*0C
$GNGSA,A,3,15,34,05,03,09,,,,,,,,1.18,0.72,0.93,3*08
$GNVTG,,T,,M,0.113,N,0.210,K,A*3D
$SMGPS,-0.0 m,-0.08 m/s,7.08 VRx,0.000 km,0 m,90.0 °,1:-- (  0.0 km/h),476.0 m*82
$SMGPS2,-0.27 X,-0.23 Y,+1.00 Z,1 ENL,0 us,0.0 kmh,967.38 hPa,967.25 hPa,-0.07 m/s*06
$GNRMC,172945.80,A,4816.47739,N,01139.86790,E,0.49,,080522,,,A,V*2F
$GNGNS,172945.80,4816.47739,N,01139.86790,E,AAAN,18,0.68,480.3,46.2,,,V*1E
$GNGSA,A,3,03,08,10,21,01,22,32,14,27,17,,,1.12,0.68,0.89,1*03
$GNGSA,A,3,66,81,88,,,,,,,,,,1.18,0.72,0.93,2*0C
$GNGSA,A,3,15,34,05,03,09,,,,,,,,1.18,0.72,0.93,3*08
$GNVTG,,T,,M,0.474,N,0.878,K,A*3D
$SMGPS,-0.0 m,-0.07 m/s,7.08 VRx,0.000 km,0 m,90.0 °,1:-- (  0.0 km/h),476.1 m*8C
$SMGPS2,-0.27 X,-0.24 Y,+1.01 Z,1 ENL,0 us,0.0 kmh,967.38 hPa,967.25 hPa,-0.07 m/s*00
$GNRMC,172945.90,A,4816.47751,N,01139.86774,E,0.20,,080522,,,A,V*25
$GNGNS,172945.90,4816.47751,N,01139.86774,E,AAAN,18,0.68,480.3,46.2,,,V*1B
$GNGSA,A,3,03,08,10,21,01,22,32,14,27,17,,,1.12,0.68,0.89,1*03
$GNGSA,A,3,66,81,88,,,,,,,,,,1.12,0.68,0.89,2*06
$GNGSA,A,3,15,34,05,03,09,,,,,,,,1.12,0.68,0.89,3*02
$GNVTG,,T,,M,0.147,N,0.272,K,A*38
$SMGPS,-0.0 m,-0.07 m/s,7.06 VRx,0.000 km,0 m,90.0 °,1:-- (  0.0 km/h),475.8 m*88
$SMGPS2,-0.13 X,-0.07 Y,+1.00 Z,1 ENL,0 us,0.0 kmh,967.38 hPa,967.24 hPa,-0.07 m/s*06
$GNRMC,172946.00,A,4816.47760,N,01139.86745,E,0.24,,080522,,,A,V*2B
$GNGNS,172946.00,4816.47760,N,01139.86745,E,AAAN,18,0.68,480.3,46.2,,,V*11
$GNGSA,A,3,03,08,10,21,01,22,32,14,27,17,,,1.12,0.68,0.89,1*03
$GNGSA,A,3,66,81,88,,,,,,,,,,1.12,0.68,0.89,2*06
$GNGSA,A,3,15,34,05,03,09,,,,,,,,1.12,0.68,0.89,3*02
$GNVTG,,T,,M,0.208,N,0.385,K,A*39
$SMGPS,0.0 m,-0.06 m/s,7.07 VRx,0.000 km,0 m,90.0 °,1:-- (  0.0 km/h),475.4 m*A9
$SMGPS2,+0.06 X,+0.06 Y,+0.91 Z,1 ENL,0 us,0.0 kmh,967.38 hPa,967.25 hPa,-0.07 m/s*0B
$GNRMC,172946.10,A,4816.47766,N,01139.86735,E,0.14,,080522,,,A,V*28
$GNGNS,172946.10,4816.47766,N,01139.86735,E,AAAN,18,0.68,480.3,46.2,,,V*11
$GNGSA,A,3,03,08,10,21,01,22,32,14,27,17,,,1.12,0.68,0.88,1*02
$GNGSA,A,3,66,81,88,,,,,,,,,,1.12,0.68,0.89,2*06
$GNGSA,A,3,15,34,05,03,09,,,,,,,,1.12,0.68,0.89,3*02
$GNVTG,,T,,M,0.096,N,0.178,K,A*3C
$SMGPS,0.0 m,-0.05 m/s,7.05 VRx,0.000 km,0 m,270.0 °,1:-- (  0.0 km/h),474.6 m*97
$SMGPS2,+0.16 X,+0.15 Y,+0.91 Z,2 ENL,0 us,0.0 kmh,967.37 hPa,967.24 hPa,-0.06 m/s*04
$GNRMC,172946.20,A,4816.47797,N,01139.86695,E,0.51,,080522,,,A,V*2F
$GNGNS,172946.20,4816.47797,N,01139.86695,E,AAAN,18,0.67,480.3,46.2,,,V*18
$GNGSA,A,3,03,08,10,21,01,22,32,14,27,17,,,1.09,0.67,0.86,1*09
$GNGSA,A,3,66,81,65,88,,,,,,,,,1.12,0.68,0.88,2*04
$GNGSA,A,3,15,34,05,09,,,,,,,,,1.12,0.68,0.88,3*00
$GNVTG,,T,,M,0.504,N,0.933,K,A*35
$SMGPS,0.0 m,-0.04 m/s,7.08 VRx,0.000 km,0 m,270.0 °,1:-- (  0.0 km/h),474.0 m*9D
$SMGPS2,+0.18 X,+0.24 Y,+0.98 Z,1 ENL,0 us,0.0 kmh,967.37 hPa,967.24 hPa,-0.05 m/s*01
$GNRMC,172946.30,A,4816.47813,N,01139.86683,E,0.60,,080522,,,A,V*28
$GNGNS,172946.30,4816.47813,N,01139.86683,E,AAAN,19,0.65,480.3,46.2,,,V*1E
$GNGSA,A,3,03,08,10,21,01,22,32,14,27,17,,,1.07,0.65,0.85,1*06
$GNGSA,A,3,66,81,65,,,,,,,,,,1.09,0.67,0.86,2*0F
$GNGSA,A,3,15,34,05,21,09,,,,,,,,1.09,0.67,0.86,3*08
$GNVTG,,T,,M,0.598,N,1.108,K,A*31
$SMGPS,0.0 m,-0.03 m/s,7.04 VRx,0.000 km,2 m,324.2 °,1:-- (  0.0 km/h),474.1 m*97
$SMGPS2,+0.19 X,+0.22 Y,+0.95 Z,2 ENL,0 us,0.0 kmh,967.37 hPa,967.24 hPa,-0.04 m/s*09
$GNRMC,172946.40,A,4816.47833,N,01139.86669,E,0.81,,080522,,,A,V*26
$GNGNS,172946.40,4816.47833,N,01139.86669,E,AAAN,19,0.65,480.3,46.2,,,V*1F
$GNGSA,A,3,03,08,10,21,01,22,32,14,27,17,,,1.07,0.65,0.85,1*06
$GNGSA,A,3,66,81,65,,,,,,,,,,1.07,0.65,0.85,2*00
$GNGSA,A,3,15,34,05,03,21,09,,,,,,,1.07,0.65,0.85,3*04
$GNVTG,,T,,M,0.804,N,1.490,K,A*3D
$SMGPS,-0.0 m,-0.02 m/s,7.08 VRx,0.000 km,2 m,320.2 °,1:-- (  0.0 km/h),474.1 m*B3
$SMGPS2,+0.12 X,+0.32 Y,+0.97 Z,2 ENL,0 us,0.0 kmh,967.37 hPa,967.24 hPa,-0.03 m/s*06
$GNRMC,172946.50,A,4816.47842,N,01139.86674,E,0.99,,080522,,,A,V*24
$GNGNS,172946.50,4816.47842,N,01139.86674,E,AAAN,19,0.65,480.3,46.2,,,V*14
$GNGSA,A,3,03,08,10,21,01,22,32,14,27,17,,,1.07,0.65,0.85,1*06
$GNGSA,A,3,66,81,65,,,,,,,,,,1.07,0.65,0.85,2*00
$GNGSA,A,3,15,34,05,03,21,09,,,,,,,1.07,0.65,0.85,3*04
$GNVTG,,T,,M,0.987,N,1.827,K,A*37
$SMGPS,0.0 m,-0.01 m/s,7.05 VRx,0.000 km,2 m,330.5 °,1:-- (  0.0 km/h),474.0 m*97
$SMGPS2,+0.11 X,+0.38 Y,+0.95 Z,2 ENL,0 us,0.0 kmh,967.37 hPa,967.24 hPa,-0.02 m/s*0C
$GNRMC,172946.60,A,4816.47853,N,01139.86675,E,0.25,,080522,,,A,V*21
$GNGNS,172946.60,4816.47853,N,01139.86675,E,AAAN,19,0.65,480.3,46.2,,,V*16
$GNGSA,A,3,03,08,10,21,01,22,32,14,27,17,,,1.07,0.65,0.85,1*06
$GNGSA,A,3,66,81,65,,,,,,,,,,1.07,0.65,0.85,2*00
$GNGSA,A,3,15,34,05,03,21,09,,,,,,,1.07,0.65,0.85,3*04
$GNVTG,,T,,M,0.247,N,0.457,K,A*3A
$SMGPS,0.0 m,+0.00 m/s,7.08 VRx,0.000 km,2 m,330.5 °,1:-- (  0.0 km/h),473.8 m*92
$SMGPS2,+0.09 X,+0.41 Y,+0.86 Z,2 ENL,0 us,0.0 kmh,967.37 hPa,967.24 hPa,-0.01 m/s*0A
$GNRMC,172946.70,A,4816.47865,N,01139.86670,E,0.31,,080522,,,A,V*25
$GNGNS,172946.70,4816.47865,N,01139.86670,E,AAAN,19,0.65,480.3,46.2,,,V*17
$GNGSA,A,3,03,08,10,21,01,22,32,14,27,17,,,1.07,0.65,0.85,1*06
$GNGSA,A,3,66,81,65,,,,,,,,,,1.07,0.65,0.85,2*00
$GNGSA,A,3,15,34,05,03,21,09,,,,,,,1.07,0.65,0.85,3*04
$GNVTG,,T,,M,0.306,N,0.567,K,A*3C
$SMGPS,0.0 m,+0.01 m/s,7.05 VRx,0.000 km,2 m,330.5 °,1:-- (  0.0 km/h),473.7 m*91
$SMGPS2,+0.07 X,+0.29 Y,+0.81 Z,2 ENL,0 us,0.0 kmh,967.36 hPa,967.24 hPa,+0.01 m/s*0A
$GNRMC,172946.80,A,4816.47875,N,01139.86673,E,0.45,,080522,,,A,V*2B
$GNGNS,172946.80,4816.47875,N,01139.86673,E,AAAN,19,0.65,480.4,46.2,,,V*1D
$GNGSA,A,3,03,08,10,21,01,22,32,14,27,17,,,1.07,0.65,0.85,1*06
$GNGSA,A,3,66,81,65,,,,,,,,,,1.07,0.65,0.85,2*00
$GNGSA,A,3,15,34,05,03,21,09,,,,,,,1.07,0.65,0.85,3*04
$GNVTG,,T,,M,0.446,N,0.827,K,A*36
$SMGPS,0.1 m,+0.02 m/s,7.07 VRx,0.000 km,2 m,330.5 °,1:-- (  0.0 km/h),473.6 m*90
$SMGPS2,-0.10 X,+0.28 Y,+0.89 Z,2 ENL,0 us,0.0 kmh,967.36 hPa,967.23 hPa,+0.01 m/s*04
$GNRMC,172946.90,A,4816.47879,N,01139.86683,E,0.60,,080522,,,A,V*2E
$GNGNS,172946.90,4816.47879,N,01139.86683,E,AAAN,19,0.65,480.3,46.2,,,V*18
$GNGSA,A,3,03,08,10,21,01,22,32,14,27,17,,,1.07,0.65,0.85,1*06
$GNGSA,A,3,66,81,65,,,,,,,,,,1.07,0.65,0.85,2*00
$GNGSA,A,3,15,34,05,03,21,09,,,,,,,1.07,0.65,0.85,3*04
$GNVTG,,T,,M,0.591,N,1.094,K,A*3C
$SMGPS,0.0 m,+0.04 m/s,7.06 VRx,0.000 km,2 m,330.5 °,1:-- (  0.0 km/h),473.7 m*97
$SMGPS2,-0.13 X,+0.28 Y,+0.91 Z,1 ENL,0 us,0.0 kmh,967.36 hPa,967.23 hPa,+0.04 m/s*08
$GNRMC,172947.00,A,4816.47882,N,01139.86691,E,0.13,,080522,,,A,V*25
$GNGNS,172947.00,4816.47882,N,01139.86691,E,AAAN,19,0.65,480.3,46.2,,,V*17
$GNGSA,A,3,03,08,10,21,01,22,32,14,27,17,,,1.07,0.65,0.85,1*06
$GNGSA,A,3,66,81,65,,,,,,,,,,1.07,0.65,0.85,2*00
$GNGSA,A,3,15,34,05,03,21,09,,,,,,,1.07,0.65,0.85,3*04
$GNVTG,,T,,M,0.096,N,0.178,K,A*3C
$SMGPS,0.0 m,+0.04 m/s,7.08 VRx,0.000 km,3 m,340.4 °,1:-- (  0.0 km/h),473.6 m*9F
$SMGPS2,-0.17 X,+0.23 Y,+0.85 Z,3 ENL,0 us,0.0 kmh,967.36 hPa,967.23 hPa,+0.04 m/s*00
$GNRMC,172947.10,A,4816.47884,N,01139.86688,E,0.21,,080522,,,A,V*2B
$GNGNS,172947.10,4816.47884,N,01139.86688,E,AAAN,19,0.65,480.3,46.2,,,V*18
$GNGSA,A,3,03,08,10,21,01,22,32,14,27,17,,,1.07,0.65,0.85,1*06
$GNGSA,A,3,66,81,65,,,,,,,,,,1.07,0.65,0.85,2*00
$GNGSA,A,3,15,34,05,03,21,09,,,,,,,1.07,0.65,0.85,3*04
$GNVTG,,T,,M,0.181,N,0.336,K,A*33
$SMGPS,0.0 m,+0.06 m/s,7.05 VRx,0.000 km,3 m,342.8 °,1:-- (  0.0 km/h),473.5 m*9D
$SMGPS2,-0.05 X,+0.26 Y,+0.95 Z,1 ENL,0 us,0.0 kmh,967.36 hPa,967.23 hPa,+0.04 m/s*05
$GNRMC,172947.20,A,4816.47884,N,01139.86686,E,0.17,,080522,,,A,V*23
$GNGNS,172947.20,4816.47884,N,01139.86686,E,AAAN,19,0.65,480.3,46.2,,,V*15
$GNGSA,A,3,03,08,10,21,01,22,32,14,27,17,,,1.07,0.65,0.85,1*06
$GNGSA,A,3,66,81,65,,,,,,,,,,1.07,0.65,0.85,2*00
$GNGSA,A,3,15,34,05,03,21,09,,,,,,,1.07,0.65,0.85,3*04
$GNVTG,,T,,M,0.131,N,0.242,K,A*3A
$SMGPS,-0.0 m,+0.06 m/s,7.07 VRx,0.000 km,3 m,340.4 °,1:-- (  0.0 km/h),473.4 m*BD
$SMGPS2,-0.10 X,+0.27 Y,+0.93 Z,2 ENL,0 us,0.0 kmh,967.36 hPa,967.23 hPa,+0.05 m/s*04
$GNRMC,172947.30,A,4816.47885,N,01139.86685,E,0.18,,080522,,,A,V*2F
$GNGNS,172947.30,4816.47885,N,01139.86685,E,AAAN,19,0.65,480.3,46.2,,,V*16
$GNGSA,A,3,03,08,10,21,01,22,32,14,27,17,,,1.07,0.65,0.85,1*06
$GNGSA,A,3,66,81,65,,,,,,,,,,1.07,0.65,0.85,2*00
$GNGSA,A,3,15,34,05,03,21,09,,,,,,,1.07,0.65,0.85,3*04
$GNVTG,,T,,M,0.136,N,0.251,K,A*3F
$SMGPS,0.0 m,+0.06 m/s,7.06 VRx,0.000 km,3 m,340.4 °,1:-- (  0.0 km/h),473.1 m*94
$SMGPS2,-0.09 X,+0.28 Y,+0.85 Z,1 ENL,0 us,0.0 kmh,967.36 hPa,967.23 hPa,+0.06 m/s*04
$GNRMC,172947.40,A,4816.47886,N,01139.86690,E,0.34,,080522,,,A,V*21
$GNGNS,172947.40,4816.47886,N,01139.86690,E,AAAN,20,0.64,480.3,46.2,,,V*1D
$GNGSA,A,3,03,08,10,21,01,22,32,14,27,17,,,1.07,0.64,0.85,1*07
$GNGSA,A,3,66,81,65,,,,,,,,,,1.07,0.65,0.85,2*00
$GNGSA,A,3,15,34,05,03,21,09,,,,,,,1.07,0.65,0.85,3*04
$GNVTG,,T,,M,0.316,N,0.585,K,A*31
$SMGPS,0.0 m,+0.07 m/s,7.07 VRx,0.000 km,3 m,340.4 °,1:-- (  0.0 km/h),472.9 m*9D
$SMGPS2,-0.14 X,+0.23 Y,+0.93 Z,1 ENL,0 us,0.0 kmh,967.36 hPa,967.23 hPa,+0.06 m/s*04
$GNRMC,172947.50,A,4816.47891,N,01139.86690,E,0.26,,080522,,,A,V*25
$GNGNS,172947.50,4816.47891,N,01139.86690,E,AAAN,20,0.64,480.3,46.2,,,V*1A
$GNGSA,A,3,03,08,10,21,01,22,32,14,27,17,,,1.07,0.64,0.85,1*07
$GNGSA,A,3,66,81,65,88,,,,,,,,,1.07,0.64,0.85,2*01
$GNGSA,A,3,15,34,05,03,21,09,,,,,,,1.07,0.64,0.85,3*05
$GNVTG,,T,,M,0.221,N,0.409,K,A*31
$SMGPS,0.0 m,+0.07 m/s,7.05 VRx,0.000 km,3 m,342.8 °,1:-- (  0.0 km/h),472.7 m*9F
$SMGPS2,-0.12 X,+0.24 Y,+0.95 Z,2 ENL,0 us,0.0 kmh,967.36 hPa,967.23 hPa,+0.06 m/s*00
$GNRMC,172947.60,A,4816.47897,N,01139.86692,E,0.18,,080522,,,A,V*2F
$GNGNS,172947.60,4816.47897,N,01139.86692,E,AAAN,19,0.65,480.3,46.2,,,V*16
$GNGSA,A,3,03,08,10,21,01,22,32,14,27,17,,,1.07,0.65,0.85,1*06
$GNGSA,A,3,66,81,65,88,,,,,,,,,1.07,0.64,0.85,2*01
$GNGSA,A,3,15,34,05,03,21,09,,,,,,,1.07,0.64,0.85,3*05
$GNVTG,,T,,M,0.117,N,0.217,K,A*3E
$SMGPS,0.0 m,+0.07 m/s,7.08 VRx,0.000 km,3 m,342.8 °,1:-- (  0.0 km/h),472.6 m*93
$SMGPS2,-0.11 X,+0.30 Y,+0.94 Z,2 ENL,0 us,0.0 kmh,967.35 hPa,967.23 hPa,+0.05 m/s*07
$GNRMC,172947.70,A,4816.47900,N,01139.86693,E,0.18,,080522,,,A,V*20
$GNGNS,172947.70,4816.47900,N,01139.86693,E,AAAN,19,0.65,480.3,46.2,,,V*19
$GNGSA,A,3,03,08,10,21,01,22,32,14,27,17,,,1.07,0.65,0.85,1*06
$GNGSA,A,3,66,81,65,,,,,,,,,,1.07,0.65,0.85,2*00
$GNGSA,A,3,15,34,05,03,21,09,,,,,,,1.07,0.65,0.85,3*04
$GNVTG,,T,,M,0.134,N,0.249,K,A*34
$SMGPS,-0.0 m,+0.06 m/s,7.05 VRx,0.000 km,3 m,342.8 °,1:-- (  0.0 km/h),472.6 m*B2
$SMGPS2,-0.10 X,+0.27 Y,+0.92 Z,1 ENL,0 us,0.0 kmh,967.36 hPa,967.23 hPa,+0.05 m/s*06
$GNRMC,172947.80,A,4816.47901,N,01139.86694,E,0.21,,080522,,,A,V*23
$GNGNS,172947.80,4816.47901,N,01139.86694,E,AAAN,19,0.65,480.3,46.2,,,V*10
$GNGSA,A,3,03,08,10,21,01,22,32,14,27,17,,,1.07,0.65,0.85,1*06
$GNGSA,A,3,66,81,65,,,,,,,,,,1.07,0.65,0.85,2*00
$GNGSA,A,3,15,34,05,03,21,09,,,,,,,1.07,0.65,0.85,3*04
$GNVTG,,T,,M,0.181,N,0.336,K,A*33
$SMGPS,0.0 m,+0.06 m/s,7.07 VRx,0.000 km,3 m,342.8 °,1:-- (  0.0 km/h),472.5 m*9E
$SMGPS2,-0.07 X,+0.23 Y,+0.93 Z,2 ENL,0 us,0.0 kmh,967.36 hPa,967.23 hPa,+0.04 m/s*07
$GNRMC,172947.90,A,4816.47903,N,01139.86696,E,0.13,,080522,,,A,V*23
$GNGNS,172947.90,4816.47903,N,01139.86696,E,AAAN,19,0.65,480.3,46.2,,,V*11
$GNGSA,A,3,03,08,10,21,01,22,32,14,27,17,,,1.07,0.65,0.85,1*06
$GNGSA,A,3,66,81,65,,,,,,,,,,1.07,0.65,0.85,2*00
$GNGSA,A,3,15,34,05,03,21,09,,,,,,,1.07,0.65,0.85,3*04
$GNVTG,,T,,M,0.072,N,0.132,K,A*38
$SMGPS,0.0 m,+0.06 m/s,7.04 VRx,0.000 km,3 m,342.8 °,1:-- (  0.0 km/h),472.4 m*9C
$SMGPS2,-0.07 X,+0.21 Y,+0.94 Z,1 ENL,0 us,0.0 kmh,967.36 hPa,967.23 hPa,+0.04 m/s*01
$GNRMC,172948.00,A,4816.47907,N,01139.86692,E,0.18,,080522,,,A,V*2E
$GNGNS,172948.00,4816.47907,N,01139.86692,E,AAAN,19,0.65,480.3,46.2,,,V*17
$GNGSA,A,3,03,08,10,21,01,22,32,14,27,17,,,1.07,0.65,0.85,1*06
$GNGSA,A,3,66,81,65,,,,,,,,,,1.07,0.65,0.85,2*00
$GNGSA,A,3,15,34,05,03,21,09,,,,,,,1.07,0.65,0.85,3*04
$GNVTG,,T,,M,0.145,N,0.268,K,A*31
$SMGPS,0.0 m,+0.05 m/s,7.07 VRx,0.000 km,3 m,342.8 °,1:-- (  0.0 km/h),472.2 m*9A
$SMGPS2,-0.11 X,+0.19 Y,+0.99 Z,1 ENL,0 us,0.0 kmh,967.36 hPa,967.23 hPa,+0.03 m/s*07
$GNRMC,172948.10,A,4816.47911,N,01139.86693,E,0.16,,080522,,,A,V*27
$GNGNS,172948.10,4816.47911,N,01139.86693,E,AAAN,21,0.61,480.3,46.2,,,V*1F
$GNGSA,A,3,03,08,10,21,01,22,32,14,27,17,,,1.02,0.61,0.82,1*00
$GNGSA,A,3,66,81,65,,,,,,,,,,1.07,0.65,0.85,2*00
$GNGSA,A,3,15,34,05,03,21,09,,,,,,,1.07,0.65,0.85,3*04
$GNVTG,,T,,M,0.128,N,0.236,K,A*31
$SMGPS,0.0 m,+0.05 m/s,7.05 VRx,0.000 km,3 m,342.8 °,1:-- (  0.0 km/h),472.2 m*98
$SMGPS2,-0.09 X,+0.15 Y,+0.98 Z,1 ENL,0 us,0.0 kmh,967.36 hPa,967.23 hPa,+0.03 m/s*03
$GNRMC,172948.20,A,4816.47916,N,01139.86693,E,0.24,,080522,,,A,V*22
$GNGNS,172948.20,4816.47916,N,01139.86693,E,AAAN,21,0.61,480.3,46.2,,,V*1B
$GNGSA,A,3,03,08,10,21,01,22,32,14,27,17,,,1.02,0.61,0.82,1*00
$GNGSA,A,3,66,81,65,88,,,,,,,,,1.02,0.61,0.82,2*06
$GNGSA,A,3,15,34,05,03,21,09,27,,,,,,1.02,0.61,0.82,3*07
$GNVTG,,T,,M,0.220,N,0.408,K,A*31
$SMGPS,0.0 m,+0.04 m/s,7.06 VRx,0.000 km,3 m,342.8 °,1:-- (  0.0 km/h),472.3 m*9B
$SMGPS2,-0.03 X,+0.20 Y,+0.95 Z,1 ENL,0 us,0.0 kmh,967.35 hPa,967.23 hPa,+0.02 m/s*00
$GNRMC,172948.30,A,4816.47920,N,01139.86691,E,0.20,,080522,,,A,V*20
$GNGNS,172948.30,4816.47920,N,01139.86691,E,AAAN,21,0.61,480.3,46.2,,,V*1D
$GNGSA,A,3,03,08,10,21,01,22,32,14,27,17,,,1.02,0.61,0.82,1*00
$GNGSA,A,3,66,81,65,88,,,,,,,,,1.02,0.61,0.82,2*06
$GNGSA,A,3,15,34,05,03,21,09,27,,,,,,1.02,0.61,0.82,3*07
$GNVTG,,T,,M,0.188,N,0.347,K,A*3C
$SMGPS,-0.0 m,+0.04 m/s,7.05 VRx,0.000 km,3 m,342.8 °,1:-- (  0.0 km/h),472.4 m*B2
$SMGPS2,-0.07 X,+0.31 Y,+0.93 Z,2 ENL,0 us,0.0 kmh,967.36 hPa,967.23 hPa,+0.02 m/s*02
$GNRMC,172948.40,A,4816.47922,N,01139.86693,E,0.29,,080522,,,A,V*2E
$GNGNS,172948.40,4816.47922,N,01139.86693,E,AAAN,21,0.61,480.3,46.2,,,V*1A
$GNGSA,A,3,03,08,10,21,01,22,32,14,27,17,,,1.02,0.61,0.82,1*00
$GNGSA,A,3,66,81,65,88,,,,,,,,,1.02,0.61,0.82,2*06
$GNGSA,A,3,15,34,05,03,21,09,27,,,,,,1.02,0.61,0.82,3*07
$GNVTG,,T,,M,0.284,N,0.526,K,A*32
$SMGPS,-0.0 m,+0.03 m/s,7.07 VRx,0.000 km,3 m,342.8 °,1:-- (  0.0 km/h),472.5 m*B6
$SMGPS2,-0.10 X,+0.22 Y,+0.93 Z,1 ENL,0 us,0.0 kmh,967.36 hPa,967.22 hPa,+0.02 m/s*04
$GNRMC,172948.50,A,4816.47926,N,01139.86690,E,0.20,,080522,,,A,V*21
$GNGNS,172948.50,4816.47926,N,01139.86690,E,AAAN,23,0.56,480.3,46.2,,,V*1A
$GNGSA,A,3,03,08,10,21,01,22,32,14,27,17,,,0.96,0.56,0.78,1*0D
$GNGSA,A,3,66,81,65,88,,,,,,,,,1.02,0.61,0.82,2*06
$GNGSA,A,3,15,34,05,03,21,09,27,,,,,,1.02,0.61,0.82,3*07
$GNVTG,,T,,M,0.193,N,0.357,K,A*37
$SMGPS,0.0 m,+0.03 m/s,7.06 VRx,0.000 km,3 m,342.8 °,1:-- (  0.0 km/h),472.5 m*9A
$SMGPS2,-0.07 X,+0.16 Y,+0.97 Z,2 ENL,0 us,0.0 kmh,967.36 hPa,967.23 hPa,+0.03 m/s*02
$GNRMC,172948.60,A,4816.47930,N,01139.86687,E,0.07,,080522,,,A,V*26
$GNGNS,172948.60,4816.47930,N,01139.86687,E,AAAN,23,0.56,480.3,46.2,,,V*18
$GNGSA,A,3,03,08,10,21,01,22,32,14,27,17,,,0.94,0.56,0.75,1*02
$GNGSA,A,3,66,81,65,88,82,67,,,,,,,0.96,0.56,0.78,2*00
$GNGSA,A,3,15,34,05,03,21,09,27,,,,,,0.96,0.56,0.78,3*0A
$GNVTG,,T,,M,0.052,N,0.096,K,A*35
$SMGPS,-0.0 m,+0.02 m/s,7.08 VRx,0.000 km,4 m,346.5 °,1:-- (  0.0 km/h),472.5 m*B6
$SMGPS2,-0.08 X,+0.18 Y,+0.95 Z,3 ENL,0 us,0.0 kmh,967.36 hPa,967.23 hPa,+0.03 m/s*00
$GNRMC,172948.70,A,4816.47930,N,01139.86687,E,0.33,,080522,,,A,V*20
$GNGNS,172948.70,4816.47930,N,01139.86687,E,AAAN,24,0.55,480.3,46.2,,,V*1D
$GNGSA,A,3,03,08,10,21,01,22,32,14,27,17,,,0.93,0.55,0.75,1*06
$GNGSA,A,3,66,81,65,82,67,73,,,,,,,0.94,0.56,0.75,2*0B
$GNGSA,A,3,15,34,05,03,21,09,27,,,,,,0.94,0.56,0.75,3*05
$GNVTG,,T,,M,0.324,N,0.600,K,A*3E
$SMGPS,0.0 m,+0.02 m/s,7.05 VRx,0.000 km,4 m,344.5 °,1:-- (  0.0 km/h),472.5 m*94
$SMGPS2,-0.06 X,+0.18 Y,+0.93 Z,2 ENL,0 us,0.0 kmh,967.36 hPa,967.23 hPa,+0.04 m/s*0E
$GNRMC,172948.80,A,4816.47932,N,01139.86689,E,0.21,,080522,,,A,V*20
$GNGNS,172948.80,4816.47932,N,01139.86689,E,AAAN,24,0.55,480.3,46.2,,,V*1E
$GNGSA,A,3,03,08,10,21,01,22,32,14,27,17,,,0.93,0.55,0.75,1*06
$GNGSA,A,3,66,81,65,88,82,67,73,,,,,,0.93,0.55,0.75,2*0F
$GNGSA,A,3,15,34,05,03,21,09,27,,,,,,0.93,0.55,0.75,3*01
$GNVTG,,T,,M,0.207,N,0.384,K,A*37
$SMGPS,-0.0 m,+0.02 m/s,7.08 VRx,0.000 km,4 m,344.5 °,1:-- (  0.0 km/h),472.5 m*B4
$SMGPS2,-0.00 X,+0.17 Y,+0.93 Z,1 ENL,0 us,0.0 kmh,967.36 hPa,967.23 hPa,+0.04 m/s*04
$GNRMC,172948.90,A,4816.47936,N,01139.86690,E,0.13,,080522,,,A,V*2C
$GNGNS,172948.90,4816.47936,N,01139.86690,E,AAAN,24,0.55,480.3,46.2,,,V*13
$GNGSA,A,3,03,08,10,21,01,22,32,14,27,17,,,0.93,0.55,0.75,1*06
$GNGSA,A,3,66,81,65,88,82,67,73,,,,,,0.93,0.55,0.75,2*0F
$GNGSA,A,3,15,34,05,03,21,09,27,,,,,,0.93,0.55,0.75,3*01
$GNVTG,,T,,M,0.124,N,0.230,K,A*3B
$SMGPS,0.0 m,+0.02 m/s,7.04 VRx,0.000 km,4 m,346.5 °,1:-- (  0.0 km/h),472.5 m*97
$SMGPS2,-0.04 X,+0.18 Y,+0.95 Z,2 ENL,0 us,0.0 kmh,967.36 hPa,967.23 hPa,+0.04 m/s*0A
$GNRMC,172949.00,A,4816.47937,N,01139.86693,E,0.05,,080522,,,A,V*21
$GNGNS,172949.00,4816.47937,N,01139.86693,E,AAAN,24,0.55,480.3,46.2,,,V*19
$GNGSA,A,3,03,08,10,21,01,22,32,14,27,17,,,0.93,0.55,0.75,1*06
$GNGSA,A,3,66,81,65,88,82,67,73,,,,,,0.93,0.55,0.75,2*0F
$GNGSA,A,3,15,34,05,03,21,09,27,,,,,,0.93,0.55,0.75,3*01
$GNVTG,,T,,M,0.042,N,0.078,K,A*34
$SMGPS,0.0 m,+0.02 m/s,7.08 VRx,0.000 km,4 m,346.5 °,1:-- (  0.0 km/h),472.5 m*9B
$SMGPS2,-0.07 X,+0.18 Y,+0.96 Z,1 ENL,0 us,0.0 kmh,967.36 hPa,967.22 hPa,+0.04 m/s*08
$GNRMC,172949.10,A,4816.47940,N,01139.86696,E,0.22,,080522,,,A,V*20
$GNGNS,172949.10,4816.47940,N,01139.86696,E,AAAN,24,0.55,480.3,46.2,,,V*1D
$GNGSA,A,3,03,08,10,21,01,22,32,14,27,17,,,0.93,0.55,0.75,1*06
$GNGSA,A,3,66,81,65,88,82,67,73,,,,,,0.93,0.55,0.75,2*0F
$GNGSA,A,3,15,34,05,03,21,09,27,,,,,,0.93,0.55,0.75,3*01
$GNVTG,,T,,M,0.216,N,0.400,K,A*3C
$SMGPS,0.0 m,+0.02 m/s,7.04 VRx,0.000 km,4 m,346.5 °,1:-- (  0.0 km/h),472.6 m*94
$SMGPS2,-0.08 X,+0.20 Y,+0.92 Z,2 ENL,0 us,0.0 kmh,967.35 hPa,967.23 hPa,+0.04 m/s*09
$GNRMC,172949.20,A,4816.47943,N,01139.86698,E,0.08,,080522,,,A,V*26
$GNGNS,172949.20,4816.47943,N,01139.86698,E,AAAN,24,0.55,480.3,46.2,,,V*13
$GNGSA,A,3,03,08,10,21,01,22,32,14,27,17,,,0.93,0.55,0.75,1*06
$GNGSA,A,3,66,81,65,88,82,67,73,,,,,,0.93,0.55,0.75,2*0F
$GNGSA,A,3,15,34,05,03,21,09,27,,,,,,0.93,0.55,0.75,3*01
$GNVTG,,T,,M,0.073,N,0.135,K,A*3E
$SMGPS,0.0 m,+0.02 m/s,7.09 VRx,0.000 km,4 m,346.5 °,1:-- (  0.0 km/h),472.5 m*9A
$SMGPS2,-0.06 X,+0.18 Y,+0.92 Z,1 ENL,0 us,0.0 kmh,967.35 hPa,967.23 hPa,+0.04 m/s*0F
$GNRMC,172949.30,A,4816.47947,N,01139.86698,E,0.33,,080522,,,A,V*2B
$GNGNS,172949.30,4816.47947,N,01139.86698,E,AAAN,24,0.55,480.3,46.2,,,V*16
$GNGSA,A,3,03,08,10,21,01,22,32,14,27,17,,,0.93,0.55,0.75,1*06
$GNGSA,A,3,66,81,65,88,82,67,73,,,,,,0.93,0.55,0.75,2*0F
$GNGSA,A,3,15,34,05,03,21,09,27,,,,,,0.93,0.55,0.75,3*01
$GNVTG,,T,,M,0.327,N,0.605,K,A*38
$SMGPS,0.0 m,+0.02 m/s,7.07 VRx,0.000 km,4 m,346.5 °,1:-- (  0.0 km/h),472.5 m*94
$SMGPS2,-0.10 X,+0.21 Y,+0.97 Z,2 ENL,0 us,0.0 kmh,967.35 hPa,967.23 hPa,+0.04 m/s*04
$GNRMC,172949.40,A,4816.47949,N,01139.86697,E,0.10,,080522,,,A,V*2C
$GNGNS,172949.40,4816.47949,N,01139.86697,E,AAAN,24,0.55,480.3,46.2,,,V*10
$GNGSA,A,3,03,08,10,21,01,22,32,14,27,17,,,0.93,0.55,0.75,1*06
$GNGSA,A,3,66,81,65,88,82,67,73,,,,,,0.93,0.55,0.75,2*0F
$GNGSA,A,3,15,34,05,03,21,09,27,,,,,,0.93,0.55,0.75,3*01
$GNVTG,,T,,M,0.088,N,0.162,K,A*38
$SMGPS,0.0 m,+0.02 m/s,7.09 VRx,0.000 km,4 m,346.5 °,1:-- (  0.0 km/h),472.5 m*9A
$SMGPS2,-0.12 X,+0.16 Y,+1.02 Z,2 ENL,0 us,0.0 kmh,967.35 hPa,967.22 hPa,+0.03 m/s*09
$GNRMC,172949.50,A,4816.47954,N,01139.86698,E,0.15,,080522,,,A,V*2B
$GNGNS,172949.50,4816.47954,N,01139.86698,E,AAAN,24,0.55,480.3,46.2,,,V*12
$GNGSA,A,3,03,08,10,21,01,22,32,14,27,17,,,0.93,0.55,0.75,1*06
$GNGSA,A,3,66,81,65,88,82,67,73,,,,,,0.93,0.55,0.75,2*0F
$GNGSA,A,3,15,34,05,03,21,09,27,,,,,,0.93,0.55,0.75,3*01
$GNVTG,,T,,M,0.145,N,0.269,K,A*30
$SMGPS,-0.0 m,+0.02 m/s,7.07 VRx,0.000 km,4 m,346.5 °,1:-- (  0.0 km/h),472.6 m*BA
$SMGPS2,-0.07 X,+0.14 Y,+0.92 Z,2 ENL,0 us,0.0 kmh,967.36 hPa,967.23 hPa,+0.03 m/s*05
$GNRMC,172949.60,A,4816.47959,N,01139.86697,E,0.61,,080522,,,A,V*29
$GNGNS,172949.60,4816.47959,N,01139.86697,E,AAAN,24,0.55,480.3,46.2,,,V*13
$GNGSA,A,3,03,08,10,21,01,22,32,14,27,17,,,0.93,0.55,0.75,1*06
$GNGSA,A,3,66,81,65,88,82,67,73,,,,,,0.93,0.55,0.75,2*0F
$GNGSA,A,3,15,34,05,03,21,09,27,,,,,,0.93,0.55,0.75,3*01
$GNVTG,,T,,M,0.608,N,1.126,K,A*37
$SMGPS,0.0 m,+0.02 m/s,7.08 VRx,0.000 km,4 m,346.5 °,1:-- (  0.0 km/h),472.6 m*98
$SMGPS2,-0.02 X,+0.17 Y,+0.94 Z,1 ENL,0 us,0.0 kmh,967.35 hPa,967.23 hPa,+0.02 m/s*04
$GNRMC,172949.70,A,4816.47962,N,01139.86697,E,0.11,,080522,,,A,V*27
$GNGNS,172949.70,4816.47962,N,01139.86697,E,AAAN,23,0.58,480.3,46.2,,,V*10
$GNGSA,A,3,03,08,10,21,01,22,32,14,27,17,,,0.99,0.58,0.80,1*0B
$GNGSA,A,3,66,81,65,88,82,67,73,,,,,,0.93,0.55,0.75,2*0F
$GNGSA,A,3,15,34,05,03,21,09,27,,,,,,0.93,0.55,0.75,3*01
$GNVTG,,T,,M,0.098,N,0.181,K,A*34
$SMGPS,0.0 m,+0.02 m/s,7.08 VRx,0.000 km,4 m,346.5 °,1:-- (  0.0 km/h),472.6 m*98
$SMGPS2,-0.04 X,+0.13 Y,+0.96 Z,2 ENL,0 us,0.0 kmh,967.36 hPa,967.23 hPa,+0.01 m/s*07
$GNRMC,172949.80,A,4816.47961,N,01139.86697,E,0.27,,080522,,,A,V*2E
$GNGNS,172949.80,4816.47961,N,01139.86697,E,AAAN,23,0.58,480.3,46.2,,,V*1C
$GNGSA,A,3,03,08,10,21,01,22,32,14,27,17,,,0.99,0.58,0.80,1*0B
$GNGSA,A,3,66,81,65,88,82,73,,,,,,,0.99,0.58,0.80,2*03
$GNGSA,A,3,15,34,05,03,21,09,27,,,,,,0.99,0.58,0.80,3*0C
$GNVTG,,T,,M,0.272,N,0.504,K,A*3B
$SMGPS,-0.0 m,+0.02 m/s,7.09 VRx,0.000 km,4 m,346.5 °,1:-- (  0.0 km/h),472.6 m*B4
$SMGPS2,-0.04 X,+0.12 Y,+0.96 Z,1 ENL,0 us,0.0 kmh,967.36 hPa,967.22 hPa,+0.01 m/s*04
$GNRMC,172949.90,A,4816.47963,N,01139.86699,E,0.38,,080522,,,A,V*2D
$GNGNS,172949.90,4816.47963,N,01139.86699,E,AAAN,24,0.55,480.3,46.2,,,V*1B
$GNGSA,A,3,03,08,10,21,01,22,32,14,27,17,,,0.93,0.55,0.75,1*06
$GNGSA,A,3,66,81,65,88,82,73,,,,,,,0.99,0.58,0.80,2*03
$GNGSA,A,3,15,34,05,03,21,09,27,,,,,,0.99,0.58,0.80,3*0C
$GNVTG,,T,,M,0.377,N,0.699,K,A*38
$SMGPS,0.0 m,+0.02 m/s,7.08 VRx,0.000 km,4 m,346.5 °,1:-- (  0.0 km/h),472.5 m*9B
$SMGPS2,-0.02 X,+0.19 Y,+0.94 Z,1 ENL,0 us,0.0 kmh,967.36 hPa,967.23 hPa,+0.00 m/s*0B
$GNRMC,172950.00,A,4816.47960,N,01139.86701,E,0.32,,080522,,,A,V*25
$GNGNS,172950.00,4816.47960,N,01139.86701,E,AAAN,24,0.55,480.3,46.2,,,V*19
$GNGSA,A,3,03,08,10,21,01,22,32,14,27,17,,,0.93,0.55,0.75,1*06
$GNGSA,A,3,66,81,65,88,82,67,73,,,,,,0.93,0.55,0.75,2*0F
$GNGSA,A,3,15,34,05,03,21,09,27,,,,,,0.93,0.55,0.75,3*01
$GNVTG,,T,,M,0.319,N,0.590,K,A*3A
$SMGPS,-0.0 m,+0.01 m/s,7.10 VRx,0.000 km,4 m,346.5 °,1:-- (  0.0 km/h),472.5 m*BC
$SMGPS2,-0.11 X,+0.20 Y,+0.97 Z,1 ENL,0 us,0.0 kmh,967.36 hPa,967.23 hPa,+0.00 m/s*00
$GNRMC,172950.10,A,4816.47958,N,01139.86701,E,0.37,,080522,,,A,V*2A
$GNGNS,172950.10,4816.47958,N,01139.86701,E,AAAN,24,0.55,480.3,46.2,,,V*13
$GNGSA,A,3,03,08,10,21,01,22,32,14,27,17,,,0.93,0.55,0.75,1*06
$GNGSA,A,3,66,81,65,88,82,67,73,,,,,,0.93,0.55,0.75,2*0F
$GNGSA,A,3,15,34,05,03,21,09,27,,,,,,0.93,0.55,0.75,3*01
$GNVTG,,T,,M,0.373,N,0.690,K,A*35
$SMGPS,-0.0 m,+0.01 m/s,7.06 VRx,0.000 km,4 m,348.5 °,1:-- (  0.0 km/h),472.4 m*B4
$SMGPS2,-0.10 X,+0.20 Y,+0.95 Z,1 ENL,0 us,0.0 kmh,967.36 hPa,967.23 hPa,-0.00 m/s*05
$GNRMC,172950.20,A,4816.47958,N,01139.86699,E,0.21,,080522,,,A,V*2E
$GNGNS,172950.20,4816.47958,N,01139.86699,E,AAAN,23,0.58,480.3,46.2,,,V*1A
$GNGSA,A,3,03,08,10,21,01,22,32,14,27,17,,,0.99,0.58,0.80,1*0B
$GNGSA,A,3,66,81,65,88,82,67,73,,,,,,0.93,0.55,0.75,2*0F
$GNGSA,A,3,15,34,05,03,21,09,27,,,,,,0.93,0.55,0.75,3*01
$GNVTG,,T,,M,0.205,N,0.379,K,A*37
$SMGPS,-0.0 m,+0.00 m/s,7.10 VRx,0.000 km,4 m,348.5 °,1:-- (  0.0 km/h),472.3 m*B5
$SMGPS2,-0.08 X,+0.19 Y,+0.94 Z,1 ENL,0 us,0.0 kmh,967.36 hPa,967.23 hPa,-0.01 m/s*06
$GNRMC,172950.30,A,4816.47957,N,01139.86695,E,0.19,,080522,,,A,V*27
$GNGNS,172950.30,4816.47957,N,01139.86695,E,AAAN,23,0.58,480.3,46.2,,,V*18
$GNGSA,A,3,03,08,10,21,01,22,32,14,27,17,,,0.99,0.58,0.80,1*0B
$GNGSA,A,3,66,81,65,88,82,73,,,,,,,0.99,0.58,0.80,2*03
$GNGSA,A,3,15,34,05,03,21,09,27,,,,,,0.99,0.58,0.80,3*0C
$GNVTG,,T,,M,0.191,N,0.355,K,A*37
$SMGPS,-0.0 m,-0.01 m/s,7.06 VRx,0.000 km,4 m,346.5 °,1:-- (  0.0 km/h),472.3 m*BB
$SMGPS2,-0.10 X,+0.20 Y,+0.96 Z,1 ENL,0 us,0.0 kmh,967.36 hPa,967.23 hPa,-0.00 m/s*06
$GNRMC,172950.40,A,4816.47958,N,01139.86693,E,0.25,,080522,,,A,V*26
$GNGNS,172950.40,4816.47958,N,01139.86693,E,AAAN,23,0.58,480.3,46.2,,,V*16
$GNGSA,A,3,03,08,10,21,01,22,32,14,27,17,,,0.99,0.58,0.80,1*0B
$GNGSA,A,3,66,81,65,88,82,73,,,,,,,0.99,0.58,0.80,2*03
$GNGSA,A,3,15,34,05,03,21,09,27,,,,,,0.99,0.58,0.80,3*0C
$GNVTG,,T,,M,0.250,N,0.463,K,A*3B
$SMGPS,0.0 m,-0.01 m/s,7.10 VRx,0.000 km,4 m,346.5 °,1:-- (  0.0 km/h),472.2 m*90
$SMGPS2,-0.14 X,+0.28 Y,+0.95 Z,2 ENL,0 us,0.0 kmh,967.36 hPa,967.23 hPa,-0.00 m/s*0A
$GNRMC,172950.50,A,4816.47958,N,01139.86691,E,0.23,,080522,,,A,V*23
$GNGNS,172950.50,4816.47958,N,01139.86691,E,AAAN,23,0.58,480.3,46.2,,,V*15
$GNGSA,A,3,03,08,10,21,01,22,32,14,27,17,,,0.99,0.58,0.80,1*0B
$GNGSA,A,3,66,81,65,88,82,73,,,,,,,0.99,0.58,0.80,2*03
$GNGSA,A,3,15,34,05,03,21,09,27,,,,,,0.99,0.58,0.80,3*0C
$GNVTG,,T,,M,0.233,N,0.432,K,A*3A
$SMGPS,0.0 m,-0.01 m/s,7.08 VRx,0.000 km,4 m,346.5 °,1:-- (  0.0 km/h),472.2 m*99
$SMGPS2,-0.09 X,+0.20 Y,+0.97 Z,1 ENL,0 us,0.0 kmh,967.36 hPa,967.23 hPa,-0.01 m/s*0E
$GNRMC,172950.60,A,4816.47960,N,01139.86689,E,0.29,,080522,,,A,V*28
$GNGNS,172950.60,4816.47960,N,01139.86689,E,AAAN,23,0.58,480.3,46.2,,,V*14
$GNGSA,A,3,03,08,10,21,01,22,32,14,27,17,,,0.99,0.58,0.80,1*0B
$GNGSA,A,3,66,81,65,88,82,73,,,,,,,0.99,0.58,0.80,2*03
$GNGSA,A,3,15,34,05,03,21,09,27,,,,,,0.99,0.58,0.80,3*0C
$GNVTG,,T,,M,0.294,N,0.544,K,A*37
$SMGPS,-0.0 m,-0.00 m/s,7.09 VRx,0.000 km,4 m,346.5 °,1:-- (  0.0 km/h),472.2 m*B4
$SMGPS2,-0.01 X,+0.12 Y,+0.94 Z,1 ENL,0 us,0.0 kmh,967.36 hPa,967.23 hPa,-0.00 m/s*05
$GNRMC,172950.70,A,4816.47964,N,01139.86684,E,0.55,,080522,,,A,V*2B
$GNGNS,172950.70,4816.47964,N,01139.86684,E,AAAN,23,0.58,480.3,46.2,,,V*1C
$GNGSA,A,3,03,08,10,21,01,22,32,14,27,17,,,0.99,0.58,0.80,1*0B
$GNGSA,A,3,66,81,65,88,82,73,,,,,,,0.99,0.58,0.80,2*03
$GNGSA,A,3,15,34,05,03,21,09,27,,,,,,0.99,0.58,0.80,3*0C
$GNVTG,,T,,M,0.553,N,1.024,K,A*39
$SMGPS,-0.0 m,-0.00 m/s,7.07 VRx,0.000 km,4 m,346.5 °,1:-- (  0.0 km/h),472.1 m*B9
$SMGPS2,-0.01 X,+0.20 Y,+0.91 Z,1 ENL,0 us,0.0 kmh,967.36 hPa,967.23 hPa,-0.00 m/s*01
$GNRMC,172950.80,A,4816.47967,N,01139.86680,E,0.47,,080522,,,A,V*20
$GNGNS,172950.80,4816.47967,N,01139.86680,E,AAAN,23,0.58,480.3,46.2,,,V*14
$GNGSA,A,3,03,08,10,21,01,22,32,14,27,17,,,0.99,0.58,0.80,1*0B
$GNGSA,A,3,66,81,65,88,82,73,,,,,,,0.99,0.58,0.80,2*03
$GNGSA,A,3,15,34,05,03,21,09,27,,,,,,0.99,0.58,0.80,3*0C
$GNVTG,,T,,M,0.471,N,0.873,K,A*33
$SMGPS,-0.0 m,-0.00 m/s,7.10 VRx,0.000 km,4 m,344.5 °,1:-- (  0.0 km/h),472.0 m*BC
$SMGPS2,-0.03 X,+0.18 Y,+0.93 Z,1 ENL,0 us,0.0 kmh,967.36 hPa,967.23 hPa,-0.00 m/s*0A
$GNRMC,172950.90,A,4816.47969,N,01139.86678,E,0.32,,080522,,,A,V*2A
$GNGNS,172950.90,4816.47969,N,01139.86678,E,AAAN,23,0.58,480.3,46.2,,,V*1C
$GNGSA,A,3,03,08,10,21,01,22,32,14,27,17,,,0.99,0.58,0.80,1*0B
$GNGSA,A,3,66,81,65,88,82,73,,,,,,,0.99,0.58,0.80,2*03
$GNGSA,A,3,15,34,05,03,21,09,27,,,,,,0.99,0.58,0.80,3*0C
$GNVTG,,T,,M,0.321,N,0.594,K,A*35
$SMGPS,-0.0 m,-0.00 m/s,7.08 VRx,0.000 km,4 m,344.5 °,1:-- (  0.0 km/h),472.0 m*B5
$SMGPS2,-0.07 X,+0.19 Y,+0.97 Z,1 ENL,0 us,0.0 kmh,967.36 hPa,967.23 hPa,+0.00 m/s*0D
$GNRMC,172951.00,A,4816.47971,N,01139.86676,E,0.33,,080522,,,A,V*24
$GNGNS,172951.00,4816.47971,N,01139.86676,E,AAAN,24,0.55,480.3,46.2,,,V*19
$GNGSA,A,3,03,08,10,21,01,22,32,14,27,17,,,0.93,0.55,0.75,1*06
$GNGSA,A,3,66,81,65,88,82,73,,,,,,,0.99,0.58,0.80,2*03
$GNGSA,A,3,15,34,05,03,21,09,27,,,,,,0.99,0.58,0.80,3*0C
$GNVTG,,T,,M,0.329,N,0.610,K,A*32
$SMGPS,-0.0 m,-0.00 m/s,7.09 VRx,0.000 km,4 m,344.5 °,1:-- (  0.0 km/h),471.9 m*BE
$SMGPS2,-0.07 X,+0.23 Y,+0.94 Z,1 ENL,0 us,0.0 kmh,967.36 hPa,967.22 hPa,+0.01 m/s*07
$GNRMC,172951.10,A,4816.47971,N,01139.86676,E,0.14,,080522,,,A,V*20
$GNGNS,172951.10,4816.47971,N,01139.86676,E,AAAN,24,0.55,480.4,46.2,,,V*1F
$GNGSA,A,3,03,08,10,21,01,22,32,14,27,17,,,0.93,0.55,0.75,1*06
$GNGSA,A,3,66,81,65,88,82,67,73,,,,,,0.93,0.55,0.75,2*0F
$GNGSA,A,3,15,34,05,03,21,09,27,,,,,,0.93,0.55,0.75,3*01
$GNVTG,,T,,M,0.141,N,0.262,K,A*3F
$SMGPS,0.1 m,+0.00 m/s,7.07 VRx,0.000 km,4 m,342.6 °,1:-- (  0.0 km/h),471.9 m*9F
$SMGPS2,-0.05 X,+0.23 Y,+0.94 Z,1 ENL,0 us,0.0 kmh,967.35 hPa,967.23 hPa,+0.01 m/s*07
$GNRMC,172951.20,A,4816.47971,N,01139.86674,E,0.08,,080522,,,A,V*2C
$GNGNS,172951.20,4816.47971,N,01139.86674,E,AAAN,24,0.55,480.3,46.2,,,V*19
$GNGSA,A,3,03,08,10,21,01,22,32,14,27,17,,,0.93,0.55,0.75,1*06
$GNGSA,A,3,66,81,65,88,82,67,73,,,,,,0.93,0.55,0.75,2*0F
$GNGSA,A,3,15,34,05,03,21,09,27,,,,,,0.93,0.55,0.75,3*01
$GNVTG,,T,,M,0.075,N,0.140,K,A*3A
$SMGPS,0.0 m,+0.00 m/s,7.10 VRx,0.000 km,4 m,342.6 °,1:-- (  0.0 km/h),471.8 m*99
$SMGPS2,-0.02 X,+0.24 Y,+0.94 Z,1 ENL,0 us,0.0 kmh,967.36 hPa,967.22 hPa,+0.01 m/s*05
$GNRMC,172951.30,A,4816.47972,N,01139.86675,E,0.11,,080522,,,A,V*27
$GNGNS,172951.30,4816.47972,N,01139.86675,E,AAAN,24,0.55,480.3,46.2,,,V*1A
$GNGSA,A,3,03,08,10,21,01,22,32,14,27,17,,,0.93,0.55,0.75,1*06
$GNGSA,A,3,66,81,65,88,82,67,73,,,,,,0.93,0.55,0.75,2*0F
$GNGSA,A,3,15,34,05,03,21,09,27,,,,,,0.93,0.55,0.75,3*01
$GNVTG,,T,,M,0.108,N,0.201,K,A*37
$SMGPS,0.0 m,+0.00 m/s,7.06 VRx,0.000 km,4 m,342.6 °,1:-- (  0.0 km/h),471.8 m*9E
$SMGPS2,-0.04 X,+0.25 Y,+0.93 Z,1 ENL,0 us,0.0 kmh,967.35 hPa,967.23 hPa,+0.01 m/s*07
$GNRMC,172951.40,A,4816.47974,N,01139.86673,E,0.18,,080522,,,A,V*29
$GNGNS,172951.40,4816.47974,N,01139.86673,E,AAAN,24,0.55,480.3,46.2,,,V*1D
$GNGSA,A,3,03,08,10,21,01,22,32,14,27,17,,,0.93,0.55,0.75,1*06
$GNGSA,A,3,66,81,65,88,82,67,73,,,,,,0.93,0.55,0.75,2*0F
$GNGSA,A,3,15,34,05,03,21,09,27,,,,,,0.93,0.55,0.75,3*01
$GNVTG,,T,,M,0.177,N,0.328,K,A*35
$SMGPS,0.0 m,+0.00 m/s,7.11 VRx,0.000 km,4 m,342.6 °,1:-- (  0.0 km/h),471.7 m*97
$SMGPS2,-0.07 X,+0.26 Y,+0.94 Z,2 ENL,0 us,0.0 kmh,967.36 hPa,967.23 hPa,+0.01 m/s*00
$GNRMC,172951.50,A,4816.47976,N,01139.86672,E,0.14,,080522,,,A,V*27
$GNGNS,172951.50,4816.47976,N,01139.86672,E,AAAN,23,0.58,480.3,46.2,,,V*15
$GNGSA,A,3,03,08,10,21,01,22,32,14,27,17,,,0.99,0.58,0.80,1*0B
$GNGSA,A,3,66,81,65,88,82,67,73,,,,,,0.93,0.55,0.75,2*0F
$GNGSA,A,3,15,34,05,03,21,09,27,,,,,,0.93,0.55,0.75,3*01
$GNVTG,,T,,M,0.142,N,0.263,K,A*3D
$SMGPS,-0.0 m,+0.01 m/s,7.06 VRx,0.000 km,5 m,345.6 °,1:-- (  0.0 km/h),471.7 m*BB
$SMGPS2,-0.05 X,+0.25 Y,+0.94 Z,1 ENL,0 us,0.0 kmh,967.36 hPa,967.23 hPa,+0.01 m/s*02
$GNRMC,172951.60,A,4816.47977,N,01139.86669,E,0.40,,080522,,,A,V*2E
$GNGNS,172951.60,4816.47977,N,01139.86669,E,AAAN,23,0.58,480.3,46.2,,,V*1D
$GNGSA,A,3,03,08,10,21,01,22,32,14,27,17,,,0.99,0.58,0.80,1*0B
$GNGSA,A,3,66,81,65,88,82,73,,,,,,,0.99,0.58,0.80,2*03
$GNGSA,A,3,15,34,05,03,21,09,27,,,,,,0.99,0.58,0.80,3*0C
$GNVTG,,T,,M,0.400,N,0.742,K,A*38
$SMGPS,0.0 m,+0.02 m/s,7.09 VRx,0.000 km,5 m,345.6 °,1:-- (  0.0 km/h),471.6 m*9B
$SMGPS2,-0.07 X,+0.21 Y,+0.93 Z,3 ENL,0 us,0.0 kmh,967.35 hPa,967.23 hPa,+0.01 m/s*02
$GNRMC,172951.70,A,4816.47979,N,01139.86666,E,0.27,,080522,,,A,V*2F
$GNGNS,172951.70,4816.47979,N,01139.86666,E,AAAN,23,0.58,480.3,46.2,,,V*1D
$GNGSA,A,3,03,08,10,21,01,22,32,14,27,17,,,0.99,0.58,0.80,1*0B
$GNGSA,A,3,66,81,65,88,82,73,,,,,,,0.99,0.58,0.80,2*03
$GNGSA,A,3,15,34,05,03,21,09,27,,,,,,0.99,0.58,0.80,3*0C
$GNVTG,,T,,M,0.270,N,0.499,K,A*3C
$SMGPS,-0.0 m,+0.02 m/s,7.06 VRx,0.000 km,5 m,345.6 °,1:-- (  0.0 km/h),471.5 m*BA
$SMGPS2,-0.05 X,+0.20 Y,+0.94 Z,6 ENL,0 us,0.0 kmh,967.36 hPa,967.23 hPa,+0.00 m/s*01
$GNRMC,172951.80,A,4816.47980,N,01139.86663,E,0.25,,080522,,,A,V*21
$GNGNS,172951.80,4816.47980,N,01139.86663,E,AAAN,23,0.58,480.3,46.2,,,V*11
$GNGSA,A,3,03,08,10,21,01,22,32,14,27,17,,,0.99,0.58,0.80,1*0B
$GNGSA,A,3,66,81,65,88,82,73,,,,,,,0.99,0.58,0.80,2*03
$GNGSA,A,3,15,34,05,03,21,09,27,,,,,,0.99,0.58,0.80,3*0C
$GNVTG,,T,,M,0.244,N,0.453,K,A*3D
$SMGPS,0.0 m,+0.02 m/s,7.09 VRx,0.000 km,5 m,345.6 °,1:-- (  0.0 km/h),471.4 m*99
$SMGPS2,-0.08 X,+0.24 Y,+0.95 Z,5 ENL,0 us,0.0 kmh,967.35 hPa,967.23 hPa,+0.01 m/s*08
$GNRMC,172951.90,A,4816.47981,N,01139.86662,E,0.10,,080522,,,A,V*26
$GNGNS,172951.90,4816.47981,N,01139.86662,E,AAAN,24,0.55,480.3,46.2,,,V*1A
$GNGSA,A,3,03,08,10,21,01,22,32,14,27,17,,,0.93,0.55,0.75,1*06
$GNGSA,A,3,66,81,65,88,82,73,,,,,,,0.99,0.58,0.80,2*03
$GNGSA,A,3,15,34,05,03,21,09,27,,,,,,0.99,0.58,0.80,3*0C
$GNVTG,,T,,M,0.094,N,0.174,K,A*32
$SMGPS,-0.0 m,+0.02 m/s,7.07 VRx,0.000 km,5 m,344.0 °,1:-- (  0.0 km/h),471.4 m*BD
$SMGPS2,-0.08 X,+0.26 Y,+0.95 Z,4 ENL,0 us,0.0 kmh,967.36 hPa,967.22 hPa,+0.01 m/s*09
$GNRMC,172952.00,A,4816.47982,N,01139.86662,E,0.12,,080522,,,A,V*2D
$GNGNS,172952.00,4816.47982,N,01139.86662,E,AAAN,24,0.55,480.3,46.2,,,V*13
$GNGSA,A,3,03,08,10,21,01,22,32,14,27,17,,,0.93,0.55,0.75,1*06
$GNGSA,A,3,66,81,65,88,82,67,73,,,,,,0.93,0.55,0.75,2*0F
$GNGSA,A,3,15,34,05,03,21,09,27,,,,,,0.93,0.55,0.75,3*01
$GNVTG,,T,,M,0.115,N,0.214,K,A*3F
$SMGPS,0.0 m,+0.02 m/s,7.09 VRx,0.000 km,5 m,344.0 °,1:-- (  0.0 km/h),471.3 m*99
$SMGPS2,-0.07 X,+0.25 Y,+0.93 Z,1 ENL,0 us,0.0 kmh,967.35 hPa,967.23 hPa,+0.00 m/s*05
$GNRMC,172952.10,A,4816.47983,N,01139.86662,E,0.10,,080522,,,A,V*2F
$GNGNS,172952.10,4816.47983,N,01139.86662,E,AAAN,24,0.55,480.3,46.2,,,V*13
$GNGSA,A,3,03,08,10,21,01,22,32,14,27,17,,,0.93,0.55,0.75,1*06
$GNGSA,A,3,66,81,65,88,82,67,73,,,,,,0.93,0.55,0.75,2*0F
$GNGSA,A,3,15,34,05,03,21,09,27,,,,,,0.93,0.55,0.75,3*01
$GNVTG,,T,,M,0.096,N,0.178,K,A*3C
$SMGPS,-0.0 m,+0.02 m/s,7.08 VRx,0.000 km,5 m,344.0 °,1:-- (  0.0 km/h),471.3 m*B5
$SMGPS2,-0.07 X,+0.23 Y,+0.91 Z,1 ENL,0 us,0.0 kmh,967.36 hPa,967.23 hPa,+0.00 m/s*02
$GNRMC,172952.20,A,4816.47984,N,01139.86662,E,0.06,,080522,,,A,V*2C
$GNGNS,172952.20,4816.47984,N,01139.86662,E,AAAN,24,0.55,480.3,46.2,,,V*17
$GNGSA,A,3,03,08,10,21,01,22,32,14,27,17,,,0.93,0.55,0.75,1*06
$GNGSA,A,3,66,81,65,88,82,67,73,,,,,,0.93,0.55,0.75,2*0F
$GNGSA,A,3,15,34,05,03,21,09,27,,,,,,0.93,0.55,0.75,3*01
$GNVTG,,T,,M,0.057,N,0.106,K,A*38
$SMGPS,-0.0 m,+0.01 m/s,7.10 VRx,0.000 km,5 m,344.0 °,1:-- (  0.0 km/h),471.3 m*BF
$SMGPS2,-0.06 X,+0.25 Y,+0.92 Z,2 ENL,0 us,0.0 kmh,967.36 hPa,967.23 hPa,+0.00 m/s*05
$GNRMC,172952.30,A,4816.47986,N,01139.86662,E,0.15,,080522,,,A,V*2D
$GNGNS,172952.30,4816.47986,N,01139.86662,E,AAAN,24,0.55,480.3,46.2,,,V*14
$GNGSA,A,3,03,08,10,21,01,22,32,14,27,17,,,0.93,0.55,0.75,1*06
$GNGSA,A,3,66,81,65,88,82,67,73,,,,,,0.93,0.55,0.75,2*0F
$GNGSA,A,3,15,34,05,03,21,09,27,,,,,,0.93,0.55,0.75,3*01
$GNVTG,,T,,M,0.152,N,0.282,K,A*33
$SMGPS,-0.0 m,+0.00 m/s,7.06 VRx,0.000 km,5 m,344.0 °,1:-- (  0.0 km/h),471.3 m*B9
$SMGPS2,-0.05 X,+0.23 Y,+0.94 Z,6 ENL,0 us,0.0 kmh,967.36 hPa,967.23 hPa,+0.00 m/s*02
$GNRMC,172952.40,A,4816.47986,N,01139.86662,E,0.12,,080522,,,A,V*2D
$GNGNS,172952.40,4816.47986,N,01139.86662,E,AAAN,24,0.55,480.3,46.2,,,V*13
$GNGSA,A,3,03,08,10,21,01,22,32,14,27,17,,,0.93,0.55,0.75,1*06
$GNGSA,A,3,66,81,65,88,82,67,73,,,,,,0.93,0.55,0.75,2*0F
$GNGSA,A,3,15,34,05,03,21,09,27,,,,,,0.93,0.55,0.75,3*01
$GNVTG,,T,,M,0.122,N,0.225,K,A*39
$SMGPS,-0.0 m,-0.00 m/s,7.10 VRx,0.000 km,5 m,344.0 °,1:-- (  0.0 km/h),471.3 m*B8
$SMGPS2,-0.05 X,+0.24 Y,+0.95 Z,5 ENL,0 us,0.0 kmh,967.36 hPa,967.23 hPa,+0.00 m/s*07
$GNRMC,172952.50,A,4816.47987,N,01139.86662,E,0.16,,080522,,,A,V*29
$GNGNS,172952.50,4816.47987,N,01139.86662,E,AAAN,24,0.55,480.3,46.2,,,V*13
$GNGSA,A,3,03,08,10,21,01,22,32,14,27,17,,,0.93,0.55,0.75,1*06
$GNGSA,A,3,66,81,65,88,82,67,73,,,,,,0.93,0.55,0.75,2*0F
$GNGSA,A,3,15,34,05,03,21,09,27,,,,,,0.93,0.55,0.75,3*01
$GNVTG,,T,,M,0.155,N,0.288,K,A*3E
$SMGPS,-0.0 m,-0.00 m/s,7.07 VRx,0.000 km,5 m,344.0 °,1:-- (  0.0 km/h),471.3 m*BE
$SMGPS2,-0.03 X,+0.30 Y,+0.93 Z,5 ENL,0 us,0.0 kmh,967.36 hPa,967.23 hPa,-0.00 m/s*04
$GNRMC,172952.60,A,4816.47988,N,01139.86661,E,0.28,,080522,,,A,V*2B
$GNGNS,172952.60,4816.47988,N,01139.86661,E,AAAN,24,0.55,480.3,46.2,,,V*1C
$GNGSA,A,3,03,08,10,21,01,22,32,14,27,17,,,0.93,0.55,0.75,1*06
$GNGSA,A,3,66,81,65,88,82,67,73,,,,,,0.93,0.55,0.75,2*0F
$GNGSA,A,3,15,34,05,03,21,09,27,,,,,,0.93,0.55,0.75,3*01
$GNVTG,,T,,M,0.283,N,0.524,K,A*37
$SMGPS,0.0 m,-0.00 m/s,7.09 VRx,0.000 km,5 m,344.0 °,1:-- (  0.0 km/h),471.3 m*9D
$SMGPS2,-0.08 X,+0.30 Y,+0.94 Z,6 ENL,0 us,0.0 kmh,967.35 hPa,967.22 hPa,-0.00 m/s*09
$GNRMC,172952.70,A,4816.47989,N,01139.86662,E,0.06,,080522,,,A,V*24
$GNGNS,172952.70,4816.47989,N,01139.86662,E,AAAN,24,0.55,480.3,46.2,,,V*1F
$GNGSA,A,3,03,08,10,21,01,22,32,14,27,17,,,0.93,0.55,0.75,1*06
$GNGSA,A,3,66,81,65,88,82,67,73,,,,,,0.93,0.55,0.75,2*0F
$GNGSA,A,3,15,34,05,03,21,09,27,,,,,,0.93,0.55,0.75,3*01
$GNVTG,,T,,M,0.061,N,0.112,K,A*38
$SMGPS,-0.0 m,-0.01 m/s,7.07 VRx,0.000 km,5 m,344.0 °,1:-- (  0.0 km/h),471.3 m*BF
$SMGPS2,-0.07 X,+0.26 Y,+0.91 Z,5 ENL,0 us,0.0 kmh,967.36 hPa,967.22 hPa,-0.00 m/s*04
$GNRMC,172952.80,A,4816.47990,N,01139.86663,E,0.09,,080522,,,A,V*2D
$GNGNS,172952.80,4816.47990,N,01139.86663,E,AAAN,24,0.55,480.3,46.2,,,V*19
$GNGSA,A,3,03,08,10,21,01,22,32,14,27,17,,,0.93,0.55,0.75,1*06
$GNGSA,A,3,66,81,65,88,82,67,73,,,,,,0.93,0.55,0.75,2*0F
$GNGSA,A,3,15,34,05,03,21,09,27,,,,,,0.93,0.55,0.75,3*01
$GNVTG,,T,,M,0.086,N,0.158,K,A*3F
$SMGPS,-0.0 m,-0.01 m/s,7.10 VRx,0.000 km,5 m,344.0 °,1:-- (  0.0 km/h),471.3 m*B9
$SMGPS2,-0.07 X,+0.24 Y,+0.92 Z,5 ENL,0 us,0.0 kmh,967.36 hPa,967.23 hPa,+0.00 m/s*02
$GNRMC,172952.90,A,4816.47991,N,01139.86661,E,0.35,,080522,,,A,V*20
$GNGNS,172952.90,4816.47991,N,01139.86661,E,AAAN,24,0.55,480.3,46.2,,,V*1B
$GNGSA,A,3,03,08,10,21,01,22,32,14,27,17,,,0.93,0.55,0.75,1*06
$GNGSA,A,3,66,81,65,88,82,67,73,,,,,,0.93,0.55,0.75,2*0F
$GNGSA,A,3,15,34,05,03,21,09,27,,,,,,0.93,0.55,0.75,3*01
$GNVTG,,T,,M,0.349,N,0.646,K,A*37
$SMGPS,-0.0 m,-0.01 m/s,7.07 VRx,0.000 km,5 m,344.0 °,1:-- (  0.0 km/h),471.3 m*BF
$SMGPS2,-0.08 X,+0.26 Y,+0.94 Z,6 ENL,0 us,0.0 kmh,967.36 hPa,967.23 hPa,+0.00 m/s*0A
$GNRMC,172953.00,A,4816.47993,N,01139.86660,E,0.25,,080522,,,A,V*2A
$GNGNS,172953.00,4816.47993,N,01139.86660,E,AAAN,24,0.55,480.3,46.2,,,V*10
$GNGSA,A,3,03,08,10,21,01,22,32,14,27,17,,,0.93,0.55,0.75,1*06
$GNGSA,A,3,66,81,65,88,82,67,73,,,,,,0.93,0.55,0.75,2*0F
$GNGSA,A,3,15,34,05,03,21,09,27,,,,,,0.93,0.55,0.75,3*01
$GNVTG,,T,,M,0.249,N,0.461,K,A*31
$SMGPS,-0.0 m,-0.01 m/s,7.09 VRx,0.000 km,5 m,344.0 °,1:-- (  0.0 km/h),471.3 m*B1
$SMGPS2,-0.08 X,+0.25 Y,+0.94 Z,5 ENL,0 us,0.0 kmh,967.36 hPa,967.23 hPa,-0.00 m/s*0C
$GNRMC,172953.10,A,4816.47995,N,01139.86658,E,0.44,,080522,,,A,V*21
$GNGNS,172953.10,4816.47995,N,01139.86658,E,AAAN,24,0.55,480.3,46.2,,,V*1C
$GNGSA,A,3,03,08,10,21,01,22,32,14,27,17,,,0.93,0.55,0.75,1*06
$GNGSA,A,3,66,81,65,88,82,67,73,,,,,,0.93,0.55,0.75,2*0F
$GNGSA,A,3,15,34,05,03,21,09,27,,,,,,0.93,0.55,0.75,3*01
$GNVTG,,T,,M,0.443,N,0.821,K,A*35
$SMGPS,-0.0 m,-0.01 m/s,7.08 VRx,0.000 km,5 m,344.0 °,1:-- (  0.0 km/h),471.3 m*B0
$SMGPS2,-0.06 X,+0.26 Y,+0.93 Z,6 ENL,0 us,0.0 kmh,967.36 hPa,967.23 hPa,-0.00 m/s*05
$GNRMC,172953.20,A,4816.47997,N,01139.86657,E,0.12,,080522,,,A,V*2C
$GNGNS,172953.20,4816.47997,N,01139.86657,E,AAAN,24,0.55,480.3,46.2,,,V*12
$GNGSA,A,3,03,08,10,21,01,22,32,14,27,17,,,0.93,0.55,0.75,1*06
$GNGSA,A,3,66,81,65,88,82,67,73,,,,,,0.93,0.55,0.75,2*0F
$GNGSA,A,3,15,34,05,03,21,09,27,,,,,,0.93,0.55,0.75,3*01
$GNVTG,,T,,M,0.116,N,0.215,K,A*3D
$SMGPS,0.0 m,-0.01 m/s,7.09 VRx,0.000 km,5 m,344.0 °,1:-- (  0.0 km/h),471.3 m*9C
$SMGPS2,-0.05 X,+0.26 Y,+0.92 Z,6 ENL,0 us,0.0 kmh,967.36 hPa,967.22 hPa,+0.00 m/s*00
$GNRMC,172953.30,A,4816.47998,N,01139.86657,E,0.13,,080522,,,A,V*23
$GNGNS,172953.30,4816.47998,N,01139.86657,E,AAAN,24,0.55,480.3,46.2,,,V*1C
$GNGSA,A,3,03,08,10,21,01,22,32,14,27,17,,,0.93,0.55,0.75,1*06
$GNGSA,A,3,66,81,65,88,82,67,73,,,,,,0.93,0.55,0.75,2*0F
$GNGSA,A,3,15,34,05,03,21,09,27,,,,,,0.93,0.55,0.75,3*01
$GNVTG,,T,,M,0.128,N,0.237,K,A*30
$SMGPS,-0.0 m,-0.02 m/s,7.08 VRx,0.000 km,5 m,344.0 °,1:-- (  0.0 km/h),471.3 m*B3
$SMGPS2,-0.05 X,+0.24 Y,+0.93 Z,6 ENL,0 us,0.0 kmh,967.36 hPa,967.23 hPa,+0.00 m/s*02
$GNRMC,172953.40,A,4816.47999,N,01139.86656,E,0.10,,080522,,,A,V*27
$GNGNS,172953.40,4816.47999,N,01139.86656,E,AAAN,24,0.55,480.3,46.2,,,V*1B
$GNGSA,A,3,03,08,10,21,01,22,32,14,27,17,,,0.93,0.55,0.75,1*06
$GNGSA,A,3,66,81,65,88,82,67,73,,,,,,0.93,0.55,0.75,2*0F
$GNGSA,A,3,15,34,05,03,21,09,27,,,,,,0.93,0.55,0.75,3*01
$GNVTG,,T,,M,0.096,N,0.178,K,A*3C
$SMGPS,0.0 m,-0.02 m/s,7.09 VRx,0.000 km,5 m,344.0 °,1:-- (  0.0 km/h),471.4 m*98
$SMGPS2,-0.08 X,+0.27 Y,+0.93 Z,5 ENL,0 us,0.0 kmh,967.36 hPa,967.23 hPa,+0.00 m/s*0F
$GNRMC,172953.50,A,4816.48000,N,01139.86655,E,0.29,,080522,,,A,V*29
$GNGNS,172953.50,4816.48000,N,01139.86655,E,AAAN,24,0.55,480.3,46.2,,,V*1F
$GNGSA,A,3,03,08,10,21,01,22,32,14,27,17,,,0.93,0.55,0.75,1*06
$GNGSA,A,3,66,81,65,88,82,67,73,,,,,,0.93,0.55,0.75,2*0F
$GNGSA,A,3,15,34,05,03,21,09,27,,,,,,0.93,0.55,0.75,3*01
$GNVTG,,T,,M,0.287,N,0.531,K,A*37
$SMGPS,-0.0 m,-0.02 m/s,7.08 VRx,0.000 km,5 m,344.0 °,1:-- (  0.0 km/h),471.4 m*B4
$SMGPS2,-0.08 X,+0.26 Y,+0.93 Z,2 ENL,0 us,0.0 kmh,967.36 hPa,967.23 hPa,+0.00 m/s*09
$GNRMC,172953.60,A,4816.48001,N,01139.86655,E,0.08,,080522,,,A,V*28
$GNGNS,172953.60,4816.48001,N,01139.86655,E,AAAN,24,0.55,480.3,46.2,,,V*1D
$GNGSA,A,3,03,08,10,21,01,22,32,14,27,17,,,0.93,0.55,0.75,1*06
$GNGSA,A,3,66,81,65,88,82,67,73,,,,,,0.93,0.55,0.75,2*0F
$GNGSA,A,3,15,34,05,03,21,09,27,,,,,,0.93,0.55,0.75,3*01
$GNVTG,,T,,M,0.076,N,0.140,K,A*39
$SMGPS,-0.0 m,-0.01 m/s,7.09 VRx,0.000 km,5 m,344.0 °,1:-- (  0.0 km/h),471.4 m*B6
$SMGPS2,-0.07 X,+0.24 Y,+0.94 Z,0 ENL,0 us,0.0 kmh,967.36 hPa,967.23 hPa,+0.00 m/s*01
$GNRMC,172953.70,A,4816.48002,N,01139.86655,E,0.24,,080522,,,A,V*24
$GNGNS,172953.70,4816.48002,N,01139.86655,E,AAAN,24,0.55,480.3,46.2,,,V*1F
$GNGSA,A,3,03,08,10,21,01,22,32,14,27,17,,,0.93,0.55,0.75,1*06
$GNGSA,A,3,66,81,65,88,82,67,73,,,,,,0.93,0.55,0.75,2*0F
$GNGSA,A,3,15,34,05,03,21,09,27,,,,,,0.93,0.55,0.75,3*01
$GNVTG,,T,,M,0.243,N,0.450,K,A*39
$SMGPS,0.0 m,-0.01 m/s,7.08 VRx,0.000 km,5 m,344.0 °,1:-- (  0.0 km/h),471.4 m*9A
$SMGPS2,-0.07 X,+0.24 Y,+0.92 Z,4 ENL,0 us,0.0 kmh,967.36 hPa,967.22 hPa,+0.01 m/s*03
$GNRMC,172953.80,A,4816.48001,N,01139.86656,E,0.14,,080522,,,A,V*28
$GNGNS,172953.80,4816.48001,N,01139.86656,E,AAAN,24,0.55,480.3,46.2,,,V*10
$GNGSA,A,3,03,08,10,21,01,22,32,14,27,17,,,0.93,0.55,0.75,1*06
$GNGSA,A,3,66,81,65,88,82,67,73,,,,,,0.93,0.55,0.75,2*0F
$GNGSA,A,3,15,34,05,03,21,09,27,,,,,,0.93,0.55,0.75,3*01
$GNVTG,,T,,M,0.140,N,0.259,K,A*36
$SMGPS,-0.0 m,-0.02 m/s,7.10 VRx,0.000 km,5 m,344.0 °,1:-- (  0.0 km/h),471.5 m*BC
$SMGPS2,-0.08 X,+0.25 Y,+0.93 Z,6 ENL,0 us,0.0 kmh,967.36 hPa,967.23 hPa,+0.01 m/s*0F
$GNRMC,172953.90,A,4816.48000,N,01139.86657,E,0.07,,080522,,,A,V*2B
$GNGNS,172953.90,4816.48000,N,01139.86657,E,AAAN,24,0.55,480.3,46.2,,,V*11
$GNGSA,A,3,03,08,10,21,01,22,32,14,27,17,,,0.93,0.55,0.75,1*06
$GNGSA,A,3,66,81,65,88,82,67,73,,,,,,0.93,0.55,0.75,2*0F
$GNGSA,A,3,15,34,05,03,21,09,27,,,,,,0.93,0.55,0.75,3*01
$GNVTG,,T,,M,0.067,N,0.124,K,A*3B
$SMGPS,0.0 m,-0.02 m/s,7.06 VRx,0.000 km,5 m,344.0 °,1:-- (  0.0 km/h),471.5 m*96
$SMGPS2,-0.08 X,+0.25 Y,+0.93 Z,2 ENL,0 us,0.0 kmh,967.36 hPa,967.23 hPa,+0.01 m/s*0B
$GNRMC,172954.00,A,4816.48000,N,01139.86658,E,0.21,,080522,,,A,V*2E
$GNGNS,172954.00,4816.48000,N,01139.86658,E,AAAN,24,0.55,480.3,46.2,,,V*10
$GNGSA,A,3,03,08,10,21,01,22,32,14,27,17,,,0.93,0.55,0.75,1*06
$GNGSA,A,3,66,81,65,88,82,67,73,,,,,,0.93,0.55,0.75,2*0F
$GNGSA,A,3,15,34,05,03,21,09,27,,,,,,0.93,0.55,0.75,3*01
$GNVTG,,T,,M,0.204,N,0.379,K,A*36
$SMGPS,-0.0 m,-0.01 m/s,7.08 VRx,0.000 km,5 m,344.0 °,1:-- (  0.0 km/h),471.5 m*B6
$SMGPS2,-0.08 X,+0.25 Y,+0.93 Z,2 ENL,0 us,0.0 kmh,967.36 hPa,967.22 hPa,+0.01 m/s*0A
$GNRMC,172954.10,A,4816.48000,N,01139.86658,E,0.21,,080522,,,A,V*2F
$GNGNS,172954.10,4816.48000,N,01139.86658,E,AAAN,24,0.55,480.3,46.2,,,V*11
$GNGSA,A,3,03,08,10,21,01,22,32,14,27,17,,,0.93,0.55,0.75,1*06
$GNGSA,A,3,66,81,65,88,82,67,73,,,,,,0.93,0.55,0.75,2*0F
$GNGSA,A,3,15,34,05,03,21,09,27,,,,,,0.93,0.55,0.75,3*01
$GNVTG,,T,,M,0.212,N,0.393,K,A*35
$SMGPS,-0.0 m,-0.01 m/s,7.07 VRx,0.000 km,5 m,344.0 °,1:-- (  0.0 km/h),471.5 m*B9
$SMGPS2,-0.06 X,+0.25 Y,+0.92 Z,0 ENL,0 us,0.0 kmh,967.36 hPa,967.23 hPa,+0.00 m/s*07
$GNRMC,172954.20,A,4816.48000,N,01139.86659,E,0.15,,080522,,,A,V*2A
$GNGNS,172954.20,4816.48000,N,01139.86659,E,AAAN,24,0.55,480.3,46.2,,,V*13
$GNGSA,A,3,03,08,10,21,01,22,32,14,27,17,,,0.93,0.55,0.75,1*06
$GNGSA,A,3,66,81,65,88,82,67,73,,,,,,0.93,0.55,0.75,2*0F
$GNGSA,A,3,15,34,05,03,21,09,27,,,,,,0.93,0.55,0.75,3*01
$GNVTG,,T,,M,0.148,N,0.274,K,A*31
$SMGPS,0.0 m,-0.01 m/s,7.08 VRx,0.000 km,5 m,344.0 °,1:-- (  0.0 km/h),471.5 m*9B
$SMGPS2,-0.07 X,+0.27 Y,+0.94 Z,1 ENL,0 us,0.0 kmh,967.36 hPa,967.23 hPa,-0.00 m/s*05
$GNRMC,172954.30,A,4816.48000,N,01139.86660,E,0.11,,080522,,,A,V*25
$GNGNS,172954.30,4816.48000,N,01139.86660,E,AAAN,24,0.55,480.3,46.2,,,V*18
$GNGSA,A,3,03,08,10,21,01,22,32,14,27,17,,,0.93,0.55,0.75,1*06
$GNGSA,A,3,66,81,65,88,82,67,73,,,,,,0.93,0.55,0.75,2*0F
$GNGSA,A,3,15,34,05,03,21,09,27,,,,,,0.93,0.55,0.75,3*01
$GNVTG,,T,,M,0.109,N,0.202,K,A*35
$SMGPS,0.0 m,-0.01 m/s,7.08 VRx,0.000 km,5 m,344.0 °,1:-- (  0.0 km/h),471.5 m*9B
$SMGPS2,-0.07 X,+0.26 Y,+0.93 Z,1 ENL,0 us,0.0 kmh,967.36 hPa,967.23 hPa,-0.01 m/s*02
$GNRMC,172954.40,A,4816.48000,N,01139.86661,E,0.15,,080522,,,A,V*27
$GNGNS,172954.40,4816.48000,N,01139.86661,E,AAAN,24,0.55,480.3,46.2,,,V*1E
$GNGSA,A,3,03,08,10,21,01,22,32,14,27,17,,,0.93,0.55,0.75,1*06
$GNGSA,A,3,66,81,65,88,82,67,73,,,,,,0.93,0.55,0.75,2*0F
$GNGSA,A,3,15,34,05,03,21,09,27,,,,,,0.93,0.55,0.75,3*01
$GNVTG,,T,,M,0.145,N,0.269,K,A*30
$SMGPS,0.0 m,-0.01 m/s,7.09 VRx,0.000 km,5 m,344.0 °,1:-- (  0.0 km/h),471.5 m*9A
$SMGPS2,-0.06 X,+0.25 Y,+0.93 Z,5 ENL,0 us,0.0 kmh,967.36 hPa,967.23 hPa,-0.01 m/s*04
$GNRMC,172954.50,A,4816.48000,N,01139.86661,E,0.05,,080522,,,A,V*27
$GNGNS,172954.50,4816.48000,N,01139.86661,E,AAAN,24,0.55,480.3,46.2,,,V*1F
$GNGSA,A,3,03,08,10,21,01,22,32,14,27,17,,,0.93,0.55,0.75,1*06
$GNGSA,A,3,66,81,65,88,82,67,73,,,,,,0.93,0.55,0.75,2*0F
$GNGSA,A,3,15,34,05,03,21,09,27,,,,,,0.93,0.55,0.75,3*01
$GNVTG,,T,,M,0.054,N,0.100,K,A*3D
$SMGPS,0.0 m,-0.00 m/s,7.07 VRx,0.000 km,5 m,344.0 °,1:-- (  0.0 km/h),471.6 m*96
$SMGPS2,-0.06 X,+0.26 Y,+0.92 Z,5 ENL,0 us,0.0 kmh,967.36 hPa,967.23 hPa,-0.00 m/s*07
$GNRMC,172954.60,A,4816.48000,N,01139.86662,E,0.22,,080522,,,A,V*22
$GNGNS,172954.60,4816.48000,N,01139.86662,E,AAAN,24,0.55,480.3,46.2,,,V*1F
$GNGSA,A,3,03,08,10,21,01,22,32,14,27,17,,,0.93,0.55,0.75,1*06
$GNGSA,A,3,66,81,65,88,82,67,73,,,,,,0.93,0.55,0.75,2*0F
$GNGSA,A,3,15,34,05,03,21,09,27,,,,,,0.93,0.55,0.75,3*01
$GNVTG,,T,,M,0.219,N,0.405,K,A*36
$SMGPS,-0.0 m,-0.01 m/s,7.10 VRx,0.000 km,5 m,344.0 °,1:-- (  0.0 km/h),471.6 m*BC
$SMGPS2,-0.05 X,+0.25 Y,+0.93 Z,5 ENL,0 us,0.0 kmh,967.36 hPa,967.22 hPa,-0.00 m/s*07
$GNRMC,172954.70,A,4816.48000,N,01139.86663,E,0.35,,080522,,,A,V*24
$GNGNS,172954.70,4816.48000,N,01139.86663,E,AAAN,24,0.55,480.3,46.2,,,V*1F
$GNGSA,A,3,03,08,10,21,01,22,32,14,27,17,,,0.93,0.55,0.75,1*06
$GNGSA,A,3,66,81,65,88,82,67,73,,,,,,0.93,0.55,0.75,2*0F
$GNGSA,A,3,15,34,05,03,21,09,27,,,,,,0.93,0.55,0.75,3*01
$GNVTG,,T,,M,0.347,N,0.642,K,A*3D
$SMGPS,0.0 m,-0.00 m/s,7.07 VRx,0.000 km,5 m,344.0 °,1:-- (  0.0 km/h),471.6 m*96
$SMGPS2,-0.05 X,+0.25 Y,+0.93 Z,6 ENL,0 us,0.0 kmh,967.36 hPa,967.23 hPa,-0.01 m/s*04
$GNRMC,172954.80,A,4816.48000,N,01139.86665,E,0.27,,080522,,,A,V*2E
$GNGNS,172954.80,4816.48000,N,01139.86665,E,AAAN,24,0.55,480.3,46.2,,,V*16
$GNGSA,A,3,03,08,10,21,01,22,32,14,27,17,,,0.93,0.55,0.75,1*06
$GNGSA,A,3,66,81,65,88,82,67,73,,,,,,0.93,0.55,0.75,2*0F
$GNGSA,A,3,15,34,05,03,21,09,27,,,,,,0.93,0.55,0.75,3*01
$GNVTG,,T,,M,0.273,N,0.506,K,A*38
$SMGPS,-0.0 m,-0.00 m/s,7.09 VRx,0.000 km,5 m,344.0 °,1:-- (  0.0 km/h),471.6 m*B5
$SMGPS2,-0.05 X,+0.25 Y,+0.95 Z,6 ENL,0 us,0.0 kmh,967.36 hPa,967.23 hPa,-0.01 m/s*02
$GNRMC,172954.90,A,4816.48001,N,01139.86666,E,0.13,,080522,,,A,V*2A
$GNGNS,172954.90,4816.48001,N,01139.86666,E,AAAN,24,0.55,480.3,46.2,,,V*15
$GNGSA,A,3,03,08,10,21,01,22,32,14,27,17,,,0.93,0.55,0.75,1*06
$GNGSA,A,3,66,81,65,88,82,67,73,,,,,,0.93,0.55,0.75,2*0F
$GNGSA,A,3,15,34,05,03,21,09,27,,,,,,0.93,0.55,0.75,3*01
$GNVTG,,T,,M,0.129,N,0.239,K,A*3F
$SMGPS,-0.0 m,-0.01 m/s,7.07 VRx,0.000 km,5 m,345.6 °,1:-- (  0.0 km/h),471.7 m*BC
$SMGPS2,-0.03 X,+0.26 Y,+0.93 Z,7 ENL,0 us,0.0 kmh,967.36 hPa,967.23 hPa,-0.01 m/s*00
$GNRMC,172955.00,A,4816.48002,N,01139.86667,E,0.29,,080522,,,A,V*29
$GNGNS,172955.00,4816.48002,N,01139.86667,E,AAAN,24,0.55,480.3,46.2,,,V*1F
$GNGSA,A,3,03,08,10,21,01,22,32,14,27,17,,,0.93,0.55,0.75,1*06
$GNGSA,A,3,66,81,65,88,82,67,73,,,,,,0.93,0.55,0.75,2*0F
$GNGSA,A,3,15,34,05,03,21,09,27,,,,,,0.93,0.55,0.75,3*01
$GNVTG,,T,,M,0.291,N,0.538,K,A*39
$SMGPS,0.0 m,-0.00 m/s,7.09 VRx,0.000 km,5 m,345.6 °,1:-- (  0.0 km/h),471.7 m*9E
$SMGPS2,+0.00 X,+0.29 Y,+0.94 Z,7 ENL,0 us,0.0 kmh,967.36 hPa,967.23 hPa,-0.01 m/s*0D
$GNRMC,172955.10,A,4816.48003,N,01139.86668,E,0.25,,080522,,,A,V*2A
$GNGNS,172955.10,4816.48003,N,01139.86668,E,AAAN,24,0.55,480.3,46.2,,,V*10
$GNGSA,A,3,03,08,10,21,01,22,32,14,27,17,,,0.93,0.55,0.75,1*06
$GNGSA,A,3,66,81,65,88,82,67,73,,,,,,0.93,0.55,0.75,2*0F
$GNGSA,A,3,15,34,05,03,21,09,27,,,,,,0.93,0.55,0.75,3*01
$GNVTG,,T,,M,0.248,N,0.459,K,A*3B
$SMGPS,-0.0 m,-0.00 m/s,7.06 VRx,0.000 km,5 m,345.6 °,1:-- (  0.0 km/h),471.7 m*BC
$SMGPS2,+0.01 X,+0.30 Y,+0.91 Z,5 ENL,0 us,0.0 kmh,967.36 hPa,967.23 hPa,-0.01 m/s*03
$GNRMC,172955.20,A,4816.48005,N,01139.86670,E,0.58,,080522,,,A,V*2C
$GNGNS,172955.20,4816.48005,N,01139.86670,E,AAAN,24,0.55,480.4,46.2,,,V*1B
$GNGSA,A,3,03,08,10,21,01,22,32,14,27,17,,,0.93,0.55,0.75,1*06
$GNGSA,A,3,66,81,65,88,82,67,73,,,,,,0.93,0.55,0.75,2*0F
$GNGSA,A,3,15,34,05,03,21,09,27,,,,,,0.93,0.55,0.75,3*01
$GNVTG,,T,,M,0.584,N,1.081,K,A*3C
$SMGPS,0.1 m,-0.00 m/s,7.10 VRx,0.000 km,5 m,345.6 °,1:-- (  0.0 km/h),471.7 m*97
$SMGPS2,+0.01 X,+0.30 Y,+0.91 Z,5 ENL,0 us,0.0 kmh,967.35 hPa,967.23 hPa,-0.01 m/s*00
$GNRMC,172955.30,A,4816.48006,N,01139.86672,E,0.70,,080522,,,A,V*26
$GNGNS,172955.30,4816.48006,N,01139.86672,E,AAAN,24,0.55,480.3,46.2,,,V*1C
$GNGSA,A,3,03,08,10,21,01,22,32,14,27,17,,,0.93,0.55,0.75,1*06
$GNGSA,A,3,66,81,65,88,82,67,73,,,,,,0.93,0.55,0.75,2*0F
$GNGSA,A,3,15,34,05,03,21,09,27,,,,,,0.93,0.55,0.75,3*01
$GNVTG,,T,,M,0.700,N,1.296,K,A*36
$SMGPS,0.0 m,+0.01 m/s,7.12 VRx,0.000 km,5 m,345.6 °,1:-- (  0.0 km/h),471.7 m*93
$SMGPS2,+0.04 X,+0.28 Y,+0.89 Z,6 ENL,0 us,0.0 kmh,967.36 hPa,967.23 hPa,-0.02 m/s*06
$GNRMC,172955.40,A,4816.48007,N,01139.86676,E,1.39,74.66,080522,,,A,V*05
$GNGNS,172955.40,4816.48007,N,01139.86676,E,AAAN,24,0.55,480.3,46.2,,,V*1E
$GNGSA,A,3,03,08,10,21,01,22,32,14,27,17,,,0.93,0.55,0.75,1*06
$GNGSA,A,3,66,81,65,88,82,67,73,,,,,,0.93,0.55,0.75,2*0F
$GNGSA,A,3,15,34,05,03,21,09,27,,,,,,0.93,0.55,0.75,3*01
$GNVTG,74.66,T,,M,1.385,N,2.565,K,A*1B
$SMGPS,0.0 m,+0.01 m/s,7.11 VRx,0.000 km,5 m,345.6 °,1:-- (  0.0 km/h),471.7 m*90
$SMGPS2,+0.04 X,+0.32 Y,+0.94 Z,6 ENL,0 us,0.0 kmh,967.36 hPa,967.23 hPa,-0.02 m/s*01
$GNRMC,172955.50,A,4816.48008,N,01139.86682,E,1.59,87.71,080522,,,A,V*0C
$GNGNS,172955.50,4816.48008,N,01139.86682,E,AAAN,24,0.55,480.3,46.2,,,V*1B
$GNGSA,A,3,03,08,10,21,01,22,32,14,27,17,,,0.93,0.55,0.75,1*06
$GNGSA,A,3,66,81,65,88,82,67,73,,,,,,0.93,0.55,0.75,2*0F
$GNGSA,A,3,15,34,05,03,21,09,27,,,,,,0.93,0.55,0.75,3*01
$GNVTG,87.71,T,,M,1.589,N,2.942,K,A*12
$SMGPS,0.0 m,+0.01 m/s,7.07 VRx,0.000 km,5 m,345.6 °,1:-- (  0.0 km/h),471.7 m*97
$SMGPS2,-0.03 X,+0.35 Y,+1.00 Z,6 ENL,0 us,0.0 kmh,967.36 hPa,967.22 hPa,-0.01 m/s*09
$GNRMC,172955.60,A,4816.48008,N,01139.86689,E,1.81,96.83,080522,,,A,V*0C
$GNGNS,172955.60,4816.48008,N,01139.86689,E,AAAN,24,0.55,480.3,46.2,,,V*13
$GNGSA,A,3,03,08,10,21,01,22,32,14,27,17,,,0.93,0.55,0.75,1*06
$GNGSA,A,3,66,81,65,88,82,67,73,,,,,,0.93,0.55,0.75,2*0F
$GNGSA,A,3,15,34,05,03,21,09,27,,,,,,0.93,0.55,0.75,3*01
$GNVTG,96.83,T,,M,1.808,N,3.348,K,A*1A
$SMGPS,0.0 m,+0.02 m/s,7.06 VRx,0.000 km,5 m,347.2 °,1:-- (  0.0 km/h),471.8 m*9C
$SMGPS2,-0.13 X,+0.32 Y,+0.99 Z,5 ENL,0 us,0.0 kmh,967.35 hPa,967.23 hPa,-0.01 m/s*0F
$GNRMC,172955.70,A,4816.48008,N,01139.86696,E,1.67,97.91,080522,,,A,V*09
$GNGNS,172955.70,4816.48008,N,01139.86696,E,AAAN,24,0.55,480.3,46.2,,,V*1C
$GNGSA,A,3,03,08,10,21,01,22,32,14,27,17,,,0.93,0.55,0.75,1*06
$GNGSA,A,3,66,81,65,88,82,67,73,,,,,,0.93,0.55,0.75,2*0F
$GNGSA,A,3,15,34,05,03,21,09,27,,,,,,0.93,0.55,0.75,3*01
$GNVTG,97.91,T,,M,1.673,N,3.098,K,A*14
$SMGPS,0.0 m,+0.01 m/s,7.06 VRx,0.000 km,5 m,348.9 °,1:-- (  0.0 km/h),471.8 m*9B
$SMGPS2,-0.10 X,+0.29 Y,+1.00 Z,5 ENL,0 us,0.0 kmh,967.35 hPa,967.22 hPa,-0.00 m/s*07
$GNRMC,172955.80,A,4816.48008,N,01139.86703,E,1.52,95.80,080522,,,A,V*0F
$GNGNS,172955.80,4816.48008,N,01139.86703,E,AAAN,24,0.55,480.3,46.2,,,V*1E
$GNGSA,A,3,03,08,10,21,01,22,32,14,27,17,,,0.93,0.55,0.75,1*06
$GNGSA,A,3,66,81,65,88,82,67,73,,,,,,0.93,0.55,0.75,2*0F
$GNGSA,A,3,15,34,05,03,21,09,27,,,,,,0.93,0.55,0.75,3*01
$GNVTG,95.80,T,,M,1.524,N,2.823,K,A*1E
$SMGPS,0.0 m,+0.02 m/s,7.08 VRx,0.000 km,5 m,348.9 °,1:-- (  0.0 km/h),471.8 m*96
$SMGPS2,+0.00 X,+0.24 Y,+0.81 Z,6 ENL,0 us,0.0 kmh,967.36 hPa,967.22 hPa,+0.00 m/s*03
$GNRMC,172955.90,A,4816.48009,N,01139.86710,E,1.69,96.11,080522,,,A,V*0E
$GNGNS,172955.90,4816.48009,N,01139.86710,E,AAAN,24,0.55,480.3,46.2,,,V*1C
$GNGSA,A,3,03,08,10,21,01,22,32,14,27,17,,,0.93,0.55,0.75,1*06
$GNGSA,A,3,66,81,65,88,82,67,73,,,,,,0.93,0.55,0.75,2*0F
$GNGSA,A,3,15,34,05,03,21,09,27,,,,,,0.93,0.55,0.75,3*01
$GNVTG,96.11,T,,M,1.691,N,3.132,K,A*10
$SMGPS,0.0 m,+0.02 m/s,7.08 VRx,0.000 km,5 m,350.6 °,1:-- (  0.0 km/h),471.8 m*90
$SMGPS2,+0.02 X,+0.19 Y,+0.84 Z,6 ENL,0 us,0.0 kmh,967.35 hPa,967.22 hPa,+0.01 m/s*08
$GNRMC,172956.00,A,4816.48009,N,01139.86719,E,1.84,96.21,080522,,,A,V*0D
$GNGNS,172956.00,4816.48009,N,01139.86719,E,AAAN,24,0.55,480.3,46.2,,,V*1F
$GNGSA,A,3,03,08,10,21,01,22,32,14,27,17,,,0.93,0.55,0.75,1*06
$GNGSA,A,3,66,81,65,88,82,67,73,,,,,,0.93,0.55,0.75,2*0F
$GNGSA,A,3,15,34,05,03,21,09,27,,,,,,0.93,0.55,0.75,3*01
$GNVTG,96.21,T,,M,1.844,N,3.415,K,A*15
$SMGPS,0.0 m,+0.02 m/s,7.08 VRx,0.000 km,5 m,350.6 °,1:-- (  0.0 km/h),471.8 m*90
$SMGPS2,+0.05 X,+0.25 Y,+0.91 Z,5 ENL,0 us,0.0 kmh,967.35 hPa,967.22 hPa,+0.02 m/s*04
$GNRMC,172956.10,A,4816.48008,N,01139.86728,E,2.46,103.61,080522,,,A,V*3B
$GNGNS,172956.10,4816.48008,N,01139.86728,E,AAAN,24,0.55,480.3,46.2,,,V*1D
$GNGSA,A,3,03,08,10,21,01,22,32,14,27,17,,,0.93,0.55,0.75,1*06
$GNGSA,A,3,66,81,65,88,82,67,73,,,,,,0.93,0.55,0.75,2*0F
$GNGSA,A,3,15,34,05,03,21,09,27,,,,,,0.93,0.55,0.75,3*01
$GNVTG,103.61,T,,M,2.463,N,4.561,K,A*23
$SMGPS,0.0 m,+0.03 m/s,7.03 VRx,0.001 km,5 m,353.1 °,1:-- (  0.0 km/h),471.9 m*9E
$SMGPS2,+0.02 X,+0.30 Y,+1.02 Z,5 ENL,0 us,0.0 kmh,967.35 hPa,967.22 hPa,+0.02 m/s*0C
$GNRMC,172956.20,A,4816.48007,N,01139.86738,E,2.38,104.98,080522,,,A,V*3E
$GNGNS,172956.20,4816.48007,N,01139.86738,E,AAAN,24,0.55,480.3,46.2,,,V*10
$GNGSA,A,3,03,08,10,21,01,22,32,14,27,17,,,0.93,0.55,0.75,1*06
$GNGSA,A,3,66,81,65,88,82,67,73,,,,,,0.93,0.55,0.75,2*0F
$GNGSA,A,3,15,34,05,03,21,09,27,,,,,,0.93,0.55,0.75,3*01
$GNVTG,104.98,T,,M,2.383,N,4.413,K,A*2F
$SMGPS,0.0 m,+0.03 m/s,7.08 VRx,0.001 km,5 m,354.8 °,1:-- (  0.0 km/h),471.9 m*9B
$SMGPS2,+0.02 X,+0.32 Y,+1.02 Z,6 ENL,0 us,0.0 kmh,967.35 hPa,967.22 hPa,+0.02 m/s*0D
$GNRMC,172956.30,A,4816.48006,N,01139.86748,E,2.33,103.63,080522,,,A,V*31
