$GPSSETUP,8AE8,0,1,1,0,0,1,0,0,0,1,3,0,0,0,0,6,0,C8,C8,1F4,1C2,32,64,7C,64,7D0,5,1,1,1E,0,0,0,0,0,0,1003,4,10,5,6,10,10,10,10,10,10,10,10,10,BC10,0,80,0,108,302,604,0,20F,0,0,0,0,0,0,0,0,0,0,0,0,0,0,0,0,0,0,0,0,0,0,0,0,0,0,0,0,0,0,0,0,0,20,12C,1EC6*46
$GNRMC,172415.40,A,4816.49473,N,01139.88131,E,0.91,,080522,,,A,V*2E
$GNGNS,172415.40,4816.49473,N,01139.88131,E,AANN,07,1.35,474.9,46.2,,,V*13
$GNGSA,A,3,01,14,03,08,22,,,,,,,,2.57,1.35,2.18,1*02
$GNGSA,A,3,88,67,,,,,,,,,,,2.57,1.35,2.18,2*0F
$GNGSA,A,3,,,,,,,,,,,,,2.57,1.35,2.18,3*0F
$GNVTG,,T,,M,0.911,N,1.687,K,A*3C
$SMGPS,-0.0 m,+0.00 m/s,7.62 VRx,0.000 km,8 m,221.2 °,1:-- (  0.0 km/h),474.9 m*B9
$SMGPS2,-0.09 X,+0.27 Y,+0.93 Z,2 ENL,0 us,0.0 kmh,967.39 hPa,967.27 hPa,-0.01 m/s*05
$GNRMC,172415.50,A,4816.49333,N,01139.87898,E,0.78,,080522,,,A,V*2E
$GNGNS,172415.50,4816.49333,N,01139.87898,E,AANN,07,1.35,474.9,46.2,,,V*14
$GNGSA,A,3,01,14,03,08,22,,,,,,,,2.57,1.35,2.18,1*02
$GNGSA,A,3,88,67,,,,,,,,,,,2.57,1.35,2.18,2*0F
$GNGSA,A,3,,,,,,,,,,,,,2.57,1.35,2.18,3*0F
$GNVTG,,T,,M,0.782,N,1.449,K,A*38
$SMGPS,0.0 m,+0.00 m/s,7.64 VRx,0.000 km,8 m,223.8 °,1:-- (  0.0 km/h),482.3 m*99
$SMGPS2,-0.09 X,+0.27 Y,+0.93 Z,0 ENL,0 us,0.0 kmh,967.39 hPa,967.27 hPa,-0.00 m/s*06
$GNRMC,172415.60,A,4816.49145,N,01139.87523,E,0.18,,080522,,,A,V*25
$GNGNS,172415.60,4816.49145,N,01139.87523,E,AANN,08,0.94,474.9,46.2,,,V*1C
$GNGSA,A,3,01,14,03,08,22,10,,,,,,,1.74,0.94,1.46,1*03
$GNGSA,A,3,88,67,,,,,,,,,,,2.57,1.35,2.18,2*0F
$GNGSA,A,3,,,,,,,,,,,,,2.57,1.35,2.18,3*0F
$GNVTG,,T,,M,0.180,N,0.334,K,A*30
$SMGPS,-0.0 m,+0.00 m/s,7.58 VRx,0.000 km,11 m,225.2 °,1:-- (  0.0 km/h),485.9 m*82
$SMGPS2,-0.09 X,+0.27 Y,+0.92 Z,1 ENL,0 us,0.0 kmh,967.39 hPa,967.27 hPa,-0.00 m/s*06
$GNRMC,172415.70,A,4816.49023,N,01139.87287,E,0.33,,080522,,,A,V*25
$GNGNS,172415.70,4816.49023,N,01139.87287,E,AANN,08,0.94,474.9,46.2,,,V*15
$GNGSA,A,3,01,14,03,08,22,10,,,,,,,1.74,0.94,1.46,1*03
$GNGSA,A,3,88,67,,,,,,,,,,,1.74,0.94,1.46,2*0F
$GNGSA,A,3,,,,,,,,,,,,,1.74,0.94,1.46,3*0F
$GNVTG,,T,,M,0.333,N,0.617,K,A*3E
$SMGPS,-0.0 m,+0.01 m/s,7.55 VRx,0.000 km,18 m,227.2 °,1:-- (  0.0 km/h),492.0 m*8A
$SMGPS2,-0.09 X,+0.27 Y,+0.92 Z,1 ENL,0 us,0.0 kmh,967.39 hPa,967.28 hPa,-0.00 m/s*09
$GNRMC,172415.80,A,4816.48906,N,01139.87108,E,0.24,,080522,,,A,V*27
$GNGNS,172415.80,4816.48906,N,01139.87108,E,AANN,09,0.85,474.9,46.2,,,V*10
$GNGSA,A,3,01,14,03,08,22,10,,,,,,,1.68,0.85,1.44,1*0C
$GNGSA,A,3,88,67,,,,,,,,,,,1.74,0.94,1.46,2*0F
$GNGSA,A,3,,,,,,,,,,,,,1.74,0.94,1.46,3*0F
$GNVTG,,T,,M,0.241,N,0.447,K,A*3D
$SMGPS,0.0 m,+0.01 m/s,7.59 VRx,0.000 km,21 m,229.1 °,1:-- (  0.0 km/h),495.9 m*A2
$SMGPS2,-0.09 X,+0.26 Y,+0.93 Z,1 ENL,0 us,0.0 kmh,967.39 hPa,967.28 hPa,-0.01 m/s*08
$GNRMC,172415.90,A,4816.48834,N,01139.87010,E,0.96,,080522,,,A,V*27
$GNGNS,172415.90,4816.48834,N,01139.87010,E,AANN,09,0.85,474.9,46.2,,,V*19
$GNGSA,A,3,01,14,03,08,22,10,,,,,,,1.68,0.85,1.44,1*0C
$GNGSA,A,3,88,82,67,,,,,,,,,,1.68,0.85,1.44,2*0A
$GNGSA,A,3,,,,,,,,,,,,,1.68,0.85,1.44,3*00
$GNVTG,,T,,M,0.959,N,1.776,K,A*3F
$SMGPS,-0.0 m,+0.01 m/s,7.54 VRx,0.000 km,24 m,229.6 °,1:-- (  0.0 km/h),498.7 m*83
$SMGPS2,-0.09 X,+0.27 Y,+0.93 Z,2 ENL,0 us,0.0 kmh,967.39 hPa,967.28 hPa,-0.01 m/s*0A
$GNRMC,172416.00,A,4816.48805,N,01139.86945,E,0.77,,080522,,,A,V*28
$GNGNS,172416.00,4816.48805,N,01139.86945,E,AANN,08,0.94,474.9,46.2,,,V*18
$GNGSA,A,3,01,14,03,08,22,10,,,,,,,1.74,0.94,1.46,1*03
$GNGSA,A,3,88,82,67,,,,,,,,,,1.68,0.85,1.44,2*0A
$GNGSA,A,3,,,,,,,,,,,,,1.68,0.85,1.44,3*00
$GNVTG,,T,,M,0.772,N,1.430,K,A*39
$SMGPS,0.0 m,+0.01 m/s,7.60 VRx,0.000 km,26 m,227.7 °,1:-- (  0.0 km/h),500.1 m*A2
$SMGPS2,-0.09 X,+0.27 Y,+0.93 Z,1 ENL,0 us,0.0 kmh,967.39 hPa,967.27 hPa,-0.01 m/s*06
$GNRMC,172416.10,A,4816.48773,N,01139.86930,E,1.04,,080522,,,A,V*20
$GNGNS,172416.10,4816.48773,N,01139.86930,E,AANN,09,0.85,474.9,46.2,,,V*14
$GNGSA,A,3,01,14,03,08,22,10,,,,,,,1.68,0.85,1.44,1*0C
$GNGSA,A,3,88,67,,,,,,,,,,,1.74,0.94,1.46,2*0F
$GNGSA,A,3,,,,,,,,,,,,,1.74,0.94,1.46,3*0F
$GNVTG,,T,,M,1.035,N,1.916,K,A*35
$SMGPS,-0.0 m,+0.01 m/s,7.56 VRx,0.000 km,26 m,228.9 °,1:-- (  0.0 km/h),500.9 m*83
$SMGPS2,-0.09 X,+0.27 Y,+0.93 Z,1 ENL,0 us,0.0 kmh,967.40 hPa,967.27 hPa,-0.01 m/s*08
$GNRMC,172416.20,A,4816.48738,N,01139.86903,E,0.76,,080522,,,A,V*28
$GNGNS,172416.20,4816.48738,N,01139.86903,E,AANN,09,0.85,474.9,46.2,,,V*18
$GNGSA,A,3,01,14,03,08,22,10,,,,,,,1.68,0.85,1.44,1*0C
$GNGSA,A,3,88,82,67,,,,,,,,,,1.68,0.85,1.44,2*0A
$GNGSA,A,3,,,,,,,,,,,,,1.68,0.85,1.44,3*00
$GNVTG,,T,,M,0.764,N,1.415,K,A*39
$SMGPS,-0.0 m,+0.00 m/s,7.61 VRx,0.000 km,27 m,227.9 °,1:-- (  0.0 km/h),501.6 m*86
$SMGPS2,-0.09 X,+0.27 Y,+0.93 Z,1 ENL,0 us,0.0 kmh,967.39 hPa,967.28 hPa,-0.01 m/s*09
$GNRMC,172416.30,A,4816.48711,N,01139.86894,E,0.68,,080522,,,A,V*22
$GNGNS,172416.30,4816.48711,N,01139.86894,E,AANN,09,0.85,474.9,46.2,,,V*1D
$GNGSA,A,3,01,14,03,08,22,10,,,,,,,1.68,0.85,1.44,1*0C
$GNGSA,A,3,88,82,67,,,,,,,,,,1.68,0.85,1.44,2*0A
$GNGSA,A,3,,,,,,,,,,,,,1.68,0.85,1.44,3*00
$GNVTG,,T,,M,0.679,N,1.258,K,A*3B
$SMGPS,0.0 m,+0.00 m/s,7.57 VRx,0.000 km,28 m,227.0 °,1:-- (  0.0 km/h),501.6 m*A8
$SMGPS2,-0.10 X,+0.27 Y,+0.93 Z,1 ENL,0 us,0.0 kmh,967.39 hPa,967.27 hPa,-0.01 m/s*0E
$GNRMC,172416.40,A,4816.48683,N,01139.86906,E,0.59,,080522,,,A,V*27
$GNGNS,172416.40,4816.48683,N,01139.86906,E,AAAN,10,0.84,474.9,46.2,,,V*1C
$GNGSA,A,3,01,14,03,08,22,10,,,,,,,1.61,0.84,1.37,1*00
$GNGSA,A,3,88,82,67,,,,,,,,,,1.68,0.85,1.44,2*0A
$GNGSA,A,3,,,,,,,,,,,,,1.68,0.85,1.44,3*00
$GNVTG,,T,,M,0.594,N,1.100,K,A*35
$SMGPS,-0.0 m,-0.01 m/s,7.57 VRx,0.000 km,28 m,227.3 °,1:-- (  0.0 km/h),501.4 m*83
$SMGPS2,-0.09 X,+0.27 Y,+0.92 Z,2 ENL,0 us,0.0 kmh,967.40 hPa,967.27 hPa,-0.01 m/s*0A
$GNRMC,172416.50,A,4816.48669,N,01139.86939,E,0.32,,080522,,,A,V*23
$GNGNS,172416.50,4816.48669,N,01139.86939,E,AAAN,10,0.84,474.9,46.2,,,V*15
$GNGSA,A,3,01,14,03,08,22,10,,,,,,,1.61,0.84,1.37,1*00
$GNGSA,A,3,88,82,67,,,,,,,,,,1.61,0.84,1.37,2*06
$GNGSA,A,3,34,,,,,,,,,,,,1.61,0.84,1.37,3*0B
$GNVTG,,T,,M,0.321,N,0.594,K,A*35
$SMGPS,0.0 m,-0.01 m/s,7.55 VRx,0.000 km,29 m,225.8 °,1:-- (  0.0 km/h),500.8 m*A9
$SMGPS2,-0.09 X,+0.27 Y,+0.93 Z,1 ENL,0 us,0.0 kmh,967.39 hPa,967.27 hPa,-0.00 m/s*07
$GNRMC,172416.60,A,4816.48652,N,01139.86967,E,0.39,,080522,,,A,V*28
$GNGNS,172416.60,4816.48652,N,01139.86967,E,AAAN,10,0.84,474.9,46.2,,,V*15
$GNGSA,A,3,01,14,03,08,22,10,,,,,,,1.61,0.84,1.37,1*00
$GNGSA,A,3,88,82,67,,,,,,,,,,1.61,0.84,1.37,2*06
$GNGSA,A,3,34,,,,,,,,,,,,1.61,0.84,1.37,3*0B
$GNVTG,,T,,M,0.394,N,0.729,K,A*3F
$SMGPS,-0.0 m,-0.01 m/s,7.56 VRx,0.000 km,28 m,225.2 °,1:-- (  0.0 km/h),500.0 m*84
$SMGPS2,-0.09 X,+0.27 Y,+0.92 Z,2 ENL,0 us,0.0 kmh,967.40 hPa,967.28 hPa,+0.00 m/s*02
$GNRMC,172416.70,A,4816.48639,N,01139.87007,E,0.35,,080522,,,A,V*26
$GNGNS,172416.70,4816.48639,N,01139.87007,E,AAAN,10,0.84,474.9,46.2,,,V*17
$GNGSA,A,3,01,14,03,08,22,10,,,,,,,1.61,0.84,1.37,1*00
$GNGSA,A,3,88,82,67,,,,,,,,,,1.61,0.84,1.37,2*06
$GNGSA,A,3,34,,,,,,,,,,,,1.61,0.84,1.37,3*0B
$GNVTG,,T,,M,0.346,N,0.640,K,A*3E
$SMGPS,0.0 m,-0.01 m/s,7.56 VRx,0.000 km,29 m,223.6 °,1:-- (  0.0 km/h),499.4 m*AF
$SMGPS2,-0.09 X,+0.27 Y,+0.93 Z,1 ENL,0 us,0.0 kmh,967.39 hPa,967.28 hPa,+0.00 m/s*0E
$GNRMC,172416.80,A,4816.48631,N,01139.87042,E,0.27,,080522,,,A,V*23
$GNGNS,172416.80,4816.48631,N,01139.87042,E,AAAN,10,0.84,474.9,46.2,,,V*11
$GNGSA,A,3,01,14,03,08,22,10,,,,,,,1.61,0.84,1.37,1*00
$GNGSA,A,3,88,82,67,,,,,,,,,,1.61,0.84,1.37,2*06
$GNGSA,A,3,34,,,,,,,,,,,,1.61,0.84,1.37,3*0B
$GNVTG,,T,,M,0.268,N,0.496,K,A*3A
$SMGPS,0.0 m,-0.00 m/s,7.60 VRx,0.000 km,28 m,222.6 °,1:-- (  0.0 km/h),498.7 m*A9
$SMGPS2,-0.09 X,+0.27 Y,+0.93 Z,1 ENL,0 us,0.0 kmh,967.39 hPa,967.27 hPa,-0.00 m/s*07
$GNRMC,172416.90,A,4816.48621,N,01139.87080,E,0.32,,080522,,,A,V*29
$GNGNS,172416.90,4816.48621,N,01139.87080,E,AAAN,14,0.74,474.9,46.2,,,V*14
$GNGSA,A,3,01,14,03,21,08,22,10,,,,,,1.21,0.74,0.96,1*02
$GNGSA,A,3,88,82,67,,,,,,,,,,1.61,0.84,1.37,2*06
$GNGSA,A,3,34,,,,,,,,,,,,1.61,0.84,1.37,3*0B
$GNVTG,,T,,M,0.322,N,0.596,K,A*34
$SMGPS,0.0 m,+0.00 m/s,7.57 VRx,0.000 km,28 m,222.2 °,1:-- (  0.0 km/h),498.1 m*A9
$SMGPS2,-0.09 X,+0.27 Y,+0.93 Z,1 ENL,0 us,0.0 kmh,967.39 hPa,967.28 hPa,+0.00 m/s*0E
$GNRMC,172417.00,A,4816.48608,N,01139.87108,E,0.22,,080522,,,A,V*2A
$GNGNS,172417.00,4816.48608,N,01139.87108,E,AAAN,14,0.74,474.9,46.2,,,V*16
$GNGSA,A,3,01,14,03,21,08,22,10,,,,,,1.21,0.74,0.96,1*02
$GNGSA,A,3,81,88,82,67,,,,,,,,,1.21,0.74,0.96,2*0E
$GNGSA,A,3,15,34,09,,,,,,,,,,1.21,0.74,0.96,3*07
$GNVTG,,T,,M,0.221,N,0.408,K,A*30
$SMGPS,-0.0 m,+0.00 m/s,7.60 VRx,0.000 km,28 m,221.2 °,1:-- (  0.0 km/h),497.3 m*8E
$SMGPS2,-0.09 X,+0.27 Y,+0.93 Z,1 ENL,0 us,0.0 kmh,967.39 hPa,967.28 hPa,-0.00 m/s*08
$GNRMC,172417.10,A,4816.48599,N,01139.87141,E,0.35,,080522,,,A,V*2B
$GNGNS,172417.10,4816.48599,N,01139.87141,E,AAAN,14,0.74,474.9,46.2,,,V*11
$GNGSA,A,3,01,14,03,21,08,22,10,,,,,,1.21,0.74,0.96,1*02
$GNGSA,A,3,81,88,82,67,,,,,,,,,1.21,0.74,0.96,2*0E
$GNGSA,A,3,15,34,09,,,,,,,,,,1.21,0.74,0.96,3*07
$GNVTG,,T,,M,0.348,N,0.644,K,A*34
$SMGPS,0.0 m,+0.01 m/s,7.55 VRx,0.000 km,28 m,219.6 °,1:-- (  0.0 km/h),497.1 m*A9
$SMGPS2,-0.09 X,+0.27 Y,+0.93 Z,2 ENL,0 us,0.0 kmh,967.39 hPa,967.28 hPa,-0.01 m/s*0A
$GNRMC,172417.20,A,4816.48593,N,01139.87180,E,0.37,,080522,,,A,V*2D
$GNGNS,172417.20,4816.48593,N,01139.87180,E,AAAN,14,0.74,474.9,46.2,,,V*15
$GNGSA,A,3,01,14,03,21,08,22,10,,,,,,1.21,0.74,0.96,1*02
$GNGSA,A,3,81,88,82,67,,,,,,,,,1.21,0.74,0.96,2*0E
$GNGSA,A,3,15,34,09,,,,,,,,,,1.21,0.74,0.96,3*07
$GNVTG,,T,,M,0.374,N,0.693,K,A*31
$SMGPS,-0.0 m,+0.01 m/s,7.57 VRx,0.000 km,28 m,219.0 °,1:-- (  0.0 km/h),496.8 m*88
$SMGPS2,-0.09 X,+0.27 Y,+0.93 Z,1 ENL,0 us,0.0 kmh,967.39 hPa,967.28 hPa,-0.01 m/s*09
$GNRMC,172417.30,A,4816.48592,N,01139.87209,E,0.08,,080522,,,A,V*23
$GNGNS,172417.30,4816.48592,N,01139.87209,E,AAAN,14,0.74,474.8,46.2,,,V*16
$GNGSA,A,3,01,14,03,21,08,22,10,,,,,,1.21,0.74,0.96,1*02
$GNGSA,A,3,81,88,82,67,,,,,,,,,1.21,0.74,0.96,2*0E
$GNGSA,A,3,15,34,09,,,,,,,,,,1.21,0.74,0.96,3*07
$GNVTG,,T,,M,0.081,N,0.150,K,A*30
$SMGPS,-0.1 m,+0.01 m/s,7.55 VRx,0.000 km,28 m,218.2 °,1:-- (  0.0 km/h),496.3 m*83
$SMGPS2,-0.09 X,+0.26 Y,+0.93 Z,1 ENL,0 us,0.0 kmh,967.40 hPa,967.28 hPa,-0.01 m/s*06
$GNRMC,172417.40,A,4816.48588,N,01139.87228,E,0.30,,080522,,,A,V*27
$GNGNS,172417.40,4816.48588,N,01139.87228,E,AAAN,14,0.74,474.9,46.2,,,V*18
$GNGSA,A,3,01,14,03,21,08,22,10,,,,,,1.21,0.74,0.96,1*02
$GNGSA,A,3,81,88,82,67,,,,,,,,,1.21,0.74,0.96,2*0E
$GNGSA,A,3,15,34,09,,,,,,,,,,1.21,0.74,0.96,3*07
$GNVTG,,T,,M,0.301,N,0.557,K,A*38
$SMGPS,-0.0 m,+0.00 m/s,7.57 VRx,0.000 km,27 m,217.7 °,1:-- (  0.0 km/h),495.5 m*81
$SMGPS2,-0.09 X,+0.27 Y,+0.93 Z,2 ENL,0 us,0.0 kmh,967.39 hPa,967.28 hPa,-0.00 m/s*0B
$GNRMC,172417.50,A,4816.48581,N,01139.87237,E,0.28,,080522,,,A,V*28
$GNGNS,172417.50,4816.48581,N,01139.87237,E,AAAN,15,0.71,474.9,46.2,,,V*1A
$GNGSA,A,3,01,14,03,21,08,22,10,,,,,,1.17,0.71,0.93,1*07
$GNGSA,A,3,81,88,82,67,,,,,,,,,1.21,0.74,0.96,2*0E
$GNGSA,A,3,15,34,09,,,,,,,,,,1.21,0.74,0.96,3*07
$GNVTG,,T,,M,0.278,N,0.515,K,A*31
$SMGPS,-0.0 m,-0.00 m/s,7.54 VRx,0.000 km,27 m,217.2 °,1:-- (  0.0 km/h),494.6 m*83
$SMGPS2,-0.09 X,+0.27 Y,+0.92 Z,1 ENL,0 us,0.0 kmh,967.39 hPa,967.27 hPa,+0.00 m/s*00
$GNRMC,172417.60,A,4816.48572,N,01139.87236,E,0.56,,080522,,,A,V*2F
$GNGNS,172417.60,4816.48572,N,01139.87236,E,AAAN,16,0.69,474.9,46.2,,,V*1E
$GNGSA,A,3,01,14,03,21,08,22,10,,,,,,1.14,0.69,0.90,1*0E
$GNGSA,A,3,81,88,82,67,,,,,,,,,1.17,0.71,0.93,2*0B
$GNGSA,A,3,15,34,09,21,,,,,,,,,1.17,0.71,0.93,3*01
$GNVTG,,T,,M,0.555,N,1.028,K,A*33
$SMGPS,-0.0 m,-0.01 m/s,7.56 VRx,0.000 km,27 m,217.2 °,1:-- (  0.0 km/h),494.0 m*86
$SMGPS2,-0.09 X,+0.26 Y,+0.92 Z,1 ENL,0 us,0.0 kmh,967.40 hPa,967.27 hPa,+0.01 m/s*0E
$GNRMC,172417.70,A,4816.48566,N,01139.87228,E,0.35,,080522,,,A,V*21
$GNGNS,172417.70,4816.48566,N,01139.87228,E,AAAN,16,0.69,474.9,46.2,,,V*15
$GNGSA,A,3,01,14,03,21,08,22,10,,,,,,1.14,0.69,0.90,1*0E
$GNGSA,A,3,81,88,82,67,,,,,,,,,1.14,0.69,0.90,2*02
$GNGSA,A,3,15,34,09,21,27,,,,,,,,1.14,0.69,0.90,3*0D
$GNVTG,,T,,M,0.349,N,0.646,K,A*37
$SMGPS,0.0 m,-0.01 m/s,7.56 VRx,0.000 km,27 m,217.2 °,1:-- (  0.0 km/h),493.3 m*AF
$SMGPS2,-0.09 X,+0.27 Y,+0.93 Z,1 ENL,0 us,0.0 kmh,967.39 hPa,967.28 hPa,+0.01 m/s*0F
$GNRMC,172417.80,A,4816.48558,N,01139.87218,E,0.32,,080522,,,A,V*27
$GNGNS,172417.80,4816.48558,N,01139.87218,E,AAAN,16,0.69,474.9,46.2,,,V*14
$GNGSA,A,3,01,14,03,21,08,22,10,,,,,,1.14,0.69,0.90,1*0E
$GNGSA,A,3,81,88,82,67,,,,,,,,,1.14,0.69,0.90,2*02
$GNGSA,A,3,15,34,09,21,27,,,,,,,,1.14,0.69,0.90,3*0D
$GNVTG,,T,,M,0.318,N,0.588,K,A*32
$SMGPS,0.0 m,-0.01 m/s,7.57 VRx,0.000 km,27 m,217.2 °,1:-- (  0.0 km/h),492.9 m*A5
$SMGPS2,-0.09 X,+0.27 Y,+0.92 Z,2 ENL,0 us,0.0 kmh,967.39 hPa,967.28 hPa,+0.00 m/s*0C
$GNRMC,172417.90,A,4816.48549,N,01139.87211,E,0.09,,080522,,,A,V*27
$GNGNS,172417.90,4816.48549,N,01139.87211,E,AAAN,16,0.69,474.9,46.2,,,V*1C
$GNGSA,A,3,01,14,03,21,08,22,10,,,,,,1.14,0.69,0.90,1*0E
$GNGSA,A,3,81,88,82,67,,,,,,,,,1.14,0.69,0.90,2*02
$GNGSA,A,3,15,34,09,21,27,,,,,,,,1.14,0.69,0.90,3*0D
$GNVTG,,T,,M,0.089,N,0.164,K,A*3F
$SMGPS,0.0 m,-0.01 m/s,7.56 VRx,0.000 km,28 m,216.4 °,1:-- (  0.0 km/h),492.5 m*A0
$SMGPS2,-0.09 X,+0.27 Y,+0.92 Z,0 ENL,0 us,0.0 kmh,967.39 hPa,967.27 hPa,+0.00 m/s*01
$GNRMC,172418.00,A,4816.48541,N,01139.87207,E,0.49,,080522,,,A,V*2A
$GNGNS,172418.00,4816.48541,N,01139.87207,E,AAAN,16,0.69,474.9,46.2,,,V*15
$GNGSA,A,3,01,14,03,21,08,22,10,,,,,,1.14,0.69,0.90,1*0E
$GNGSA,A,3,81,88,82,67,,,,,,,,,1.14,0.69,0.90,2*02
$GNGSA,A,3,15,34,09,21,27,,,,,,,,1.14,0.69,0.90,3*0D
$GNVTG,,T,,M,0.489,N,0.906,K,A*37
$SMGPS,0.0 m,-0.01 m/s,7.57 VRx,0.000 km,28 m,216.7 °,1:-- (  0.0 km/h),492.1 m*A6
$SMGPS2,-0.09 X,+0.27 Y,+0.92 Z,1 ENL,0 us,0.0 kmh,967.39 hPa,967.27 hPa,+0.00 m/s*00
$GNRMC,172418.10,A,4816.48532,N,01139.87205,E,0.39,,080522,,,A,V*2A
$GNGNS,172418.10,4816.48532,N,01139.87205,E,AAAN,16,0.69,474.9,46.2,,,V*12
$GNGSA,A,3,01,14,03,21,08,22,10,,,,,,1.14,0.69,0.90,1*0E
$GNGSA,A,3,81,88,82,67,,,,,,,,,1.14,0.69,0.90,2*02
$GNGSA,A,3,15,34,09,21,27,,,,,,,,1.14,0.69,0.90,3*0D
$GNVTG,,T,,M,0.391,N,0.724,K,A*37
$SMGPS,0.0 m,-0.00 m/s,7.55 VRx,0.000 km,28 m,216.7 °,1:-- (  0.0 km/h),491.8 m*AF
$SMGPS2,-0.09 X,+0.27 Y,+0.93 Z,1 ENL,0 us,0.0 kmh,967.39 hPa,967.27 hPa,+0.00 m/s*01
$GNRMC,172418.20,A,4816.48523,N,01139.87204,E,0.17,,080522,,,A,V*24
$GNGNS,172418.20,4816.48523,N,01139.87204,E,AAAN,16,0.69,474.9,46.2,,,V*10
$GNGSA,A,3,01,14,03,21,08,22,10,,,,,,1.14,0.69,0.90,1*0E
$GNGSA,A,3,81,88,82,67,,,,,,,,,1.14,0.69,0.90,2*02
$GNGSA,A,3,15,34,09,21,27,,,,,,,,1.14,0.69,0.90,3*0D
$GNVTG,,T,,M,0.170,N,0.315,K,A*3C
$SMGPS,-0.0 m,-0.00 m/s,7.58 VRx,0.000 km,28 m,216.7 °,1:-- (  0.0 km/h),491.5 m*82
$SMGPS2,-0.09 X,+0.27 Y,+0.93 Z,1 ENL,0 us,0.0 kmh,967.40 hPa,967.27 hPa,+0.00 m/s*0F
$GNRMC,172418.30,A,4816.48512,N,01139.87205,E,0.24,,080522,,,A,V*26
$GNGNS,172418.30,4816.48512,N,01139.87205,E,AAAN,16,0.69,474.9,46.2,,,V*12
$GNGSA,A,3,01,14,03,21,08,22,10,,,,,,1.14,0.69,0.90,1*0E
$GNGSA,A,3,81,88,82,67,,,,,,,,,1.14,0.69,0.90,2*02
$GNGSA,A,3,15,34,09,21,27,,,,,,,,1.14,0.69,0.90,3*0D
$GNVTG,,T,,M,0.240,N,0.444,K,A*3F
$SMGPS,-0.0 m,-0.00 m/s,7.55 VRx,0.000 km,28 m,216.7 °,1:-- (  0.0 km/h),491.2 m*88
$SMGPS2,-0.09 X,+0.27 Y,+0.93 Z,1 ENL,0 us,0.0 kmh,967.40 hPa,967.28 hPa,-0.00 m/s*06
$GNRMC,172418.40,A,4816.48503,N,01139.87204,E,0.23,,080522,,,A,V*27
$GNGNS,172418.40,4816.48503,N,01139.87204,E,AAAN,16,0.69,474.9,46.2,,,V*14
$GNGSA,A,3,01,14,03,21,08,22,10,,,,,,1.14,0.69,0.90,1*0E
$GNGSA,A,3,81,88,82,67,,,,,,,,,1.14,0.69,0.90,2*02
$GNGSA,A,3,15,34,09,21,27,,,,,,,,1.14,0.69,0.90,3*0D
$GNVTG,,T,,M,0.230,N,0.426,K,A*3C
$SMGPS,0.0 m,+0.00 m/s,7.58 VRx,0.000 km,28 m,216.7 °,1:-- (  0.0 km/h),491.0 m*AC
$SMGPS2,-0.09 X,+0.27 Y,+0.93 Z,1 ENL,0 us,0.0 kmh,967.39 hPa,967.28 hPa,-0.00 m/s*08
$GNRMC,172418.50,A,4816.48498,N,01139.87199,E,0.13,,080522,,,A,V*21
$GNGNS,172418.50,4816.48498,N,01139.87199,E,AAAN,16,0.69,474.9,46.2,,,V*11
$GNGSA,A,3,01,14,03,21,08,22,10,,,,,,1.14,0.69,0.90,1*0E
$GNGSA,A,3,81,88,82,67,,,,,,,,,1.14,0.69,0.90,2*02
$GNGSA,A,3,15,34,09,21,27,,,,,,,,1.14,0.69,0.90,3*0D
$GNVTG,,T,,M,0.131,N,0.242,K,A*3A
$SMGPS,-0.0 m,-0.01 m/s,7.55 VRx,0.000 km,29 m,215.2 °,1:-- (  0.0 km/h),490.7 m*8A
$SMGPS2,-0.09 X,+0.27 Y,+0.92 Z,2 ENL,0 us,0.0 kmh,967.40 hPa,967.27 hPa,+0.00 m/s*0D
$GNRMC,172418.60,A,4816.48491,N,01139.87193,E,0.27,,080522,,,A,V*26
$GNGNS,172418.60,4816.48491,N,01139.87193,E,AAAN,16,0.69,474.9,46.2,,,V*11
$GNGSA,A,3,01,14,03,21,08,22,10,,,,,,1.14,0.69,0.90,1*0E
$GNGSA,A,3,81,88,82,67,,,,,,,,,1.14,0.69,0.90,2*02
$GNGSA,A,3,15,34,09,21,27,,,,,,,,1.14,0.69,0.90,3*0D
$GNVTG,,T,,M,0.270,N,0.500,K,A*3D
$SMGPS,-0.0 m,-0.01 m/s,7.57 VRx,0.000 km,29 m,215.4 °,1:-- (  0.0 km/h),490.5 m*8C
$SMGPS2,-0.09 X,+0.27 Y,+0.92 Z,1 ENL,0 us,0.0 kmh,967.40 hPa,967.28 hPa,+0.00 m/s*01
$GNRMC,172418.70,A,4816.48484,N,01139.87183,E,0.33,,080522,,,A,V*27
$GNGNS,172418.70,4816.48484,N,01139.87183,E,AAAN,16,0.69,474.9,46.2,,,V*15
$GNGSA,A,3,01,14,03,21,08,22,10,,,,,,1.14,0.69,0.90,1*0E
$GNGSA,A,3,81,88,82,67,,,,,,,,,1.14,0.69,0.90,2*02
$GNGSA,A,3,15,34,09,21,27,,,,,,,,1.14,0.69,0.90,3*0D
$GNVTG,,T,,M,0.326,N,0.604,K,A*38
$SMGPS,-0.0 m,-0.01 m/s,7.56 VRx,0.000 km,29 m,215.4 °,1:-- (  0.0 km/h),490.1 m*89
$SMGPS2,-0.09 X,+0.27 Y,+0.93 Z,0 ENL,0 us,0.0 kmh,967.40 hPa,967.28 hPa,+0.00 m/s*01
$GNRMC,172418.80,A,4816.48476,N,01139.87174,E,0.25,,080522,,,A,V*2A
$GNGNS,172418.80,4816.48476,N,01139.87174,E,AAAN,16,0.69,474.9,46.2,,,V*1F
$GNGSA,A,3,01,14,03,21,08,22,10,,,,,,1.14,0.69,0.90,1*0E
$GNGSA,A,3,81,88,82,67,,,,,,,,,1.14,0.69,0.90,2*02
$GNGSA,A,3,15,34,09,21,27,,,,,,,,1.14,0.69,0.90,3*0D
$GNVTG,,T,,M,0.253,N,0.468,K,A*33
$SMGPS,0.0 m,-0.01 m/s,7.57 VRx,0.000 km,29 m,215.6 °,1:-- (  0.0 km/h),489.8 m*A6
$SMGPS2,-0.09 X,+0.27 Y,+0.93 Z,1 ENL,0 us,0.0 kmh,967.39 hPa,967.28 hPa,-0.00 m/s*08
$GNRMC,172418.90,A,4816.48468,N,01139.87165,E,0.04,,080522,,,A,V*27
$GNGNS,172418.90,4816.48468,N,01139.87165,E,AAAN,16,0.69,474.9,46.2,,,V*11
$GNGSA,A,3,01,14,03,21,08,22,10,,,,,,1.14,0.69,0.90,1*0E
$GNGSA,A,3,81,88,82,67,,,,,,,,,1.14,0.69,0.90,2*02
$GNGSA,A,3,15,34,09,21,27,,,,,,,,1.14,0.69,0.90,3*0D
$GNVTG,,T,,M,0.033,N,0.060,K,A*3B
$SMGPS,-0.0 m,-0.01 m/s,7.58 VRx,0.000 km,29 m,215.8 °,1:-- (  0.0 km/h),489.4 m*86
$SMGPS2,-0.09 X,+0.27 Y,+0.92 Z,1 ENL,0 us,0.0 kmh,967.40 hPa,967.27 hPa,-0.00 m/s*08
$GNRMC,172419.00,A,4816.48460,N,01139.87155,E,0.78,,080522,,,A,V*2F
$GNGNS,172419.00,4816.48460,N,01139.87155,E,AAAN,16,0.69,474.9,46.2,,,V*12
$GNGSA,A,3,01,14,03,21,08,22,10,,,,,,1.14,0.69,0.90,1*0E
$GNGSA,A,3,81,88,82,67,,,,,,,,,1.14,0.69,0.90,2*02
$GNGSA,A,3,15,34,09,21,27,,,,,,,,1.14,0.69,0.90,3*0D
$GNVTG,,T,,M,0.781,N,1.447,K,A*35
$SMGPS,-0.0 m,-0.00 m/s,7.59 VRx,0.000 km,29 m,215.8 °,1:-- (  0.0 km/h),489.1 m*83
$SMGPS2,-0.09 X,+0.27 Y,+0.92 Z,0 ENL,0 us,0.0 kmh,967.40 hPa,967.27 hPa,-0.00 m/s*09
$GNRMC,172419.10,A,4816.48453,N,01139.87144,E,0.68,,080522,,,A,V*2F
$GNGNS,172419.10,4816.48453,N,01139.87144,E,AAAN,16,0.69,474.9,46.2,,,V*13
$GNGSA,A,3,01,14,03,21,08,22,10,,,,,,1.14,0.69,0.90,1*0E
$GNGSA,A,3,81,88,82,67,,,,,,,,,1.14,0.69,0.90,2*02
$GNGSA,A,3,15,34,09,21,27,,,,,,,,1.14,0.69,0.90,3*0D
$GNVTG,,T,,M,0.683,N,1.264,K,A*31
$SMGPS,0.0 m,-0.01 m/s,7.55 VRx,0.000 km,30 m,215.2 °,1:-- (  0.0 km/h),488.8 m*A9
$SMGPS2,-0.09 X,+0.27 Y,+0.93 Z,2 ENL,0 us,0.0 kmh,967.39 hPa,967.28 hPa,-0.00 m/s*0B
$GNRMC,172419.20,A,4816.48446,N,01139.87132,E,0.54,,080522,,,A,V*26
$GNGNS,172419.20,4816.48446,N,01139.87132,E,AAAN,16,0.69,474.9,46.2,,,V*15
$GNGSA,A,3,01,14,03,21,08,22,10,,,,,,1.14,0.69,0.90,1*0E
$GNGSA,A,3,81,88,82,67,,,,,,,,,1.14,0.69,0.90,2*02
$GNGSA,A,3,15,34,09,21,27,,,,,,,,1.14,0.69,0.90,3*0D
$GNVTG,,T,,M,0.539,N,0.999,K,A*3B
$SMGPS,0.0 m,-0.01 m/s,7.58 VRx,0.000 km,30 m,215.4 °,1:-- (  0.0 km/h),488.5 m*AF
$SMGPS2,-0.09 X,+0.28 Y,+0.93 Z,2 ENL,0 us,0.0 kmh,967.39 hPa,967.27 hPa,-0.00 m/s*0B
$GNRMC,172419.30,A,4816.48438,N,01139.87119,E,0.31,,080522,,,A,V*24
$GNGNS,172419.30,4816.48438,N,01139.87119,E,AAAN,16,0.69,474.9,46.2,,,V*14
$GNGSA,A,3,01,14,03,21,08,22,10,,,,,,1.14,0.69,0.90,1*0E
$GNGSA,A,3,81,88,82,67,,,,,,,,,1.14,0.69,0.90,2*02
$GNGSA,A,3,15,34,09,21,27,,,,,,,,1.14,0.69,0.90,3*0D
$GNVTG,,T,,M,0.307,N,0.568,K,A*32
$SMGPS,-0.0 m,-0.00 m/s,7.56 VRx,0.000 km,30 m,215.6 °,1:-- (  0.0 km/h),488.3 m*89
$SMGPS2,-0.09 X,+0.26 Y,+0.93 Z,1 ENL,0 us,0.0 kmh,967.40 hPa,967.28 hPa,-0.00 m/s*07
$GNRMC,172419.40,A,4816.48430,N,01139.87107,E,0.40,,080522,,,A,V*22
$GNGNS,172419.40,4816.48430,N,01139.87107,E,AAAN,16,0.69,474.9,46.2,,,V*14
$GNGSA,A,3,01,14,03,21,08,22,10,,,,,,1.14,0.69,0.90,1*0E
$GNGSA,A,3,81,88,82,67,,,,,,,,,1.14,0.69,0.90,2*02
$GNGSA,A,3,15,34,09,21,27,,,,,,,,1.14,0.69,0.90,3*0D
$GNVTG,,T,,M,0.399,N,0.738,K,A*32
$SMGPS,-0.0 m,-0.01 m/s,7.57 VRx,0.000 km,30 m,215.9 °,1:-- (  0.0 km/h),488.0 m*85
$SMGPS2,-0.09 X,+0.27 Y,+0.93 Z,1 ENL,0 us,0.0 kmh,967.40 hPa,967.28 hPa,-0.01 m/s*07
$GNRMC,172419.50,A,4816.48425,N,01139.87099,E,0.38,,080522,,,A,V*2E
$GNGNS,172419.50,4816.48425,N,01139.87099,E,AAAN,16,0.69,474.9,46.2,,,V*17
$GNGSA,A,3,01,14,03,21,08,22,10,,,,,,1.14,0.69,0.90,1*0E
$GNGSA,A,3,81,88,82,67,,,,,,,,,1.14,0.69,0.90,2*02
$GNGSA,A,3,15,34,09,21,27,,,,,,,,1.14,0.69,0.90,3*0D
$GNVTG,,T,,M,0.378,N,0.701,K,A*37
$SMGPS,-0.0 m,-0.01 m/s,7.55 VRx,0.000 km,30 m,216.1 °,1:-- (  0.0 km/h),487.8 m*8B
$SMGPS2,-0.09 X,+0.27 Y,+0.92 Z,2 ENL,0 us,0.0 kmh,967.40 hPa,967.28 hPa,-0.01 m/s*05
$GNRMC,172419.60,A,4816.48421,N,01139.87093,E,0.59,,080522,,,A,V*24
$GNGNS,172419.60,4816.48421,N,01139.87093,E,AAAN,16,0.69,474.9,46.2,,,V*1A
$GNGSA,A,3,01,14,03,21,08,22,10,,,,,,1.14,0.69,0.90,1*0E
$GNGSA,A,3,81,88,82,67,,,,,,,,,1.14,0.69,0.90,2*02
$GNGSA,A,3,15,34,09,21,27,,,,,,,,1.14,0.69,0.90,3*0D
$GNVTG,,T,,M,0.585,N,1.083,K,A*3F
$SMGPS,0.0 m,-0.00 m/s,7.60 VRx,0.000 km,31 m,216.3 °,1:-- (  0.0 km/h),487.5 m*AF
$SMGPS2,-0.09 X,+0.27 Y,+0.93 Z,2 ENL,0 us,0.0 kmh,967.39 hPa,967.28 hPa,-0.01 m/s*0A
$GNRMC,172419.70,A,4816.48418,N,01139.87088,E,0.32,,080522,,,A,V*28
$GNGNS,172419.70,4816.48418,N,01139.87088,E,AAAN,16,0.69,474.9,46.2,,,V*1B
$GNGSA,A,3,01,14,03,21,08,22,10,,,,,,1.14,0.69,0.90,1*0E
$GNGSA,A,3,81,88,82,67,,,,,,,,,1.14,0.69,0.90,2*02
$GNGSA,A,3,15,34,09,21,27,,,,,,,,1.14,0.69,0.90,3*0D
$GNVTG,,T,,M,0.317,N,0.588,K,A*3D
$SMGPS,-0.0 m,-0.00 m/s,7.57 VRx,0.000 km,31 m,216.3 °,1:-- (  0.0 km/h),487.2 m*81
$SMGPS2,-0.10 X,+0.29 Y,+0.98 Z,1 ENL,0 us,0.0 kmh,967.40 hPa,967.28 hPa,-0.02 m/s*09
$GNRMC,172419.80,A,4816.48415,N,01139.87083,E,0.28,,080522,,,A,V*2A
$GNGNS,172419.80,4816.48415,N,01139.87083,E,AAAN,16,0.69,474.9,46.2,,,V*12
$GNGSA,A,3,01,14,03,21,08,22,10,,,,,,1.14,0.69,0.90,1*0E
$GNGSA,A,3,81,88,82,67,,,,,,,,,1.14,0.69,0.90,2*02
$GNGSA,A,3,15,34,09,21,27,,,,,,,,1.14,0.69,0.90,3*0D
$GNVTG,,T,,M,0.275,N,0.510,K,A*39
$SMGPS,0.0 m,-0.01 m/s,7.57 VRx,0.000 km,31 m,216.5 °,1:-- (  0.0 km/h),486.9 m*A1
$SMGPS2,-0.09 X,+0.27 Y,+0.93 Z,2 ENL,0 us,0.0 kmh,967.39 hPa,967.28 hPa,-0.02 m/s*09
$GNRMC,172419.90,A,4816.48412,N,01139.87079,E,0.44,,080522,,,A,V*23
$GNGNS,172419.90,4816.48412,N,01139.87079,E,AAAN,16,0.69,474.9,46.2,,,V*11
$GNGSA,A,3,01,14,03,21,08,22,10,,,,,,1.14,0.69,0.90,1*0E
$GNGSA,A,3,81,88,82,67,,,,,,,,,1.14,0.69,0.90,2*02
$GNGSA,A,3,15,34,09,21,27,,,,,,,,1.14,0.69,0.90,3*0D
$GNVTG,,T,,M,0.440,N,0.815,K,A*31
$SMGPS,0.0 m,-0.01 m/s,7.54 VRx,0.000 km,31 m,216.5 °,1:-- (  0.0 km/h),486.5 m*AE
$SMGPS2,-0.09 X,+0.27 Y,+0.93 Z,1 ENL,0 us,0.0 kmh,967.40 hPa,967.28 hPa,-0.02 m/s*04
$GNRMC,172420.00,A,4816.48412,N,01139.87076,E,0.53,,080522,,,A,V*29
$GNGNS,172420.00,4816.48412,N,01139.87076,E,AAAN,16,0.69,474.9,46.2,,,V*1D
$GNGSA,A,3,01,14,03,21,08,22,10,,,,,,1.14,0.69,0.90,1*0E
$GNGSA,A,3,81,88,82,67,,,,,,,,,1.14,0.69,0.90,2*02
$GNGSA,A,3,15,34,09,21,27,,,,,,,,1.14,0.69,0.90,3*0D
$GNVTG,,T,,M,0.525,N,0.972,K,A*33
$SMGPS,0.0 m,-0.01 m/s,7.56 VRx,0.000 km,31 m,215.6 °,1:-- (  0.0 km/h),486.3 m*AA
$SMGPS2,-0.09 X,+0.27 Y,+0.92 Z,1 ENL,0 us,0.0 kmh,967.40 hPa,967.27 hPa,-0.01 m/s*09
$GNRMC,172420.10,A,4816.48411,N,01139.87074,E,0.40,,080522,,,A,V*2B
$GNGNS,172420.10,4816.48411,N,01139.87074,E,AAAN,16,0.69,474.9,46.2,,,V*1D
$GNGSA,A,3,01,14,03,21,08,22,10,,,,,,1.14,0.69,0.90,1*0E
$GNGSA,A,3,81,88,82,67,,,,,,,,,1.14,0.69,0.90,2*02
$GNGSA,A,3,15,34,09,21,27,,,,,,,,1.14,0.69,0.90,3*0D
$GNVTG,,T,,M,0.396,N,0.734,K,A*31
$SMGPS,-0.0 m,-0.01 m/s,7.55 VRx,0.000 km,31 m,215.9 °,1:-- (  0.0 km/h),486.1 m*89
$SMGPS2,-0.09 X,+0.27 Y,+0.93 Z,2 ENL,0 us,0.0 kmh,967.40 hPa,967.28 hPa,-0.01 m/s*04
$GNRMC,172420.20,A,4816.48411,N,01139.87069,E,0.24,,080522,,,A,V*26
$GNGNS,172420.20,4816.48411,N,01139.87069,E,AAAN,17,0.68,474.9,46.2,,,V*12
$GNGSA,A,3,01,14,03,21,08,22,32,10,,,,,1.13,0.68,0.90,1*09
$GNGSA,A,3,81,88,82,67,,,,,,,,,1.14,0.69,0.90,2*02
$GNGSA,A,3,15,34,09,21,27,,,,,,,,1.14,0.69,0.90,3*0D
$GNVTG,,T,,M,0.237,N,0.440,K,A*3B
$SMGPS,-0.0 m,-0.01 m/s,7.57 VRx,0.000 km,31 m,215.9 °,1:-- (  0.0 km/h),485.9 m*80
$SMGPS2,-0.08 X,+0.27 Y,+0.92 Z,2 ENL,0 us,0.0 kmh,967.40 hPa,967.27 hPa,-0.00 m/s*0A
$GNRMC,172420.30,A,4816.48408,N,01139.87065,E,0.16,,080522,,,A,V*22
$GNGNS,172420.30,4816.48408,N,01139.87065,E,AAAN,19,0.62,474.9,46.2,,,V*13
$GNGSA,A,3,01,14,03,21,08,22,32,10,,,,,1.00,0.62,0.79,1*06
$GNGSA,A,3,81,88,82,67,,,,,,,,,1.13,0.68,0.90,2*04
$GNGSA,A,3,15,34,09,21,27,,,,,,,,1.13,0.68,0.90,3*0B
$GNVTG,,T,,M,0.158,N,0.293,K,A*39
$SMGPS,-0.0 m,-0.01 m/s,7.57 VRx,0.000 km,31 m,215.9 °,1:-- (  0.0 km/h),485.7 m*8E
$SMGPS2,-0.09 X,+0.27 Y,+0.93 Z,2 ENL,0 us,0.0 kmh,967.40 hPa,967.27 hPa,+0.00 m/s*0C
$GNRMC,172420.40,A,4816.48403,N,01139.87060,E,0.22,,080522,,,A,V*2C
$GNGNS,172420.40,4816.48403,N,01139.87060,E,AAAN,19,0.62,474.9,46.2,,,V*1A
$GNGSA,A,3,01,14,03,21,08,22,32,10,,,,,1.00,0.62,0.79,1*06
$GNGSA,A,3,81,66,88,82,67,,,,,,,,1.00,0.62,0.79,2*0B
$GNGSA,A,3,15,34,09,21,27,36,,,,,,,1.00,0.62,0.79,3*01
$GNVTG,,T,,M,0.221,N,0.408,K,A*30
$SMGPS,-0.0 m,-0.01 m/s,7.59 VRx,0.000 km,32 m,216.1 °,1:-- (  0.0 km/h),485.7 m*88
$SMGPS2,-0.09 X,+0.28 Y,+0.93 Z,1 ENL,0 us,0.0 kmh,967.40 hPa,967.28 hPa,+0.01 m/s*0E
$GNRMC,172420.50,A,4816.48400,N,01139.87055,E,0.22,,080522,,,A,V*28
$GNGNS,172420.50,4816.48400,N,01139.87055,E,AAAN,19,0.62,474.9,46.2,,,V*1E
$GNGSA,A,3,01,14,03,21,08,22,32,10,,,,,1.00,0.62,0.79,1*06
$GNGSA,A,3,81,66,88,82,67,,,,,,,,1.00,0.62,0.79,2*0B
$GNGSA,A,3,15,34,09,21,27,36,,,,,,,1.00,0.62,0.79,3*01
$GNVTG,,T,,M,0.219,N,0.405,K,A*36
$SMGPS,-0.0 m,-0.01 m/s,7.55 VRx,0.000 km,32 m,216.1 °,1:-- (  0.0 km/h),485.6 m*85
$SMGPS2,-0.09 X,+0.28 Y,+0.92 Z,2 ENL,0 us,0.0 kmh,967.40 hPa,967.28 hPa,+0.01 m/s*0C
$GNRMC,172420.60,A,4816.48397,N,01139.87053,E,0.30,,080522,,,A,V*27
$GNGNS,172420.60,4816.48397,N,01139.87053,E,AAAN,19,0.62,474.9,46.2,,,V*12
$GNGSA,A,3,01,14,03,21,08,22,32,10,,,,,1.00,0.62,0.79,1*06
$GNGSA,A,3,81,66,88,82,67,,,,,,,,1.00,0.62,0.79,2*0B
$GNGSA,A,3,15,34,09,21,27,36,,,,,,,1.00,0.62,0.79,3*01
$GNVTG,,T,,M,0.298,N,0.553,K,A*3D
$SMGPS,0.0 m,-0.01 m/s,7.58 VRx,0.000 km,32 m,216.1 °,1:-- (  0.0 km/h),485.6 m*A5
$SMGPS2,-0.08 X,+0.27 Y,+0.93 Z,1 ENL,0 us,0.0 kmh,967.39 hPa,967.27 hPa,+0.01 m/s*01
$GNRMC,172420.70,A,4816.48396,N,01139.87052,E,0.26,,080522,,,A,V*21
$GNGNS,172420.70,4816.48396,N,01139.87052,E,AAAN,19,0.62,474.9,46.2,,,V*13
$GNGSA,A,3,01,14,03,21,08,22,32,10,,,,,1.00,0.62,0.79,1*06
$GNGSA,A,3,81,66,88,82,67,,,,,,,,1.00,0.62,0.79,2*0B
$GNGSA,A,3,15,34,09,21,27,36,,,,,,,1.00,0.62,0.79,3*01
$GNVTG,,T,,M,0.256,N,0.474,K,A*3B
$SMGPS,0.0 m,-0.00 m/s,7.55 VRx,0.000 km,32 m,216.3 °,1:-- (  0.0 km/h),485.6 m*AB
$SMGPS2,-0.09 X,+0.27 Y,+0.93 Z,1 ENL,0 us,0.0 kmh,967.40 hPa,967.27 hPa,+0.01 m/s*0E
$GNRMC,172420.80,A,4816.48395,N,01139.87050,E,0.17,,080522,,,A,V*2D
$GNGNS,172420.80,4816.48395,N,01139.87050,E,AAAN,19,0.62,474.9,46.2,,,V*1D
$GNGSA,A,3,01,14,03,21,08,22,32,10,,,,,1.00,0.62,0.79,1*06
$GNGSA,A,3,81,66,88,82,67,,,,,,,,1.00,0.62,0.79,2*0B
$GNGSA,A,3,15,34,09,21,27,36,,,,,,,1.00,0.62,0.79,3*01
$GNVTG,,T,,M,0.168,N,0.312,K,A*32
$SMGPS,0.0 m,-0.00 m/s,7.58 VRx,0.000 km,32 m,216.3 °,1:-- (  0.0 km/h),485.5 m*A5
$SMGPS2,-0.09 X,+0.27 Y,+0.93 Z,2 ENL,0 us,0.0 kmh,967.39 hPa,967.28 hPa,+0.00 m/s*0D
$GNRMC,172420.90,A,4816.48394,N,01139.87049,E,0.29,,080522,,,A,V*28
$GNGNS,172420.90,4816.48394,N,01139.87049,E,AAAN,19,0.62,474.9,46.2,,,V*15
$GNGSA,A,3,01,14,03,21,08,22,32,10,,,,,1.00,0.62,0.79,1*06
$GNGSA,A,3,81,66,88,82,67,,,,,,,,1.00,0.62,0.79,2*0B
$GNGSA,A,3,15,34,09,21,27,36,,,,,,,1.00,0.62,0.79,3*01
$GNVTG,,T,,M,0.287,N,0.531,K,A*37
$SMGPS,0.0 m,+0.00 m/s,7.54 VRx,0.000 km,32 m,216.3 °,1:-- (  0.0 km/h),485.4 m*AE
$SMGPS2,-0.09 X,+0.27 Y,+0.93 Z,1 ENL,0 us,0.0 kmh,967.39 hPa,967.27 hPa,-0.00 m/s*07
$GNRMC,172421.00,A,4816.48393,N,01139.87047,E,0.19,,080522,,,A,V*2A
$GNGNS,172421.00,4816.48393,N,01139.87047,E,AAAN,19,0.62,474.9,46.2,,,V*14
$GNGSA,A,3,01,14,03,21,08,22,32,10,,,,,1.00,0.62,0.79,1*06
$GNGSA,A,3,81,66,88,82,67,,,,,,,,1.00,0.62,0.79,2*0B
$GNGSA,A,3,15,34,09,21,27,36,,,,,,,1.00,0.62,0.79,3*01
$GNVTG,,T,,M,0.187,N,0.345,K,A*31
$SMGPS,0.0 m,+0.00 m/s,7.60 VRx,0.000 km,32 m,216.3 °,1:-- (  0.0 km/h),485.3 m*AE
$SMGPS2,-0.09 X,+0.27 Y,+0.93 Z,2 ENL,0 us,0.0 kmh,967.40 hPa,967.28 hPa,-0.00 m/s*05
$GNRMC,172421.10,A,4816.48393,N,01139.87045,E,0.14,,080522,,,A,V*24
$GNGNS,172421.10,4816.48393,N,01139.87045,E,AAAN,19,0.62,474.9,46.2,,,V*17
$GNGSA,A,3,01,14,03,21,08,22,32,10,,,,,1.00,0.62,0.79,1*06
$GNGSA,A,3,81,66,88,82,67,,,,,,,,1.00,0.62,0.79,2*0B
$GNGSA,A,3,15,34,09,21,27,36,,,,,,,1.00,0.62,0.79,3*01
$GNVTG,,T,,M,0.136,N,0.251,K,A*3F
$SMGPS,0.0 m,+0.00 m/s,7.57 VRx,0.000 km,32 m,216.3 °,1:-- (  0.0 km/h),485.2 m*AB
$SMGPS2,-0.09 X,+0.27 Y,+0.92 Z,1 ENL,0 us,0.0 kmh,967.39 hPa,967.28 hPa,-0.01 m/s*08
$GNRMC,172421.20,A,4816.48393,N,01139.87041,E,0.19,,080522,,,A,V*2E
$GNGNS,172421.20,4816.48393,N,01139.87041,E,AAAN,19,0.62,474.9,46.2,,,V*10
$GNGSA,A,3,01,14,03,21,08,22,32,10,,,,,1.00,0.62,0.79,1*06
$GNGSA,A,3,81,66,88,82,67,,,,,,,,1.00,0.62,0.79,2*0B
$GNGSA,A,3,15,34,09,21,27,36,,,,,,,1.00,0.62,0.79,3*01
$GNVTG,,T,,M,0.190,N,0.352,K,A*31
$SMGPS,0.0 m,+0.01 m/s,7.57 VRx,0.000 km,32 m,216.3 °,1:-- (  0.0 km/h),485.1 m*A9
$SMGPS2,-0.09 X,+0.27 Y,+0.92 Z,2 ENL,0 us,0.0 kmh,967.39 hPa,967.27 hPa,-0.01 m/s*04
$GNRMC,172421.30,A,4816.48393,N,01139.87038,E,0.25,,080522,,,A,V*2E
$GNGNS,172421.30,4816.48393,N,01139.87038,E,AAAN,19,0.62,474.9,46.2,,,V*1F
$GNGSA,A,3,01,14,03,21,08,22,32,10,,,,,1.00,0.62,0.79,1*06
$GNGSA,A,3,81,66,88,82,67,,,,,,,,1.00,0.62,0.79,2*0B
$GNGSA,A,3,15,34,09,21,27,36,,,,,,,1.00,0.62,0.79,3*01
$GNVTG,,T,,M,0.253,N,0.469,K,A*32
$SMGPS,0.0 m,+0.01 m/s,7.55 VRx,0.000 km,32 m,216.5 °,1:-- (  0.0 km/h),485.0 m*AC
$SMGPS2,-0.09 X,+0.27 Y,+0.92 Z,1 ENL,0 us,0.0 kmh,967.39 hPa,967.28 hPa,-0.01 m/s*08
$GNRMC,172421.40,A,4816.48393,N,01139.87035,E,0.03,,080522,,,A,V*20
$GNGNS,172421.40,4816.48393,N,01139.87035,E,AAAN,19,0.62,474.9,46.2,,,V*15
$GNGSA,A,3,01,14,03,21,08,22,32,10,,,,,1.00,0.62,0.79,1*06
$GNGSA,A,3,81,66,88,82,67,,,,,,,,1.00,0.62,0.79,2*0B
$GNGSA,A,3,15,34,09,21,27,36,,,,,,,1.00,0.62,0.79,3*01
$GNVTG,,T,,M,0.025,N,0.046,K,A*38
$SMGPS,0.0 m,+0.01 m/s,7.57 VRx,0.000 km,32 m,216.5 °,1:-- (  0.0 km/h),484.9 m*A6
$SMGPS2,-0.09 X,+0.27 Y,+0.92 Z,2 ENL,0 us,0.0 kmh,967.39 hPa,967.28 hPa,-0.01 m/s*0B
$GNRMC,172421.50,A,4816.48393,N,01139.87031,E,0.04,,080522,,,A,V*22
$GNGNS,172421.50,4816.48393,N,01139.87031,E,AAAN,19,0.62,474.9,46.2,,,V*10
$GNGSA,A,3,01,14,03,21,08,22,32,10,,,,,1.00,0.62,0.79,1*06
$GNGSA,A,3,81,66,88,82,67,,,,,,,,1.00,0.62,0.79,2*0B
$GNGSA,A,3,15,34,09,21,27,36,,,,,,,1.00,0.62,0.79,3*01
$GNVTG,,T,,M,0.030,N,0.055,K,A*3E
$SMGPS,0.0 m,+0.01 m/s,7.56 VRx,0.000 km,32 m,216.5 °,1:-- (  0.0 km/h),484.8 m*A6
$SMGPS2,-0.09 X,+0.26 Y,+0.92 Z,1 ENL,0 us,0.0 kmh,967.39 hPa,967.28 hPa,-0.01 m/s*09
$GNRMC,172421.60,A,4816.48393,N,01139.87027,E,0.15,,080522,,,A,V*26
$GNGNS,172421.60,4816.48393,N,01139.87027,E,AAAN,19,0.62,474.9,46.2,,,V*14
$GNGSA,A,3,01,14,03,21,08,22,32,10,,,,,1.00,0.62,0.79,1*06
$GNGSA,A,3,81,66,88,82,67,,,,,,,,1.00,0.62,0.79,2*0B
$GNGSA,A,3,15,34,09,21,27,36,,,,,,,1.00,0.62,0.79,3*01
$GNVTG,,T,,M,0.144,N,0.267,K,A*3F
$SMGPS,-0.0 m,+0.01 m/s,7.57 VRx,0.000 km,32 m,216.5 °,1:-- (  0.0 km/h),484.7 m*85
$SMGPS2,-0.09 X,+0.27 Y,+0.93 Z,1 ENL,0 us,0.0 kmh,967.40 hPa,967.28 hPa,-0.01 m/s*07
$GNRMC,172421.70,A,4816.48393,N,01139.87023,E,0.11,,080522,,,A,V*27
$GNGNS,172421.70,4816.48393,N,01139.87023,E,AAAN,19,0.62,474.9,46.2,,,V*11
$GNGSA,A,3,01,14,03,21,08,22,32,10,,,,,1.00,0.62,0.79,1*06
$GNGSA,A,3,81,66,88,82,67,,,,,,,,1.00,0.62,0.79,2*0B
$GNGSA,A,3,15,34,09,21,27,36,,,,,,,1.00,0.62,0.79,3*01
$GNVTG,,T,,M,0.109,N,0.201,K,A*36
$SMGPS,-0.0 m,+0.01 m/s,7.55 VRx,0.000 km,32 m,216.7 °,1:-- (  0.0 km/h),484.6 m*84
$SMGPS2,-0.09 X,+0.27 Y,+0.93 Z,1 ENL,0 us,0.0 kmh,967.39 hPa,967.28 hPa,-0.01 m/s*09
$GNRMC,172421.80,A,4816.48394,N,01139.87018,E,0.26,,080522,,,A,V*23
$GNGNS,172421.80,4816.48394,N,01139.87018,E,AAAN,19,0.62,474.9,46.2,,,V*11
$GNGSA,A,3,01,14,03,21,08,22,32,10,,,,,1.00,0.62,0.79,1*06
$GNGSA,A,3,81,66,88,82,67,,,,,,,,1.00,0.62,0.79,2*0B
$GNGSA,A,3,15,34,09,21,27,36,,,,,,,1.00,0.62,0.79,3*01
$GNVTG,,T,,M,0.255,N,0.472,K,A*3E
$SMGPS,0.0 m,+0.01 m/s,7.57 VRx,0.000 km,32 m,216.7 °,1:-- (  0.0 km/h),484.4 m*A9
$SMGPS2,-0.09 X,+0.28 Y,+0.93 Z,2 ENL,0 us,0.0 kmh,967.39 hPa,967.28 hPa,-0.01 m/s*05
$GNRMC,172421.90,A,4816.48395,N,01139.87013,E,0.19,,080522,,,A,V*24
$GNGNS,172421.90,4816.48395,N,01139.87013,E,AAAN,19,0.62,474.9,46.2,,,V*1A
$GNGSA,A,3,01,14,03,21,08,22,32,10,,,,,1.00,0.62,0.79,1*06
$GNGSA,A,3,81,66,88,82,67,,,,,,,,1.00,0.62,0.79,2*0B
$GNGSA,A,3,15,34,09,21,27,36,,,,,,,1.00,0.62,0.79,3*01
$GNVTG,,T,,M,0.188,N,0.348,K,A*33
$SMGPS,0.0 m,+0.01 m/s,7.56 VRx,0.000 km,32 m,216.7 °,1:-- (  0.0 km/h),484.3 m*AF
$SMGPS2,-0.09 X,+0.27 Y,+0.93 Z,1 ENL,0 us,0.0 kmh,967.39 hPa,967.28 hPa,-0.01 m/s*09
$GNRMC,172422.00,A,4816.48395,N,01139.87007,E,0.06,,080522,,,A,V*25
$GNGNS,172422.00,4816.48395,N,01139.87007,E,AAAN,19,0.62,474.9,46.2,,,V*15
$GNGSA,A,3,01,14,03,21,08,22,32,10,,,,,1.00,0.62,0.79,1*06
$GNGSA,A,3,81,66,88,82,67,,,,,,,,1.00,0.62,0.79,2*0B
$GNGSA,A,3,15,34,09,21,27,36,,,,,,,1.00,0.62,0.79,3*01
$GNVTG,,T,,M,0.059,N,0.110,K,A*31
$SMGPS,-0.0 m,+0.01 m/s,7.61 VRx,0.000 km,32 m,216.9 °,1:-- (  0.0 km/h),484.2 m*89
$SMGPS2,-0.09 X,+0.27 Y,+0.93 Z,2 ENL,0 us,0.0 kmh,967.39 hPa,967.28 hPa,-0.01 m/s*0A
$GNRMC,172422.10,A,4816.48395,N,01139.87000,E,0.18,,080522,,,A,V*2C
$GNGNS,172422.10,4816.48395,N,01139.87000,E,AAAN,19,0.62,474.9,46.2,,,V*13
$GNGSA,A,3,01,14,03,21,08,22,32,10,,,,,1.00,0.62,0.79,1*06
$GNGSA,A,3,81,66,88,82,67,,,,,,,,1.00,0.62,0.79,2*0B
$GNGSA,A,3,15,34,09,21,27,36,,,,,,,1.00,0.62,0.79,3*01
$GNVTG,,T,,M,0.174,N,0.322,K,A*3C
$SMGPS,0.0 m,+0.01 m/s,7.55 VRx,0.000 km,32 m,216.9 °,1:-- (  0.0 km/h),484.1 m*A0
$SMGPS2,-0.09 X,+0.27 Y,+0.93 Z,1 ENL,0 us,0.0 kmh,967.39 hPa,967.27 hPa,-0.01 m/s*06
$GNRMC,172422.20,A,4816.48394,N,01139.86996,E,0.12,,080522,,,A,V*23
$GNGNS,172422.20,4816.48394,N,01139.86996,E,AAAN,19,0.62,474.9,46.2,,,V*16
$GNGSA,A,3,01,14,03,21,08,22,32,10,,,,,1.00,0.62,0.79,1*06
$GNGSA,A,3,81,66,88,82,67,,,,,,,,1.00,0.62,0.79,2*0B
$GNGSA,A,3,15,34,09,21,27,36,,,,,,,1.00,0.62,0.79,3*01
$GNVTG,,T,,M,0.123,N,0.228,K,A*35
$SMGPS,-0.0 m,+0.01 m/s,7.59 VRx,0.000 km,32 m,217.1 °,1:-- (  0.0 km/h),484.0 m*89
$SMGPS2,-0.10 X,+0.27 Y,+0.94 Z,1 ENL,0 us,0.0 kmh,967.40 hPa,967.28 hPa,-0.01 m/s*08
$GNRMC,172422.30,A,4816.48393,N,01139.86991,E,0.13,,080522,,,A,V*23
$GNGNS,172422.30,4816.48393,N,01139.86991,E,AAAN,19,0.62,474.9,46.2,,,V*17
$GNGSA,A,3,01,14,03,21,08,22,32,10,,,,,1.00,0.62,0.79,1*06
$GNGSA,A,3,81,66,88,82,67,,,,,,,,1.00,0.62,0.79,2*0B
$GNGSA,A,3,15,34,09,21,27,36,,,,,,,1.00,0.62,0.79,3*01
$GNVTG,,T,,M,0.127,N,0.235,K,A*3D
$SMGPS,-0.0 m,+0.01 m/s,7.57 VRx,0.000 km,32 m,217.1 °,1:-- (  0.0 km/h),484.0 m*87
$SMGPS2,-0.09 X,+0.27 Y,+0.93 Z,1 ENL,0 us,0.0 kmh,967.39 hPa,967.27 hPa,-0.01 m/s*06
$GNRMC,172422.40,A,4816.48391,N,01139.86988,E,0.41,,080522,,,A,V*29
$GNGNS,172422.40,4816.48391,N,01139.86988,E,AAAN,20,0.59,474.9,46.2,,,V*18
$GNGSA,A,3,01,14,03,21,08,22,32,10,,,,,0.97,0.59,0.76,1*0E
$GNGSA,A,3,81,66,88,82,67,,,,,,,,1.00,0.62,0.79,2*0B
$GNGSA,A,3,15,34,09,21,27,36,,,,,,,1.00,0.62,0.79,3*01
$GNVTG,,T,,M,0.408,N,0.755,K,A*36
$SMGPS,-0.0 m,+0.01 m/s,7.59 VRx,0.000 km,32 m,217.3 °,1:-- (  0.0 km/h),483.9 m*85
$SMGPS2,-0.09 X,+0.27 Y,+0.93 Z,1 ENL,0 us,0.0 kmh,967.39 hPa,967.28 hPa,-0.00 m/s*08
$GNRMC,172422.50,A,4816.48390,N,01139.86984,E,0.23,,080522,,,A,V*21
$GNGNS,172422.50,4816.48390,N,01139.86984,E,AAAN,19,0.60,474.9,46.2,,,V*14
$GNGSA,A,3,01,14,03,21,08,22,32,10,,,,,0.98,0.60,0.78,1*05
$GNGSA,A,3,81,66,88,82,67,73,,,,,,,0.97,0.59,0.76,2*07
$GNGSA,A,3,15,34,09,21,27,36,,,,,,,0.97,0.59,0.76,3*09
$GNVTG,,T,,M,0.226,N,0.418,K,A*36
$SMGPS,-0.0 m,+0.01 m/s,7.55 VRx,0.000 km,32 m,217.3 °,1:-- (  0.0 km/h),483.9 m*89
$SMGPS2,-0.09 X,+0.27 Y,+0.93 Z,1 ENL,0 us,0.0 kmh,967.39 hPa,967.28 hPa,-0.00 m/s*08
$GNRMC,172422.60,A,4816.48390,N,01139.86981,E,0.12,,080522,,,A,V*25
$GNGNS,172422.60,4816.48390,N,01139.86981,E,AAAN,19,0.60,474.9,46.2,,,V*12
$GNGSA,A,3,01,14,03,21,08,22,32,10,,,,,0.98,0.60,0.78,1*05
$GNGSA,A,3,81,88,82,67,73,,,,,,,,0.98,0.60,0.78,2*0C
$GNGSA,A,3,15,34,09,21,27,36,,,,,,,0.98,0.60,0.78,3*02
$GNVTG,,T,,M,0.124,N,0.229,K,A*33
$SMGPS,-0.0 m,-0.00 m/s,7.57 VRx,0.000 km,32 m,217.3 °,1:-- (  0.0 km/h),483.8 m*8D
$SMGPS2,-0.09 X,+0.27 Y,+0.93 Z,0 ENL,0 us,0.0 kmh,967.40 hPa,967.28 hPa,-0.00 m/s*07
$GNRMC,172422.70,A,4816.48390,N,01139.86978,E,0.13,,080522,,,A,V*23
$GNGNS,172422.70,4816.48390,N,01139.86978,E,AAAN,19,0.60,474.9,46.2,,,V*15
$GNGSA,A,3,01,14,03,21,08,22,32,10,,,,,0.98,0.60,0.78,1*05
$GNGSA,A,3,81,88,82,67,73,,,,,,,,0.98,0.60,0.78,2*0C
$GNGSA,A,3,15,34,09,21,27,36,,,,,,,0.98,0.60,0.78,3*02
$GNVTG,,T,,M,0.133,N,0.246,K,A*3C
$SMGPS,-0.0 m,-0.01 m/s,7.56 VRx,0.000 km,32 m,217.6 °,1:-- (  0.0 km/h),483.7 m*87
$SMGPS2,-0.09 X,+0.26 Y,+0.93 Z,1 ENL,0 us,0.0 kmh,967.40 hPa,967.28 hPa,-0.00 m/s*07
$GNRMC,172422.80,A,4816.48391,N,01139.86976,E,0.16,,080522,,,A,V*26
$GNGNS,172422.80,4816.48391,N,01139.86976,E,AAAN,19,0.60,474.9,46.2,,,V*15
$GNGSA,A,3,01,14,03,21,08,22,32,10,,,,,0.98,0.60,0.78,1*05
$GNGSA,A,3,81,88,82,67,73,,,,,,,,0.98,0.60,0.78,2*0C
$GNGSA,A,3,15,34,09,21,27,36,,,,,,,0.98,0.60,0.78,3*02
$GNVTG,,T,,M,0.163,N,0.302,K,A*38
$SMGPS,-0.0 m,-0.01 m/s,7.57 VRx,0.000 km,32 m,217.6 °,1:-- (  0.0 km/h),483.5 m*84
$SMGPS2,-0.09 X,+0.27 Y,+0.93 Z,1 ENL,0 us,0.0 kmh,967.40 hPa,967.28 hPa,-0.00 m/s*06
$GNRMC,172422.90,A,4816.48391,N,01139.86974,E,0.23,,080522,,,A,V*23
$GNGNS,172422.90,4816.48391,N,01139.86974,E,AAAN,19,0.60,474.9,46.2,,,V*16
$GNGSA,A,3,01,14,03,21,08,22,32,10,,,,,0.98,0.60,0.78,1*05
$GNGSA,A,3,81,88,82,67,73,,,,,,,,0.98,0.60,0.78,2*0C
$GNGSA,A,3,15,34,09,21,27,36,,,,,,,0.98,0.60,0.78,3*02
$GNVTG,,T,,M,0.230,N,0.426,K,A*3C
$SMGPS,0.0 m,-0.01 m/s,7.55 VRx,0.000 km,32 m,217.6 °,1:-- (  0.0 km/h),483.4 m*AA
$SMGPS2,-0.09 X,+0.27 Y,+0.93 Z,2 ENL,0 us,0.0 kmh,967.40 hPa,967.28 hPa,-0.01 m/s*04
$GNRMC,172423.00,A,4816.48393,N,01139.86973,E,0.13,,080522,,,A,V*2D
$GNGNS,172423.00,4816.48393,N,01139.86973,E,AAAN,19,0.60,474.9,46.2,,,V*1B
$GNGSA,A,3,01,14,03,21,08,22,32,10,,,,,0.98,0.60,0.78,1*05
$GNGSA,A,3,81,88,82,67,73,,,,,,,,0.98,0.60,0.78,2*0C
$GNGSA,A,3,15,34,09,21,27,36,,,,,,,0.98,0.60,0.78,3*02
$GNVTG,,T,,M,0.125,N,0.231,K,A*3B
$SMGPS,-0.0 m,-0.02 m/s,7.57 VRx,0.000 km,32 m,217.6 °,1:-- (  0.0 km/h),483.3 m*81
$SMGPS2,-0.09 X,+0.27 Y,+0.93 Z,0 ENL,0 us,0.0 kmh,967.40 hPa,967.28 hPa,-0.01 m/s*06
$GNRMC,172423.10,A,4816.48395,N,01139.86971,E,0.36,,080522,,,A,V*2F
$GNGNS,172423.10,4816.48395,N,01139.86971,E,AAAN,19,0.60,474.9,46.2,,,V*1E
$GNGSA,A,3,01,14,03,21,08,22,32,10,,,,,0.98,0.60,0.78,1*05
$GNGSA,A,3,81,88,82,67,73,,,,,,,,0.98,0.60,0.78,2*0C
$GNGSA,A,3,15,34,09,21,27,36,,,,,,,0.98,0.60,0.78,3*02
$GNVTG,,T,,M,0.357,N,0.662,K,A*3E
$SMGPS,0.0 m,-0.02 m/s,7.54 VRx,0.000 km,32 m,217.6 °,1:-- (  0.0 km/h),483.1 m*AD
$SMGPS2,-0.09 X,+0.27 Y,+0.93 Z,1 ENL,0 us,0.0 kmh,967.39 hPa,967.27 hPa,-0.01 m/s*06
$GNRMC,172423.20,A,4816.48397,N,01139.86968,E,0.17,,080522,,,A,V*25
$GNGNS,172423.20,4816.48397,N,01139.86968,E,AAAN,19,0.60,474.9,46.2,,,V*17
$GNGSA,A,3,01,14,03,21,08,22,32,10,,,,,0.98,0.60,0.78,1*05
$GNGSA,A,3,81,88,82,67,73,,,,,,,,0.98,0.60,0.78,2*0C
$GNGSA,A,3,15,34,09,21,27,36,,,,,,,0.98,0.60,0.78,3*02
$GNVTG,,T,,M,0.163,N,0.301,K,A*3B
$SMGPS,-0.0 m,-0.02 m/s,7.57 VRx,0.000 km,32 m,217.6 °,1:-- (  0.0 km/h),483.0 m*82
$SMGPS2,-0.08 X,+0.27 Y,+0.93 Z,1 ENL,0 us,0.0 kmh,967.40 hPa,967.28 hPa,+0.00 m/s*01
$GNRMC,172423.30,A,4816.48398,N,01139.86966,E,0.11,,080522,,,A,V*23
$GNGNS,172423.30,4816.48398,N,01139.86966,E,AAAN,19,0.60,474.9,46.2,,,V*17
$GNGSA,A,3,01,14,03,21,08,22,32,10,,,,,0.98,0.60,0.78,1*05
$GNGSA,A,3,81,88,82,67,73,,,,,,,,0.98,0.60,0.78,2*0C
$GNGSA,A,3,15,34,09,21,27,36,,,,,,,0.98,0.60,0.78,3*02
$GNVTG,,T,,M,0.099,N,0.183,K,A*37
$SMGPS,-0.0 m,-0.02 m/s,7.54 VRx,0.000 km,32 m,217.8 °,1:-- (  0.0 km/h),482.9 m*87
$SMGPS2,-0.09 X,+0.27 Y,+0.93 Z,1 ENL,0 us,0.0 kmh,967.40 hPa,967.27 hPa,+0.00 m/s*0F
$GNRMC,172423.40,A,4816.48398,N,01139.86965,E,0.29,,080522,,,A,V*2C
$GNGNS,172423.40,4816.48398,N,01139.86965,E,AAAN,19,0.60,474.9,46.2,,,V*13
$GNGSA,A,3,01,14,03,21,08,22,32,10,,,,,0.98,0.60,0.78,1*05
$GNGSA,A,3,81,88,82,67,73,,,,,,,,0.98,0.60,0.78,2*0C
$GNGSA,A,3,15,34,09,21,27,36,,,,,,,0.98,0.60,0.78,3*02
$GNVTG,,T,,M,0.290,N,0.537,K,A*37
$SMGPS,0.0 m,-0.02 m/s,7.58 VRx,0.000 km,32 m,217.8 °,1:-- (  0.0 km/h),482.8 m*A7
$SMGPS2,-0.09 X,+0.27 Y,+0.93 Z,1 ENL,0 us,0.0 kmh,967.40 hPa,967.28 hPa,+0.01 m/s*01
$GNRMC,172423.50,A,4816.48398,N,01139.86963,E,0.19,,080522,,,A,V*28
$GNGNS,172423.50,4816.48398,N,01139.86963,E,AAAN,19,0.60,474.9,46.2,,,V*14
$GNGSA,A,3,01,14,03,21,08,22,32,10,,,,,0.98,0.60,0.78,1*05
$GNGSA,A,3,81,88,82,67,73,,,,,,,,0.98,0.60,0.78,2*0C
$GNGSA,A,3,15,34,09,21,27,36,,,,,,,0.98,0.60,0.78,3*02
$GNVTG,,T,,M,0.186,N,0.344,K,A*31
$SMGPS,-0.0 m,-0.02 m/s,7.55 VRx,0.000 km,32 m,217.8 °,1:-- (  0.0 km/h),482.7 m*88
$SMGPS2,-0.09 X,+0.27 Y,+0.93 Z,2 ENL,0 us,0.0 kmh,967.40 hPa,967.28 hPa,+0.00 m/s*03
$GNRMC,172423.60,A,4816.48399,N,01139.86962,E,0.19,,080522,,,A,V*2B
$GNGNS,172423.60,4816.48399,N,01139.86962,E,AAAN,19,0.60,474.9,46.2,,,V*17
$GNGSA,A,3,01,14,03,21,08,22,32,10,,,,,0.98,0.60,0.78,1*05
$GNGSA,A,3,81,88,82,67,73,,,,,,,,0.98,0.60,0.78,2*0C
$GNGSA,A,3,15,34,09,21,27,36,,,,,,,0.98,0.60,0.78,3*02
$GNVTG,,T,,M,0.189,N,0.350,K,A*3B
$SMGPS,-0.0 m,-0.02 m/s,7.58 VRx,0.000 km,32 m,217.8 °,1:-- (  0.0 km/h),482.6 m*84
$SMGPS2,-0.09 X,+0.27 Y,+0.93 Z,0 ENL,0 us,0.0 kmh,967.40 hPa,967.27 hPa,+0.01 m/s*0F
$GNRMC,172423.70,A,4816.48398,N,01139.86961,E,0.41,,080522,,,A,V*25
$GNGNS,172423.70,4816.48398,N,01139.86961,E,AAAN,19,0.60,474.9,46.2,,,V*14
$GNGSA,A,3,01,14,03,21,08,22,32,10,,,,,0.98,0.60,0.78,1*05
$GNGSA,A,3,81,88,82,67,73,,,,,,,,0.98,0.60,0.78,2*0C
$GNGSA,A,3,15,34,09,21,27,36,,,,,,,0.98,0.60,0.78,3*02
$GNVTG,,T,,M,0.410,N,0.760,K,A*39
$SMGPS,0.0 m,-0.01 m/s,7.55 VRx,0.000 km,32 m,217.8 °,1:-- (  0.0 km/h),482.5 m*A4
$SMGPS2,-0.08 X,+0.27 Y,+0.93 Z,1 ENL,0 us,0.0 kmh,967.39 hPa,967.28 hPa,+0.00 m/s*0F
$GNRMC,172423.80,A,4816.48399,N,01139.86960,E,0.13,,080522,,,A,V*2D
$GNGNS,172423.80,4816.48399,N,01139.86960,E,AAAN,19,0.60,474.9,46.2,,,V*1B
$GNGSA,A,3,01,14,03,21,08,22,32,10,,,,,0.98,0.60,0.78,1*05
$GNGSA,A,3,81,88,82,67,73,,,,,,,,0.98,0.60,0.78,2*0C
$GNGSA,A,3,15,34,09,21,27,36,,,,,,,0.98,0.60,0.78,3*02
$GNVTG,,T,,M,0.128,N,0.237,K,A*30
$SMGPS,-0.0 m,-0.01 m/s,7.57 VRx,0.000 km,32 m,217.8 °,1:-- (  0.0 km/h),482.3 m*8D
$SMGPS2,-0.10 X,+0.28 Y,+0.93 Z,2 ENL,0 us,0.0 kmh,967.40 hPa,967.28 hPa,-0.00 m/s*02
$GNRMC,172423.90,A,4816.48400,N,01139.86959,E,0.24,,080522,,,A,V*25
$GNGNS,172423.90,4816.48400,N,01139.86959,E,AAAN,19,0.60,474.9,46.2,,,V*17
$GNGSA,A,3,01,14,03,21,08,22,32,10,,,,,0.98,0.60,0.78,1*05
$GNGSA,A,3,81,88,82,67,73,,,,,,,,0.98,0.60,0.78,2*0C
$GNGSA,A,3,15,34,09,21,27,36,,,,,,,0.98,0.60,0.78,3*02
$GNVTG,,T,,M,0.237,N,0.439,K,A*35
$SMGPS,-0.0 m,-0.01 m/s,7.56 VRx,0.000 km,32 m,217.8 °,1:-- (  0.0 km/h),482.2 m*8D
$SMGPS2,-0.09 X,+0.27 Y,+0.93 Z,1 ENL,0 us,0.0 kmh,967.40 hPa,967.28 hPa,-0.00 m/s*06
$GNRMC,172424.00,A,4816.48402,N,01139.86958,E,0.56,,080522,,,A,V*2D
$GNGNS,172424.00,4816.48402,N,01139.86958,E,AAAN,20,0.59,474.9,46.2,,,V*1A
$GNGSA,A,3,01,14,03,21,08,22,32,10,,,,,0.97,0.59,0.76,1*0E
$GNGSA,A,3,81,88,82,67,73,,,,,,,,0.98,0.60,0.78,2*0C
$GNGSA,A,3,15,34,09,21,27,36,,,,,,,0.98,0.60,0.78,3*02
$GNVTG,,T,,M,0.556,N,1.029,K,A*31
$SMGPS,0.0 m,-0.00 m/s,7.57 VRx,0.000 km,32 m,217.8 °,1:-- (  0.0 km/h),482.1 m*A3
$SMGPS2,-0.08 X,+0.25 Y,+1.18 Z,2 ENL,0 us,0.0 kmh,967.39 hPa,967.28 hPa,-0.00 m/s*0A
$GNRMC,172424.10,A,4816.48404,N,01139.86956,E,0.43,,080522,,,A,V*20
$GNGNS,172424.10,4816.48404,N,01139.86956,E,AAAN,20,0.59,475.0,46.2,,,V*1B
$GNGSA,A,3,01,14,03,21,08,22,32,10,,,,,0.97,0.59,0.76,1*0E
$GNGSA,A,3,81,66,88,82,67,73,,,,,,,0.97,0.59,0.76,2*07
$GNGSA,A,3,15,34,09,21,27,36,,,,,,,0.97,0.59,0.76,3*09
$GNVTG,,T,,M,0.432,N,0.799,K,A*3F
$SMGPS,0.1 m,+0.01 m/s,7.55 VRx,0.000 km,32 m,217.8 °,1:-- (  0.0 km/h),482.0 m*A6
$SMGPS2,+0.06 X,+0.17 Y,+1.43 Z,1 ENL,0 us,0.0 kmh,967.39 hPa,967.26 hPa,+0.01 m/s*07
$GNRMC,172424.20,A,4816.48407,N,01139.86954,E,1.10,,080522,,,A,V*25
$GNGNS,172424.20,4816.48407,N,01139.86954,E,AAAN,20,0.59,475.0,46.2,,,V*19
$GNGSA,A,3,01,14,03,21,08,22,32,10,,,,,0.97,0.59,0.76,1*0E
$GNGSA,A,3,81,66,88,82,67,73,,,,,,,0.97,0.59,0.76,2*07
$GNGSA,A,3,15,34,09,21,27,36,,,,,,,0.97,0.59,0.76,3*09
$GNVTG,,T,,M,1.094,N,2.026,K,A*37
$SMGPS,0.1 m,+0.02 m/s,7.58 VRx,0.000 km,32 m,218.0 °,1:-- (  0.0 km/h),481.9 m*A5
$SMGPS2,+0.05 X,+0.09 Y,+1.07 Z,2 ENL,0 us,0.0 kmh,967.38 hPa,967.26 hPa,+0.03 m/s*0B
$GNRMC,172424.30,A,4816.48412,N,01139.86952,E,1.29,,080522,,,A,V*2C
$GNGNS,172424.30,4816.48412,N,01139.86952,E,AAAN,19,0.60,475.1,46.2,,,V*1B
$GNGSA,A,3,01,14,03,21,08,22,32,10,,,,,0.98,0.60,0.78,1*05
$GNGSA,A,3,81,66,88,82,67,73,,,,,,,0.97,0.59,0.76,2*07
$GNGSA,A,3,15,34,09,21,27,36,,,,,,,0.97,0.59,0.76,3*09
$GNVTG,,T,,M,1.283,N,2.376,K,A*35
$SMGPS,0.2 m,+0.05 m/s,7.54 VRx,0.000 km,32 m,218.0 °,1:-- (  0.0 km/h),481.8 m*AC
$SMGPS2,+0.28 X,+0.13 Y,+1.17 Z,1 ENL,0 us,0.0 kmh,967.37 hPa,967.25 hPa,+0.06 m/s*04
$GNRMC,172424.40,A,4816.48414,N,01139.86950,E,0.48,,080522,,,A,V*29
$GNGNS,172424.40,4816.48414,N,01139.86950,E,AAAN,20,0.59,475.1,46.2,,,V*18
$GNGSA,A,3,01,14,03,21,08,22,32,10,,,,,0.97,0.59,0.76,1*0E
$GNGSA,A,3,81,88,82,67,73,,,,,,,,0.98,0.60,0.78,2*0C
$GNGSA,A,3,15,34,09,21,27,36,,,,,,,0.98,0.60,0.78,3*02
$GNVTG,,T,,M,0.448,N,0.830,K,A*3E
$SMGPS,0.2 m,+0.09 m/s,7.59 VRx,0.000 km,32 m,218.0 °,1:-- (  0.0 km/h),481.7 m*A2
$SMGPS2,+0.24 X,+0.15 Y,+1.07 Z,2 ENL,0 us,0.0 kmh,967.36 hPa,967.24 hPa,+0.10 m/s*0B
$GNRMC,172424.50,A,4816.48414,N,01139.86946,E,0.92,,080522,,,A,V*28
$GNGNS,172424.50,4816.48414,N,01139.86946,E,AAAN,20,0.59,475.1,46.2,,,V*1E
$GNGSA,A,3,01,14,03,21,08,22,32,10,,,,,0.97,0.59,0.76,1*0E
$GNGSA,A,3,81,65,88,82,67,73,,,,,,,0.97,0.59,0.76,2*04
$GNGSA,A,3,15,34,09,21,27,36,,,,,,,0.97,0.59,0.76,3*09
$GNVTG,,T,,M,0.879,N,1.627,K,A*39
$SMGPS,0.2 m,+0.14 m/s,7.57 VRx,0.000 km,32 m,219.0 °,1:-- (  0.0 km/h),481.6 m*A0
$SMGPS2,+0.03 X,+0.24 Y,+0.59 Z,1 ENL,0 us,0.0 kmh,967.35 hPa,967.23 hPa,+0.16 m/s*07
$GNRMC,172424.60,A,4816.48413,N,01139.86943,E,1.00,,080522,,,A,V*23
$GNGNS,172424.60,4816.48413,N,01139.86943,E,AAAN,20,0.59,475.1,46.2,,,V*1F
$GNGSA,A,3,01,14,03,21,08,22,32,10,,,,,0.97,0.59,0.76,1*0E
$GNGSA,A,3,81,65,88,82,67,73,,,,,,,0.97,0.59,0.76,2*04
$GNGSA,A,3,15,34,09,21,27,36,,,,,,,0.97,0.59,0.76,3*09
$GNVTG,,T,,M,0.935,N,1.731,K,A*36
$SMGPS,0.2 m,+0.18 m/s,7.58 VRx,0.000 km,32 m,219.0 °,1:-- (  0.0 km/h),481.5 m*A0
$SMGPS2,-0.33 X,+0.23 Y,+0.62 Z,1 ENL,0 us,0.0 kmh,967.35 hPa,967.23 hPa,+0.19 m/s*02
$GNRMC,172424.70,A,4816.48411,N,01139.86938,E,1.74,,080522,,,A,V*2F
$GNGNS,172424.70,4816.48411,N,01139.86938,E,AAAN,20,0.59,475.2,46.2,,,V*13
$GNGSA,A,3,01,14,03,21,08,22,32,10,,,,,0.97,0.59,0.76,1*0E
$GNGSA,A,3,81,65,88,82,67,73,,,,,,,0.97,0.59,0.76,2*04
$GNGSA,A,3,15,34,09,21,27,36,,,,,,,0.97,0.59,0.76,3*09
$GNVTG,,T,,M,1.691,N,3.132,K,A*31
$SMGPS,0.3 m,+0.21 m/s,7.54 VRx,0.000 km,32 m,218.2 °,1:-- (  0.0 km/h),481.5 m*A4
$SMGPS2,-0.23 X,-0.08 Y,+0.88 Z,2 ENL,0 us,0.0 kmh,967.35 hPa,967.22 hPa,+0.23 m/s*03
$GNRMC,172424.80,A,4816.48406,N,01139.86934,E,2.33,208.31,080522,,,A,V*3C
$GNGNS,172424.80,4816.48406,N,01139.86934,E,AAAN,20,0.59,475.2,46.2,,,V*16
$GNGSA,A,3,01,14,03,21,08,22,32,10,,,,,0.97,0.59,0.76,1*0E
$GNGSA,A,3,81,65,88,82,67,73,,,,,,,0.97,0.59,0.76,2*04
$GNGSA,A,3,15,34,09,21,27,36,,,,,,,0.97,0.59,0.76,3*09
$GNVTG,208.31,T,,M,2.279,N,4.221,K,A*20
$SMGPS,0.3 m,+0.24 m/s,7.58 VRx,0.000 km,32 m,218.2 °,1:-- (  0.0 km/h),481.4 m*AC
$SMGPS2,-0.19 X,-0.02 Y,+0.85 Z,2 ENL,0 us,0.0 kmh,967.34 hPa,967.22 hPa,+0.26 m/s*09
$GNRMC,172424.90,A,4816.48399,N,01139.86929,E,1.93,,080522,,,A,V*2F
$GNGNS,172424.90,4816.48399,N,01139.86929,E,AAAN,20,0.59,475.2,46.2,,,V*1A
$GNGSA,A,3,01,14,03,21,08,22,32,10,,,,,0.97,0.59,0.76,1*0E
$GNGSA,A,3,81,65,88,82,67,73,,,,,,,0.97,0.59,0.76,2*04
$GNGSA,A,3,15,34,09,21,27,36,,,,,,,0.97,0.59,0.76,3*09
$GNVTG,,T,,M,1.859,N,3.443,K,A*38
$SMGPS,0.3 m,+0.26 m/s,7.55 VRx,0.000 km,32 m,218.2 °,1:-- (  0.0 km/h),481.3 m*A4
$SMGPS2,-0.21 X,+0.11 Y,+0.92 Z,0 ENL,0 us,0.0 kmh,967.34 hPa,967.22 hPa,+0.28 m/s*0C
$GNRMC,172425.00,A,4816.48394,N,01139.86924,E,1.11,,080522,,,A,V*2D
$GNGNS,172425.00,4816.48394,N,01139.86924,E,AAAN,20,0.59,475.2,46.2,,,V*12
$GNGSA,A,3,01,14,03,21,08,22,32,10,,,,,0.97,0.59,0.76,1*0E
$GNGSA,A,3,81,66,88,82,67,73,,,,,,,0.97,0.59,0.76,2*07
$GNGSA,A,3,15,34,09,21,27,36,,,,,,,0.97,0.59,0.76,3*09
$GNVTG,,T,,M,0.976,N,1.808,K,A*34
$SMGPS,0.3 m,+0.27 m/s,7.59 VRx,0.000 km,33 m,218.4 °,1:-- (  0.0 km/h),481.3 m*AE
$SMGPS2,-0.15 X,+0.21 Y,+0.90 Z,0 ENL,0 us,0.0 kmh,967.34 hPa,967.22 hPa,+0.29 m/s*0B
$GNRMC,172425.10,A,4816.48386,N,01139.86917,E,1.86,202.65,080522,,,A,V*3C
$GNGNS,172425.10,4816.48386,N,01139.86917,E,AAAN,20,0.59,475.3,46.2,,,V*11
$GNGSA,A,3,01,14,03,21,08,22,32,10,,,,,0.97,0.59,0.76,1*0E
$GNGSA,A,3,81,66,88,82,67,73,,,,,,,0.97,0.59,0.76,2*07
$GNGSA,A,3,15,34,09,21,27,36,,,,,,,0.97,0.59,0.76,3*09
$GNVTG,202.65,T,,M,1.783,N,3.303,K,A*2E
$SMGPS,0.4 m,+0.27 m/s,7.57 VRx,0.000 km,33 m,218.4 °,1:-- (  0.0 km/h),481.3 m*A7
$SMGPS2,-0.19 X,+0.20 Y,+0.90 Z,1 ENL,0 us,0.0 kmh,967.34 hPa,967.21 hPa,+0.29 m/s*04
$GNRMC,172425.20,A,4816.48377,N,01139.86912,E,2.18,196.74,080522,,,A,V*3E
$GNGNS,172425.20,4816.48377,N,01139.86912,E,AAAN,20,0.59,475.2,46.2,,,V*18
$GNGSA,A,3,01,14,03,21,08,22,32,10,,,,,0.97,0.59,0.76,1*0E
$GNGSA,A,3,81,66,88,82,67,73,,,,,,,0.97,0.59,0.76,2*07
$GNGSA,A,3,15,34,09,21,27,36,,,,,,,0.97,0.59,0.76,3*09
$GNVTG,196.74,T,,M,2.120,N,3.927,K,A*20
$SMGPS,0.3 m,+0.26 m/s,7.56 VRx,0.000 km,33 m,218.6 °,1:-- (  0.0 km/h),481.4 m*A5
$SMGPS2,-0.18 X,+0.15 Y,+0.84 Z,1 ENL,0 us,0.0 kmh,967.34 hPa,967.22 hPa,+0.28 m/s*04
$GNRMC,172425.30,A,4816.48367,N,01139.86905,E,2.38,200.98,080522,,,A,V*34
$GNGNS,172425.30,4816.48367,N,01139.86905,E,AAAN,20,0.59,475.2,46.2,,,V*1E
$GNGSA,A,3,01,14,03,21,08,22,32,10,,,,,0.97,0.59,0.76,1*0E
$GNGSA,A,3,81,66,88,82,67,73,,,,,,,0.97,0.59,0.76,2*07
$GNGSA,A,3,15,34,09,21,27,36,,,,,,,0.97,0.59,0.76,3*09
$GNVTG,200.98,T,,M,2.328,N,4.311,K,A*2C
$SMGPS,0.3 m,+0.25 m/s,7.55 VRx,0.000 km,33 m,218.6 °,1:-- (  0.0 km/h),481.5 m*A4
$SMGPS2,-0.11 X,+0.10 Y,+0.92 Z,1 ENL,0 us,0.0 kmh,967.34 hPa,967.21 hPa,+0.27 m/s*03
$GNRMC,172425.40,A,4816.48360,N,01139.86898,E,2.48,207.16,080522,,,A,V*37
$GNGNS,172425.40,4816.48360,N,01139.86898,E,AAAN,20,0.59,475.2,46.2,,,V*1B
$GNGSA,A,3,01,14,03,21,08,22,32,10,,,,,0.97,0.59,0.76,1*0E
$GNGSA,A,3,81,66,88,82,67,73,,,,,,,0.97,0.59,0.76,2*07
$GNGSA,A,3,15,34,09,21,27,36,,,,,,,0.97,0.59,0.76,3*09
$GNVTG,207.16,T,,M,2.434,N,4.508,K,A*29
$SMGPS,0.3 m,+0.24 m/s,7.57 VRx,0.000 km,33 m,218.8 °,1:-- (  0.0 km/h),481.6 m*AA
$SMGPS2,-0.07 X,+0.15 Y,+0.99 Z,0 ENL,0 us,0.0 kmh,967.34 hPa,967.21 hPa,+0.26 m/s*0A
$GNRMC,172425.50,A,4816.48352,N,01139.86891,E,2.53,209.04,080522,,,A,V*39
$GNGNS,172425.50,4816.48352,N,01139.86891,E,AAAN,20,0.59,475.3,46.2,,,V*13
$GNGSA,A,3,01,14,03,21,08,22,32,10,,,,,0.97,0.59,0.76,1*0E
$GNGSA,A,3,81,66,88,82,67,73,,,,,,,0.97,0.59,0.76,2*07
$GNGSA,A,3,15,34,09,21,27,36,,,,,,,0.97,0.59,0.76,3*09
$GNVTG,209.04,T,,M,2.486,N,4.603,K,A*25
$SMGPS,0.4 m,+0.23 m/s,7.56 VRx,0.001 km,33 m,217.9 °,1:-- (  0.0 km/h),481.6 m*A4
$SMGPS2,-0.13 X,+0.43 Y,+0.93 Z,1 ENL,0 us,0.0 kmh,967.34 hPa,967.22 hPa,+0.25 m/s*07
$GNRMC,172425.60,A,4816.48345,N,01139.86887,E,2.26,202.89,080522,,,A,V*37
$GNGNS,172425.60,4816.48345,N,01139.86887,E,AAAN,20,0.59,475.2,46.2,,,V*10
$GNGSA,A,3,01,14,03,21,08,22,32,10,,,,,0.97,0.59,0.76,1*0E
$GNGSA,A,3,81,66,88,82,67,73,,,,,,,0.97,0.59,0.76,2*07
$GNGSA,A,3,15,34,09,21,27,36,,,,,,,0.97,0.59,0.76,3*09
$GNVTG,202.89,T,,M,2.221,N,4.114,K,A*21
$SMGPS,0.3 m,+0.21 m/s,7.60 VRx,0.001 km,33 m,218.2 °,1:-- (  0.0 km/h),481.6 m*A0
$SMGPS2,-0.09 X,+0.28 Y,+0.82 Z,2 ENL,0 us,0.0 kmh,967.34 hPa,967.22 hPa,+0.22 m/s*05
$GNRMC,172425.70,A,4816.48336,N,01139.86881,E,2.42,196.74,080522,,,A,V*3A
$GNGNS,172425.70,4816.48336,N,01139.86881,E,AAAN,22,0.54,475.3,46.2,,,V*1D
$GNGSA,A,3,01,14,03,21,08,22,32,27,10,,,,0.88,0.54,0.69,1*06
$GNGSA,A,3,81,66,88,82,67,73,,,,,,,0.97,0.59,0.76,2*07
$GNGSA,A,3,15,34,09,21,27,36,,,,,,,0.97,0.59,0.76,3*09
$GNVTG,196.74,T,,M,2.393,N,4.432,K,A*24
$SMGPS,0.4 m,+0.19 m/s,7.56 VRx,0.001 km,33 m,218.2 °,1:-- (  0.0 km/h),481.6 m*A9
$SMGPS2,-0.05 X,+0.34 Y,+0.89 Z,0 ENL,0 us,0.0 kmh,967.34 hPa,967.22 hPa,+0.20 m/s*0F
$GNRMC,172425.80,A,4816.48326,N,01139.86877,E,2.58,187.22,080522,,,A,V*35
$GNGNS,172425.80,4816.48326,N,01139.86877,E,AAAN,22,0.54,475.3,46.2,,,V*1A
$GNGSA,A,3,01,14,03,21,08,22,32,27,10,,,,0.88,0.54,0.69,1*06
$GNGSA,A,3,81,66,88,82,67,73,87,,,,,,0.88,0.54,0.69,2*05
$GNGSA,A,3,15,34,09,21,27,36,,,,,,,0.88,0.54,0.69,3*04
$GNVTG,187.22,T,,M,2.559,N,4.739,K,A*2F
$SMGPS,0.4 m,+0.17 m/s,7.57 VRx,0.002 km,34 m,218.4 °,1:-- (  0.0 km/h),481.7 m*A5
$SMGPS2,-0.17 X,+0.32 Y,+1.07 Z,1 ENL,0 us,0.0 kmh,967.34 hPa,967.21 hPa,+0.18 m/s*04
$GNRMC,172425.90,A,4816.48319,N,01139.86875,E,2.54,184.13,080522,,,A,V*37
$GNGNS,172425.90,4816.48319,N,01139.86875,E,AAAN,22,0.54,475.3,46.2,,,V*15
$GNGSA,A,3,01,14,03,21,08,22,32,27,10,,,,0.88,0.54,0.69,1*06
$GNGSA,A,3,81,66,88,82,67,73,87,,,,,,0.88,0.54,0.69,2*05
$GNGSA,A,3,15,34,09,21,27,36,,,,,,,0.88,0.54,0.69,3*04
$GNVTG,184.13,T,,M,2.524,N,4.675,K,A*2D
$SMGPS,0.4 m,+0.15 m/s,7.54 VRx,0.002 km,34 m,218.4 °,1:-- (  0.0 km/h),481.8 m*AB
$SMGPS2,-0.24 X,+0.29 Y,+1.13 Z,2 ENL,0 us,0.0 kmh,967.34 hPa,967.22 hPa,+0.15 m/s*06
$GNRMC,172426.00,A,4816.48312,N,01139.86873,E,2.38,179.91,080522,,,A,V*32
$GNGNS,172426.00,4816.48312,N,01139.86873,E,AAAN,22,0.54,475.2,46.2,,,V*13
$GNGSA,A,3,01,14,03,21,08,22,32,27,10,,,,0.88,0.54,0.69,1*06
$GNGSA,A,3,81,66,88,82,67,73,87,,,,,,0.88,0.54,0.69,2*05
$GNGSA,A,3,15,34,09,21,27,36,,,,,,,0.88,0.54,0.69,3*04
$GNVTG,179.91,T,,M,2.361,N,4.373,K,A*21
$SMGPS,0.3 m,+0.13 m/s,7.58 VRx,0.002 km,34 m,218.4 °,1:-- (  0.0 km/h),481.9 m*A7
$SMGPS2,-0.19 X,+0.22 Y,+0.88 Z,1 ENL,0 us,0.0 kmh,967.34 hPa,967.22 hPa,+0.13 m/s*05
$GNRMC,172426.10,A,4816.48306,N,01139.86870,E,2.41,181.52,080522,,,A,V*33
$GNGNS,172426.10,4816.48306,N,01139.86870,E,AAAN,22,0.54,475.2,46.2,,,V*14
$GNGSA,A,3,01,14,03,21,08,22,32,27,10,,,,0.88,0.54,0.69,1*06
$GNGSA,A,3,81,66,88,82,67,73,87,,,,,,0.88,0.54,0.69,2*05
$GNGSA,A,3,15,34,09,21,27,36,,,,,,,0.88,0.54,0.69,3*04
$GNVTG,181.52,T,,M,2.399,N,4.443,K,A*2A
$SMGPS,0.3 m,+0.12 m/s,7.55 VRx,0.002 km,34 m,217.5 °,1:-- (  0.0 km/h),481.9 m*A5
$SMGPS2,-0.15 X,+0.09 Y,+0.74 Z,1 ENL,0 us,0.0 kmh,967.34 hPa,967.22 hPa,+0.12 m/s*02
$GNRMC,172426.20,A,4816.48298,N,01139.86867,E,2.58,181.31,080522,,,A,V*3D
$GNGNS,172426.20,4816.48298,N,01139.86867,E,AAAN,22,0.54,475.2,46.2,,,V*17
$GNGSA,A,3,01,14,03,21,08,22,32,27,10,,,,0.88,0.54,0.69,1*06
$GNGSA,A,3,81,66,88,82,67,73,87,,,,,,0.88,0.54,0.69,2*05
$GNGSA,A,3,15,34,09,21,27,36,,,,,,,0.88,0.54,0.69,3*04
$GNVTG,181.31,T,,M,2.572,N,4.763,K,A*2D
$SMGPS,0.3 m,+0.11 m/s,7.57 VRx,0.003 km,34 m,217.7 °,1:-- (  0.0 km/h),481.9 m*A7
$SMGPS2,-0.13 X,+0.04 Y,+0.79 Z,1 ENL,0 us,0.0 kmh,967.34 hPa,967.21 hPa,+0.11 m/s*04
$GNRMC,172426.30,A,4816.48291,N,01139.86864,E,2.38,183.09,080522,,,A,V*39
$GNGNS,172426.30,4816.48291,N,01139.86864,E,AAAN,22,0.54,475.2,46.2,,,V*1C
$GNGSA,A,3,01,14,03,21,08,22,32,27,10,,,,0.88,0.54,0.69,1*06
$GNGSA,A,3,81,66,88,82,67,73,87,,,,,,0.88,0.54,0.69,2*05
$GNGSA,A,3,15,34,09,21,27,36,,,,,,,0.88,0.54,0.69,3*04
$GNVTG,183.09,T,,M,2.374,N,4.396,K,A*2A
$SMGPS,0.3 m,+0.10 m/s,7.55 VRx,0.003 km,34 m,217.7 °,1:-- (  0.0 km/h),481.9 m*A4
$SMGPS2,-0.09 X,+0.07 Y,+0.97 Z,1 ENL,0 us,0.0 kmh,967.34 hPa,967.22 hPa,+0.10 m/s*0E
$GNRMC,172426.40,A,4816.48286,N,01139.86861,E,2.58,193.55,080522,,,A,V*33
$GNGNS,172426.40,4816.48286,N,01139.86861,E,AAAN,22,0.54,475.2,46.2,,,V*18
$GNGSA,A,3,01,14,03,21,08,22,32,27,10,,,,0.88,0.54,0.69,1*06
$GNGSA,A,3,81,66,88,82,67,73,87,,,,,,0.88,0.54,0.69,2*05
$GNGSA,A,3,15,34,09,21,27,36,,,,,,,0.88,0.54,0.69,3*04
$GNVTG,193.55,T,,M,2.572,N,4.763,K,A*2C
$SMGPS,0.3 m,+0.09 m/s,7.56 VRx,0.003 km,34 m,217.7 °,1:-- (  0.0 km/h),481.9 m*AF
$SMGPS2,-0.12 X,+0.17 Y,+1.17 Z,1 ENL,0 us,0.0 kmh,967.34 hPa,967.22 hPa,+0.09 m/s*04
$GNRMC,172426.50,A,4816.48280,N,01139.86856,E,2.34,195.45,080522,,,A,V*3D
$GNGNS,172426.50,4816.48280,N,01139.86856,E,AAAN,22,0.54,475.3,46.2,,,V*1A
$GNGSA,A,3,01,14,03,21,08,22,32,27,10,,,,0.88,0.54,0.69,1*06
$GNGSA,A,3,81,66,88,82,67,73,87,,,,,,0.88,0.54,0.69,2*05
$GNGSA,A,3,15,34,09,21,27,36,,,,,,,0.88,0.54,0.69,3*04
$GNVTG,195.45,T,,M,2.332,N,4.319,K,A*20
$SMGPS,0.4 m,+0.09 m/s,7.55 VRx,0.003 km,34 m,217.7 °,1:-- (  0.0 km/h),481.8 m*AA
$SMGPS2,-0.06 X,+0.12 Y,+1.15 Z,2 ENL,0 us,0.0 kmh,967.34 hPa,967.22 hPa,+0.08 m/s*04
$GNRMC,172426.60,A,4816.48276,N,01139.86852,E,2.52,195.41,080522,,,A,V*37
$GNGNS,172426.60,4816.48276,N,01139.86852,E,AAAN,22,0.54,475.3,46.2,,,V*14
$GNGSA,A,3,01,14,03,21,08,22,32,27,10,,,,0.88,0.54,0.69,1*06
$GNGSA,A,3,81,66,88,82,67,73,87,,,,,,0.88,0.54,0.69,2*05
$GNGSA,A,3,15,34,09,21,27,36,,,,,,,0.88,0.54,0.69,3*04
$GNVTG,195.41,T,,M,2.519,N,4.666,K,A*26
$SMGPS,0.4 m,+0.08 m/s,7.57 VRx,0.003 km,34 m,217.9 °,1:-- (  0.0 km/h),481.7 m*A8
$SMGPS2,+0.05 X,+0.22 Y,+0.90 Z,1 ENL,0 us,0.0 kmh,967.34 hPa,967.21 hPa,+0.08 m/s*0E
$GNRMC,172426.70,A,4816.48271,N,01139.86850,E,2.60,193.87,080522,,,A,V*3E
$GNGNS,172426.70,4816.48271,N,01139.86850,E,AAAN,22,0.54,475.3,46.2,,,V*10
$GNGSA,A,3,01,14,03,21,08,22,32,27,10,,,,0.88,0.54,0.69,1*06
$GNGSA,A,3,81,66,88,82,67,73,87,,,,,,0.88,0.54,0.69,2*05
$GNGSA,A,3,15,34,09,21,27,36,,,,,,,0.88,0.54,0.69,3*04
$GNVTG,193.87,T,,M,2.596,N,4.808,K,A*2B
$SMGPS,0.4 m,+0.08 m/s,7.54 VRx,0.003 km,34 m,217.9 °,1:-- (  0.0 km/h),481.6 m*AA
$SMGPS2,-0.03 X,+0.16 Y,+0.76 Z,2 ENL,0 us,0.0 kmh,967.34 hPa,967.21 hPa,+0.08 m/s*02
$GNRMC,172426.80,A,4816.48268,N,01139.86847,E,2.48,193.03,080522,,,A,V*39
$GNGNS,172426.80,4816.48268,N,01139.86847,E,AAAN,22,0.54,475.3,46.2,,,V*11
$GNGSA,A,3,01,14,03,21,08,22,32,27,10,,,,0.88,0.54,0.69,1*06
$GNGSA,A,3,81,66,88,82,67,73,87,,,,,,0.88,0.54,0.69,2*05
$GNGSA,A,3,15,34,09,21,27,36,,,,,,,0.88,0.54,0.69,3*04
$GNVTG,193.03,T,,M,2.476,N,4.585,K,A*20
$SMGPS,0.4 m,+0.07 m/s,7.57 VRx,0.003 km,34 m,217.9 °,1:-- (  0.0 km/h),481.5 m*A5
$SMGPS2,-0.08 X,+0.14 Y,+0.82 Z,2 ENL,0 us,0.0 kmh,967.34 hPa,967.22 hPa,+0.07 m/s*0C
$GNRMC,172426.90,A,4816.48262,N,01139.86844,E,2.55,190.56,080522,,,A,V*3E
$GNGNS,172426.90,4816.48262,N,01139.86844,E,AAAN,22,0.54,475.2,46.2,,,V*18
$GNGSA,A,3,01,14,03,21,08,22,32,27,10,,,,0.88,0.54,0.69,1*06
$GNGSA,A,3,81,66,88,82,67,73,87,,,,,,0.88,0.54,0.69,2*05
$GNGSA,A,3,15,34,09,21,27,36,,,,,,,0.88,0.54,0.69,3*04
$GNVTG,190.56,T,,M,2.543,N,4.709,K,A*22
$SMGPS,0.3 m,+0.07 m/s,7.54 VRx,0.003 km,34 m,217.9 °,1:-- (  0.0 km/h),481.4 m*A0
$SMGPS2,-0.10 X,+0.20 Y,+0.96 Z,1 ENL,0 us,0.0 kmh,967.34 hPa,967.22 hPa,+0.06 m/s*05
$GNRMC,172427.00,A,4816.48255,N,01139.86840,E,2.62,187.53,080522,,,A,V*31
$GNGNS,172427.00,4816.48255,N,01139.86840,E,AAAN,22,0.54,475.2,46.2,,,V*10
$GNGSA,A,3,01,14,03,21,08,22,32,27,10,,,,0.88,0.54,0.69,1*06
$GNGSA,A,3,81,66,88,82,67,73,87,,,,,,0.88,0.54,0.69,2*05
$GNGSA,A,3,15,34,09,21,27,36,,,,,,,0.88,0.54,0.69,3*04
$GNVTG,187.53,T,,M,2.618,N,4.849,K,A*27
