$GPSSETUP,8AE8,0,1,1,0,0,1,0,0,0,1,3,0,0,0,0,6,0,C8,C8,1F4,1C2,32,64,7C,64,7D0,5,1,1,1E,0,0,0,0,0,0,1003,4,10,5,6,10,10,10,10,10,10,10,10,10,BC10,0,80,0,108,302,604,0,20F,0,0,0,0,0,0,0,0,0,0,0,0,0,0,0,0,0,0,0,0,0,0,0,0,0,0,0,0,0,0,0,0,0,20,12C,1EC6*46
$GNRMC,173359.40,A,4816.48260,N,01139.86862,E,2.11,,080522,,,A,V*2E
$GNGNS,173359.40,4816.48260,N,01139.86862,E,AAAN,15,0.80,480.4,46.2,,,V*1C
$GNGSA,A,3,01,03,08,21,10,32,22,27,,,,,1.33,0.80,1.07,1*02
$GNGSA,A,3,81,66,88,82,,,,,,,,,1.62,0.91,1.33,2*0D
$GNGSA,A,3,15,34,03,,,,,,,,,,1.62,0.91,1.33,3*0F
$GNVTG,,T,,M,2.100,N,3.889,K,A*34
$SMGPS,0.1 m,+0.08 m/s,7.66 VRx,0.000 km,1 m,90.0 °,1:-- (  0.0 km/h),480.3 m*AB
$SMGPS2,-0.02 X,+0.10 Y,+0.96 Z,1 ENL,0 us,0.0 kmh,967.39 hPa,967.26 hPa,+0.07 m/s*0D
$GNRMC,173359.50,A,4816.48243,N,01139.86862,E,2.18,,080522,,,A,V*27
$GNGNS,173359.50,4816.48243,N,01139.86862,E,AAAN,15,0.80,480.4,46.2,,,V*1C
$GNGSA,A,3,01,03,08,21,10,32,22,27,,,,,1.33,0.80,1.07,1*02
$GNGSA,A,3,81,66,88,82,,,,,,,,,1.33,0.80,1.07,2*0E
$GNGSA,A,3,15,34,03,,,,,,,,,,1.33,0.80,1.07,3*0C
$GNVTG,,T,,M,2.177,N,4.032,K,A*3B
$SMGPS,0.1 m,+0.07 m/s,7.66 VRx,0.001 km,1 m,90.0 °,1:-- (  0.0 km/h),477.9 m*A7
$SMGPS2,-0.06 X,+0.06 Y,+1.12 Z,1 ENL,0 us,0.0 kmh,967.40 hPa,967.26 hPa,+0.06 m/s*0C
$GNRMC,173359.60,A,4816.48227,N,01139.86867,E,2.30,236.94,080522,,,A,V*3D
$GNGNS,173359.60,4816.48227,N,01139.86867,E,AAAN,16,0.78,480.3,46.2,,,V*1B
$GNGSA,A,3,01,03,08,21,10,32,22,27,,,,,1.32,0.78,1.06,1*05
$GNGSA,A,3,81,66,88,82,,,,,,,,,1.33,0.80,1.07,2*0E
$GNGSA,A,3,15,34,03,,,,,,,,,,1.33,0.80,1.07,3*0C
$GNVTG,236.94,T,,M,2.297,N,4.254,K,A*20
$SMGPS,0.0 m,+0.07 m/s,7.61 VRx,0.001 km,1 m,90.0 °,1:-- (  0.0 km/h),478.7 m*A0
$SMGPS2,+0.04 X,+0.17 Y,+0.99 Z,1 ENL,0 us,0.0 kmh,967.40 hPa,967.26 hPa,+0.07 m/s*0B
$GNRMC,173359.70,A,4816.48219,N,01139.86875,E,1.96,208.30,080522,,,A,V*3E
$GNGNS,173359.70,4816.48219,N,01139.86875,E,AAAN,16,0.78,480.4,46.2,,,V*13
$GNGSA,A,3,01,03,08,21,10,32,22,27,,,,,1.32,0.78,1.06,1*05
$GNGSA,A,3,81,66,88,82,,,,,,,,,1.32,0.78,1.06,2*09
$GNGSA,A,3,15,34,05,03,,,,,,,,,1.32,0.78,1.06,3*0E
$GNVTG,208.30,T,,M,1.958,N,3.626,K,A*2E
$SMGPS,0.1 m,+0.07 m/s,7.59 VRx,0.001 km,1 m,90.0 °,1:-- (  0.0 km/h),478.8 m*A5
$SMGPS2,-0.06 X,+0.22 Y,+0.94 Z,1 ENL,0 us,0.0 kmh,967.39 hPa,967.26 hPa,+0.06 m/s*0B
$GNRMC,173359.80,A,4816.48189,N,01139.86897,E,1.75,188.64,080522,,,A,V*30
$GNGNS,173359.80,4816.48189,N,01139.86897,E,AAAN,17,0.72,480.4,46.2,,,V*11
$GNGSA,A,3,01,03,08,21,10,32,22,27,,,,,1.18,0.72,0.93,1*0A
$GNGSA,A,3,81,66,88,82,,,,,,,,,1.32,0.78,1.06,2*09
$GNGSA,A,3,15,34,05,03,,,,,,,,,1.32,0.78,1.06,3*0E
$GNVTG,188.64,T,,M,1.742,N,3.226,K,A*25
$SMGPS,0.1 m,+0.07 m/s,7.59 VRx,0.001 km,1 m,90.0 °,1:-- (  0.0 km/h),478.4 m*A9
$SMGPS2,-0.14 X,+0.08 Y,+0.89 Z,2 ENL,0 us,0.0 kmh,967.39 hPa,967.26 hPa,+0.06 m/s*0F
$GNRMC,173359.90,A,4816.48185,N,01139.86932,E,1.84,180.30,080522,,,A,V*34
$GNGNS,173359.90,4816.48185,N,01139.86932,E,AAAN,17,0.72,480.4,46.2,,,V*12
$GNGSA,A,3,01,03,08,21,10,32,22,27,,,,,1.18,0.72,0.93,1*0A
$GNGSA,A,3,81,66,88,82,73,,,,,,,,1.18,0.72,0.93,2*02
$GNGSA,A,3,15,34,05,03,,,,,,,,,1.18,0.72,0.93,3*01
$GNVTG,180.30,T,,M,1.832,N,3.393,K,A*2B
$SMGPS,0.1 m,+0.06 m/s,7.59 VRx,0.002 km,1 m,125.3 °,1:-- (  0.0 km/h),478.3 m*90
$SMGPS2,-0.15 X,+0.04 Y,+0.88 Z,1 ENL,0 us,0.0 kmh,967.39 hPa,967.26 hPa,+0.05 m/s*03
$GNRMC,173400.00,A,4816.48171,N,01139.86919,E,1.64,182.44,080522,,,A,V*3B
$GNGNS,173400.00,4816.48171,N,01139.86919,E,AAAN,17,0.72,480.3,46.2,,,V*15
$GNGSA,A,3,01,03,08,21,10,32,22,27,,,,,1.18,0.72,0.93,1*0A
$GNGSA,A,3,81,66,88,82,73,,,,,,,,1.18,0.72,0.93,2*02
$GNGSA,A,3,15,34,05,03,,,,,,,,,1.18,0.72,0.93,3*01
$GNVTG,182.44,T,,M,1.634,N,3.025,K,A*2C
$SMGPS,0.0 m,+0.06 m/s,7.63 VRx,0.002 km,2 m,119.8 °,1:-- (  0.0 km/h),478.1 m*9D
$SMGPS2,-0.06 X,-0.02 Y,+0.93 Z,2 ENL,0 us,0.0 kmh,967.39 hPa,967.26 hPa,+0.05 m/s*08
$GNRMC,173400.10,A,4816.48166,N,01139.86889,E,1.82,184.73,080522,,,A,V*3E
$GNGNS,173400.10,4816.48166,N,01139.86889,E,AAAN,17,0.72,480.3,46.2,,,V*1A
$GNGSA,A,3,01,03,08,21,10,32,22,27,,,,,1.18,0.72,0.93,1*0A
$GNGSA,A,3,81,66,88,82,73,,,,,,,,1.18,0.72,0.93,2*02
$GNGSA,A,3,15,34,05,03,,,,,,,,,1.18,0.72,0.93,3*01
$GNVTG,184.73,T,,M,1.817,N,3.364,K,A*27
$SMGPS,0.0 m,+0.06 m/s,7.57 VRx,0.002 km,2 m,122.3 °,1:-- (  0.0 km/h),477.6 m*91
$SMGPS2,-0.11 X,-0.02 Y,+1.01 Z,2 ENL,0 us,0.0 kmh,967.39 hPa,967.26 hPa,+0.05 m/s*04
$GNRMC,173400.20,A,4816.48171,N,01139.86877,E,1.59,182.42,080522,,,A,V*38
$GNGNS,173400.20,4816.48171,N,01139.86877,E,AAAN,17,0.72,480.3,46.2,,,V*1E
$GNGSA,A,3,01,03,08,21,10,32,22,27,,,,,1.18,0.72,0.93,1*0A
$GNGSA,A,3,81,66,88,82,73,,,,,,,,1.18,0.72,0.93,2*02
$GNGSA,A,3,15,34,05,03,,,,,,,,,1.18,0.72,0.93,3*01
$GNVTG,182.42,T,,M,1.581,N,2.928,K,A*22
$SMGPS,0.0 m,+0.06 m/s,7.61 VRx,0.003 km,2 m,149.8 °,1:-- (  0.0 km/h),477.4 m*91
$SMGPS2,-0.20 X,+0.14 Y,+1.08 Z,1 ENL,0 us,0.0 kmh,967.39 hPa,967.26 hPa,+0.04 m/s*0C
$GNRMC,173400.30,A,4816.48166,N,01139.86866,E,1.75,188.27,080522,,,A,V*38
$GNGNS,173400.30,4816.48166,N,01139.86866,E,AAAN,17,0.72,480.3,46.2,,,V*19
$GNGSA,A,3,01,03,08,21,10,32,22,27,,,,,1.18,0.72,0.93,1*0A
$GNGSA,A,3,81,66,88,82,73,,,,,,,,1.18,0.72,0.93,2*02
$GNGSA,A,3,15,34,05,03,,,,,,,,,1.18,0.72,0.93,3*01
$GNVTG,188.27,T,,M,1.748,N,3.237,K,A*28
$SMGPS,0.0 m,+0.06 m/s,7.57 VRx,0.004 km,1 m,135.0 °,1:-- (  0.0 km/h),477.2 m*95
$SMGPS2,-0.11 X,+0.12 Y,+0.94 Z,1 ENL,0 us,0.0 kmh,967.39 hPa,967.26 hPa,+0.05 m/s*0D
$GNRMC,173400.40,A,4816.48165,N,01139.86853,E,1.21,,080522,,,A,V*21
$GNGNS,173400.40,4816.48165,N,01139.86853,E,AAAN,19,0.67,480.4,46.2,,,V*16
$GNGSA,A,3,01,03,08,21,10,32,22,17,27,,,,1.10,0.67,0.87,1*05
$GNGSA,A,3,81,66,88,82,73,,,,,,,,1.18,0.72,0.93,2*02
$GNGSA,A,3,15,34,05,03,,,,,,,,,1.18,0.72,0.93,3*01
$GNVTG,,T,,M,1.200,N,2.222,K,A*3E
$SMGPS,0.1 m,+0.06 m/s,7.61 VRx,0.005 km,2 m,157.4 °,1:-- (  0.0 km/h),476.9 m*99
$SMGPS2,-0.10 X,+0.07 Y,+0.93 Z,1 ENL,0 us,0.0 kmh,967.38 hPa,967.26 hPa,+0.04 m/s*0F
$GNRMC,173400.50,A,4816.48168,N,01139.86852,E,1.04,,080522,,,A,V*2B
$GNGNS,173400.50,4816.48168,N,01139.86852,E,AAAN,19,0.67,480.3,46.2,,,V*1C
$GNGSA,A,3,01,03,08,21,10,32,22,17,27,,,,1.10,0.67,0.87,1*05
$GNGSA,A,3,81,66,65,88,82,73,,,,,,,1.10,0.67,0.87,2*08
$GNGSA,A,3,15,34,05,03,,,,,,,,,1.10,0.67,0.87,3*08
$GNVTG,,T,,M,1.030,N,1.908,K,A*3F
$SMGPS,0.0 m,+0.06 m/s,7.59 VRx,0.005 km,2 m,161.6 °,1:-- (  0.0 km/h),476.5 m*98
$SMGPS2,-0.10 X,+0.04 Y,+0.87 Z,1 ENL,0 us,0.0 kmh,967.39 hPa,967.26 hPa,+0.04 m/s*08
$GNRMC,173400.60,A,4816.48164,N,01139.86848,E,1.40,191.58,080522,,,A,V*35
$GNGNS,173400.60,4816.48164,N,01139.86848,E,AAAN,19,0.67,480.3,46.2,,,V*18
$GNGSA,A,3,01,03,08,21,10,32,22,17,27,,,,1.10,0.67,0.87,1*05
$GNGSA,A,3,81,66,65,88,82,73,,,,,,,1.10,0.67,0.87,2*08
$GNGSA,A,3,15,34,05,03,,,,,,,,,1.10,0.67,0.87,3*08
$GNVTG,191.58,T,,M,1.393,N,2.581,K,A*21
$SMGPS,0.0 m,+0.06 m/s,7.60 VRx,0.005 km,2 m,161.6 °,1:-- (  0.0 km/h),476.4 m*93
$SMGPS2,-0.12 X,+0.03 Y,+1.01 Z,1 ENL,0 us,0.0 kmh,967.39 hPa,967.25 hPa,+0.04 m/s*01
$GNRMC,173400.70,A,4816.48168,N,01139.86845,E,1.43,200.22,080522,,,A,V*30
$GNGNS,173400.70,4816.48168,N,01139.86845,E,AAAN,19,0.67,480.3,46.2,,,V*18
$GNGSA,A,3,01,03,08,21,10,32,22,17,27,,,,1.10,0.67,0.87,1*05
$GNGSA,A,3,81,66,65,88,82,73,,,,,,,1.10,0.67,0.87,2*08
$GNGSA,A,3,15,34,05,03,,,,,,,,,1.10,0.67,0.87,3*08
$GNVTG,200.22,T,,M,1.429,N,2.646,K,A*29
$SMGPS,0.0 m,+0.05 m/s,7.59 VRx,0.005 km,2 m,161.6 °,1:-- (  0.0 km/h),476.3 m*9D
$SMGPS2,-0.10 X,-0.02 Y,+0.99 Z,1 ENL,0 us,0.0 kmh,967.38 hPa,967.25 hPa,+0.04 m/s*05
$GNRMC,173400.80,A,4816.48167,N,01139.86840,E,0.98,,080522,,,A,V*2E
$GNGNS,173400.80,4816.48167,N,01139.86840,E,AAAN,20,0.65,480.3,46.2,,,V*15
$GNGSA,A,3,01,03,08,21,10,32,22,17,27,,,,1.07,0.65,0.85,1*03
$GNGSA,A,3,81,66,65,88,82,73,,,,,,,1.10,0.67,0.87,2*08
$GNGSA,A,3,15,34,05,03,,,,,,,,,1.10,0.67,0.87,3*08
$GNVTG,,T,,M,0.970,N,1.797,K,A*3B
$SMGPS,0.0 m,+0.06 m/s,7.60 VRx,0.005 km,2 m,166.0 °,1:-- (  0.0 km/h),476.4 m*92
$SMGPS2,-0.04 X,-0.05 Y,+0.99 Z,1 ENL,0 us,0.0 kmh,967.38 hPa,967.25 hPa,+0.05 m/s*06
$GNRMC,173400.90,A,4816.48165,N,01139.86840,E,1.22,212.96,080522,,,A,V*3D
$GNGNS,173400.90,4816.48165,N,01139.86840,E,AAAN,20,0.65,480.3,46.2,,,V*16
$GNGSA,A,3,01,03,08,21,10,32,22,17,27,,,,1.07,0.65,0.85,1*03
$GNGSA,A,3,81,66,65,88,82,73,,,,,,,1.07,0.65,0.85,2*0E
$GNGSA,A,3,15,34,05,03,21,,,,,,,,1.07,0.65,0.85,3*0D
$GNVTG,212.96,T,,M,1.213,N,2.246,K,A*2E
$SMGPS,0.0 m,+0.06 m/s,7.58 VRx,0.005 km,2 m,166.0 °,1:-- (  0.0 km/h),476.3 m*9E
$SMGPS2,-0.01 X,-0.03 Y,+0.96 Z,2 ENL,0 us,0.0 kmh,967.38 hPa,967.25 hPa,+0.05 m/s*09
$GNRMC,173401.00,A,4816.48157,N,01139.86838,E,1.23,217.55,080522,,,A,V*30
$GNGNS,173401.00,4816.48157,N,01139.86838,E,AAAN,19,0.67,480.3,46.2,,,V*18
$GNGSA,A,3,01,03,08,21,10,32,22,17,27,,,,1.08,0.67,0.85,1*0E
$GNGSA,A,3,81,66,65,88,82,73,,,,,,,1.07,0.65,0.85,2*0E
$GNGSA,A,3,15,34,05,03,21,,,,,,,,1.07,0.65,0.85,3*0D
$GNVTG,217.55,T,,M,1.226,N,2.271,K,A*26
$SMGPS,0.0 m,+0.06 m/s,7.60 VRx,0.005 km,2 m,166.0 °,1:-- (  0.0 km/h),476.2 m*94
$SMGPS2,-0.01 X,-0.03 Y,+0.92 Z,1 ENL,0 us,0.0 kmh,967.38 hPa,967.25 hPa,+0.05 m/s*0E
$GNRMC,173401.10,A,4816.48154,N,01139.86833,E,0.45,,080522,,,A,V*22
$GNGNS,173401.10,4816.48154,N,01139.86833,E,AAAN,20,0.65,480.3,46.2,,,V*19
$GNGSA,A,3,01,03,08,21,10,32,22,17,27,,,,1.07,0.65,0.85,1*03
$GNGSA,A,3,81,66,65,88,73,,,,,,,,1.08,0.67,0.85,2*09
$GNGSA,A,3,15,34,05,03,21,,,,,,,,1.08,0.67,0.85,3*00
$GNVTG,,T,,M,0.434,N,0.804,K,A*32
$SMGPS,0.0 m,+0.06 m/s,7.58 VRx,0.005 km,2 m,166.0 °,1:-- (  0.0 km/h),476.1 m*9C
$SMGPS2,-0.04 X,-0.05 Y,+0.99 Z,1 ENL,0 us,0.0 kmh,967.39 hPa,967.26 hPa,+0.05 m/s*04
$GNRMC,173401.20,A,4816.48149,N,01139.86815,E,0.60,,080522,,,A,V*2E
$GNGNS,173401.20,4816.48149,N,01139.86815,E,AAAN,20,0.65,480.3,46.2,,,V*12
$GNGSA,A,3,01,03,08,21,10,32,22,17,27,,,,1.07,0.65,0.85,1*03
$GNGSA,A,3,81,66,65,88,82,73,,,,,,,1.07,0.65,0.85,2*0E
$GNGSA,A,3,15,34,05,03,21,,,,,,,,1.07,0.65,0.85,3*0D
$GNVTG,,T,,M,0.594,N,1.100,K,A*35
$SMGPS,0.0 m,+0.06 m/s,7.60 VRx,0.005 km,2 m,170.6 °,1:-- (  0.0 km/h),475.8 m*9C
$SMGPS2,-0.04 X,-0.04 Y,+0.97 Z,1 ENL,0 us,0.0 kmh,967.38 hPa,967.25 hPa,+0.05 m/s*09
$GNRMC,173401.30,A,4816.48140,N,01139.86804,E,0.38,,080522,,,A,V*2B
$GNGNS,173401.30,4816.48140,N,01139.86804,E,AAAN,20,0.65,480.3,46.2,,,V*1A
$GNGSA,A,3,01,03,08,21,10,32,22,17,27,,,,1.07,0.65,0.85,1*03
$GNGSA,A,3,81,66,65,88,82,73,,,,,,,1.07,0.65,0.85,2*0E
$GNGSA,A,3,15,34,05,03,21,,,,,,,,1.07,0.65,0.85,3*0D
$GNVTG,,T,,M,0.360,N,0.667,K,A*3F
$SMGPS,-0.0 m,+0.06 m/s,7.57 VRx,0.005 km,2 m,175.2 °,1:-- (  0.0 km/h),475.5 m*B9
$SMGPS2,-0.05 X,-0.09 Y,+0.96 Z,1 ENL,0 us,0.0 kmh,967.39 hPa,967.26 hPa,+0.04 m/s*07
$GNRMC,173401.40,A,4816.48123,N,01139.86807,E,0.45,,080522,,,A,V*20
$GNGNS,173401.40,4816.48123,N,01139.86807,E,AAAN,20,0.65,480.3,46.2,,,V*1B
$GNGSA,A,3,01,03,08,21,10,32,22,17,27,,,,1.07,0.65,0.85,1*03
$GNGSA,A,3,81,66,65,88,82,73,,,,,,,1.07,0.65,0.85,2*0E
$GNGSA,A,3,15,34,05,03,21,,,,,,,,1.07,0.65,0.85,3*0D
$GNVTG,,T,,M,0.440,N,0.815,K,A*31
$SMGPS,-0.0 m,+0.05 m/s,7.61 VRx,0.005 km,2 m,180.0 °,1:-- (  0.0 km/h),475.5 m*B7
$SMGPS2,-0.07 X,-0.03 Y,+0.97 Z,1 ENL,0 us,0.0 kmh,967.39 hPa,967.26 hPa,+0.04 m/s*0E
$GNRMC,173401.50,A,4816.48108,N,01139.86813,E,0.33,,080522,,,A,V*2C
$GNGNS,173401.50,4816.48108,N,01139.86813,E,AAAN,20,0.65,480.3,46.2,,,V*16
$GNGSA,A,3,01,03,08,21,10,32,22,17,27,,,,1.07,0.65,0.85,1*03
$GNGSA,A,3,81,66,65,88,82,73,,,,,,,1.07,0.65,0.85,2*0E
$GNGSA,A,3,15,34,05,03,21,,,,,,,,1.07,0.65,0.85,3*0D
$GNVTG,,T,,M,0.321,N,0.594,K,A*35
$SMGPS,-0.0 m,+0.04 m/s,7.56 VRx,0.005 km,2 m,180.0 °,1:-- (  0.0 km/h),475.7 m*B0
$SMGPS2,-0.07 X,-0.08 Y,+0.98 Z,2 ENL,0 us,0.0 kmh,967.39 hPa,967.25 hPa,+0.04 m/s*0A
$GNRMC,173401.60,A,4816.48095,N,01139.86809,E,0.25,,080522,,,A,V*26
$GNGNS,173401.60,4816.48095,N,01139.86809,E,AAAN,20,0.65,480.3,46.2,,,V*1B
$GNGSA,A,3,01,03,08,21,10,32,22,17,27,,,,1.07,0.65,0.85,1*03
$GNGSA,A,3,81,66,65,88,82,73,,,,,,,1.07,0.65,0.85,2*0E
$GNGSA,A,3,15,34,05,03,21,,,,,,,,1.07,0.65,0.85,3*0D
$GNVTG,,T,,M,0.245,N,0.454,K,A*3B
$SMGPS,-0.0 m,+0.03 m/s,7.60 VRx,0.005 km,3 m,177.3 °,1:-- (  0.0 km/h),475.8 m*B7
$SMGPS2,-0.06 X,-0.09 Y,+0.96 Z,1 ENL,0 us,0.0 kmh,967.39 hPa,967.25 hPa,+0.03 m/s*00
$GNRMC,173401.70,A,4816.48089,N,01139.86796,E,0.26,,080522,,,A,V*20
$GNGNS,173401.70,4816.48089,N,01139.86796,E,AAAN,22,0.59,480.3,46.2,,,V*13
$GNGSA,A,3,01,03,08,21,10,32,22,17,27,,,,0.98,0.59,0.78,1*09
$GNGSA,A,3,81,66,65,88,82,73,,,,,,,1.07,0.65,0.85,2*0E
$GNGSA,A,3,15,34,05,03,21,,,,,,,,1.07,0.65,0.85,3*0D
$GNVTG,,T,,M,0.255,N,0.471,K,A*3D
$SMGPS,-0.0 m,+0.02 m/s,7.58 VRx,0.005 km,3 m,180.0 °,1:-- (  0.0 km/h),475.5 m*BB
$SMGPS2,-0.07 X,-0.09 Y,+0.98 Z,1 ENL,0 us,0.0 kmh,967.39 hPa,967.25 hPa,+0.03 m/s*0F
$GNRMC,173401.80,A,4816.48087,N,01139.86788,E,0.07,,080522,,,A,V*2D
$GNGNS,173401.80,4816.48087,N,01139.86788,E,AAAN,22,0.59,480.3,46.2,,,V*1D
$GNGSA,A,3,01,03,08,21,10,32,22,17,27,,,,0.98,0.59,0.78,1*09
$GNGSA,A,3,81,66,65,88,82,73,,,,,,,0.98,0.59,0.78,2*04
$GNGSA,A,3,15,34,05,03,21,27,09,,,,,,0.98,0.59,0.78,3*0B
$GNVTG,,T,,M,0.066,N,0.123,K,A*3D
$SMGPS,0.0 m,+0.01 m/s,7.60 VRx,0.005 km,3 m,184.1 °,1:-- (  0.0 km/h),475.3 m*9D
$SMGPS2,-0.08 X,-0.09 Y,+0.97 Z,1 ENL,0 us,0.0 kmh,967.39 hPa,967.25 hPa,+0.03 m/s*0F
$GNRMC,173401.90,A,4816.48086,N,01139.86775,E,0.12,,080522,,,A,V*2B
$GNGNS,173401.90,4816.48086,N,01139.86775,E,AAAN,23,0.58,480.3,46.2,,,V*1F
$GNGSA,A,3,01,03,08,21,10,32,22,14,17,27,,,0.97,0.58,0.78,1*02
$GNGSA,A,3,81,66,65,88,82,73,,,,,,,0.98,0.59,0.78,2*04
$GNGSA,A,3,15,34,05,03,21,27,09,,,,,,0.98,0.59,0.78,3*0B
$GNVTG,,T,,M,0.119,N,0.220,K,A*34
$SMGPS,0.0 m,+0.01 m/s,7.58 VRx,0.005 km,3 m,184.1 °,1:-- (  0.0 km/h),475.2 m*97
$SMGPS2,-0.08 X,-0.09 Y,+0.96 Z,1 ENL,0 us,0.0 kmh,967.39 hPa,967.26 hPa,+0.02 m/s*0C
$GNRMC,173402.00,A,4816.48084,N,01139.86775,E,0.18,,080522,,,A,V*29
$GNGNS,173402.00,4816.48084,N,01139.86775,E,AAAN,23,0.58,480.3,46.2,,,V*17
$GNGSA,A,3,01,03,08,21,10,32,22,14,17,27,,,0.97,0.58,0.78,1*02
$GNGSA,A,3,81,66,65,88,82,73,,,,,,,0.97,0.58,0.78,2*0A
$GNGSA,A,3,15,34,05,03,21,27,09,,,,,,0.97,0.58,0.78,3*05
$GNVTG,,T,,M,0.183,N,0.338,K,A*3F
$SMGPS,-0.0 m,+0.01 m/s,7.59 VRx,0.005 km,3 m,186.8 °,1:-- (  0.0 km/h),475.0 m*B2
$SMGPS2,-0.08 X,-0.08 Y,+0.97 Z,1 ENL,0 us,0.0 kmh,967.39 hPa,967.26 hPa,+0.02 m/s*0C
$GNRMC,173402.10,A,4816.48085,N,01139.86778,E,0.07,,080522,,,A,V*2A
$GNGNS,173402.10,4816.48085,N,01139.86778,E,AAAN,23,0.58,480.3,46.2,,,V*1A
$GNGSA,A,3,01,03,08,21,10,32,22,14,17,27,,,0.97,0.58,0.78,1*02
$GNGSA,A,3,81,66,65,88,82,73,,,,,,,0.97,0.58,0.78,2*0A
$GNGSA,A,3,15,34,05,03,21,27,09,,,,,,0.97,0.58,0.78,3*05
$GNVTG,,T,,M,0.071,N,0.131,K,A*38
$SMGPS,0.0 m,+0.01 m/s,7.59 VRx,0.005 km,3 m,186.8 °,1:-- (  0.0 km/h),474.9 m*97
$SMGPS2,-0.06 X,-0.08 Y,+0.97 Z,1 ENL,0 us,0.0 kmh,967.38 hPa,967.25 hPa,+0.02 m/s*00
$GNRMC,173402.20,A,4816.48085,N,01139.86780,E,0.22,,080522,,,A,V*29
$GNGNS,173402.20,4816.48085,N,01139.86780,E,AAAN,23,0.58,480.3,46.2,,,V*1E
$GNGSA,A,3,01,03,08,21,10,32,22,14,17,27,,,0.97,0.58,0.78,1*02
$GNGSA,A,3,81,66,65,88,82,73,,,,,,,0.97,0.58,0.78,2*0A
$GNGSA,A,3,15,34,05,03,21,27,09,,,,,,0.97,0.58,0.78,3*05
$GNVTG,,T,,M,0.215,N,0.399,K,A*38
$SMGPS,-0.0 m,+0.01 m/s,7.60 VRx,0.005 km,3 m,186.8 °,1:-- (  0.0 km/h),474.6 m*BF
$SMGPS2,-0.08 X,-0.09 Y,+0.97 Z,1 ENL,0 us,0.0 kmh,967.39 hPa,967.25 hPa,+0.02 m/s*0E
$GNRMC,173402.30,A,4816.48083,N,01139.86782,E,0.09,,080522,,,A,V*25
$GNGNS,173402.30,4816.48083,N,01139.86782,E,AAAN,23,0.58,480.3,46.2,,,V*1B
$GNGSA,A,3,01,03,08,21,10,32,22,14,17,27,,,0.97,0.58,0.78,1*02
$GNGSA,A,3,81,66,65,88,82,73,,,,,,,0.97,0.58,0.78,2*0A
$GNGSA,A,3,15,34,05,03,21,27,09,,,,,,0.97,0.58,0.78,3*05
$GNVTG,,T,,M,0.092,N,0.171,K,A*31
$SMGPS,0.0 m,+0.01 m/s,7.57 VRx,0.005 km,3 m,186.8 °,1:-- (  0.0 km/h),474.3 m*93
$SMGPS2,-0.06 X,-0.09 Y,+0.97 Z,2 ENL,0 us,0.0 kmh,967.39 hPa,967.25 hPa,+0.02 m/s*03
$GNRMC,173402.40,A,4816.48076,N,01139.86778,E,0.07,,080522,,,A,V*23
$GNGNS,173402.40,4816.48076,N,01139.86778,E,AAAN,23,0.58,480.3,46.2,,,V*13
$GNGSA,A,3,01,03,08,21,10,32,22,14,17,27,,,0.97,0.58,0.78,1*02
$GNGSA,A,3,81,66,65,88,82,73,,,,,,,0.97,0.58,0.78,2*0A
$GNGSA,A,3,15,34,05,03,21,27,09,,,,,,0.97,0.58,0.78,3*05
$GNVTG,,T,,M,0.068,N,0.126,K,A*36
$SMGPS,-0.0 m,+0.01 m/s,7.62 VRx,0.005 km,3 m,186.8 °,1:-- (  0.0 km/h),474.1 m*BA
$SMGPS2,-0.06 X,-0.10 Y,+0.96 Z,1 ENL,0 us,0.0 kmh,967.39 hPa,967.25 hPa,+0.02 m/s*09
$GNRMC,173402.50,A,4816.48072,N,01139.86780,E,0.05,,080522,,,A,V*23
$GNGNS,173402.50,4816.48072,N,01139.86780,E,AAAN,23,0.58,480.3,46.2,,,V*11
$GNGSA,A,3,01,03,08,21,10,32,22,14,17,27,,,0.97,0.58,0.78,1*02
$GNGSA,A,3,81,66,65,88,82,73,,,,,,,0.97,0.58,0.78,2*0A
$GNGSA,A,3,15,34,05,03,21,27,09,,,,,,0.97,0.58,0.78,3*05
$GNVTG,,T,,M,0.045,N,0.083,K,A*37
$SMGPS,0.0 m,+0.01 m/s,7.59 VRx,0.005 km,3 m,186.8 °,1:-- (  0.0 km/h),474.0 m*9E
$SMGPS2,-0.07 X,-0.09 Y,+0.97 Z,1 ENL,0 us,0.0 kmh,967.39 hPa,967.25 hPa,+0.02 m/s*01
$GNRMC,173402.60,A,4816.48070,N,01139.86778,E,0.21,,080522,,,A,V*23
$GNGNS,173402.60,4816.48070,N,01139.86778,E,AAAN,23,0.58,480.3,46.2,,,V*17
$GNGSA,A,3,01,03,08,21,10,32,22,14,17,27,,,0.97,0.58,0.78,1*02
$GNGSA,A,3,81,66,65,88,82,73,,,,,,,0.97,0.58,0.78,2*0A
$GNGSA,A,3,15,34,05,03,21,27,09,,,,,,0.97,0.58,0.78,3*05
$GNVTG,,T,,M,0.209,N,0.387,K,A*3A
$SMGPS,0.0 m,+0.01 m/s,7.63 VRx,0.005 km,3 m,186.8 °,1:-- (  0.0 km/h),473.9 m*99
$SMGPS2,-0.07 X,-0.10 Y,+0.97 Z,1 ENL,0 us,0.0 kmh,967.39 hPa,967.25 hPa,+0.02 m/s*09
$GNRMC,173402.70,A,4816.48069,N,01139.86773,E,0.05,,080522,,,A,V*27
$GNGNS,173402.70,4816.48069,N,01139.86773,E,AAAN,23,0.58,480.3,46.2,,,V*15
$GNGSA,A,3,01,03,08,21,10,32,22,14,17,27,,,0.97,0.58,0.78,1*02
$GNGSA,A,3,81,66,65,88,82,73,,,,,,,0.97,0.58,0.78,2*0A
$GNGSA,A,3,15,34,05,03,21,27,09,,,,,,0.97,0.58,0.78,3*05
$GNVTG,,T,,M,0.050,N,0.092,K,A*33
$SMGPS,-0.0 m,+0.00 m/s,7.59 VRx,0.005 km,4 m,185.3 °,1:-- (  0.0 km/h),473.8 m*B2
$SMGPS2,-0.06 X,-0.11 Y,+0.95 Z,1 ENL,0 us,0.0 kmh,967.39 hPa,967.25 hPa,+0.02 m/s*0B
$GNRMC,173402.80,A,4816.48066,N,01139.86764,E,0.10,,080522,,,A,V*25
$GNGNS,173402.80,4816.48066,N,01139.86764,E,AAAN,23,0.58,480.3,46.2,,,V*13
$GNGSA,A,3,01,03,08,21,10,32,22,14,17,27,,,0.97,0.58,0.78,1*02
$GNGSA,A,3,81,66,65,88,82,73,,,,,,,0.97,0.58,0.78,2*0A
$GNGSA,A,3,15,34,05,03,21,27,09,,,,,,0.97,0.58,0.78,3*05
$GNVTG,,T,,M,0.096,N,0.177,K,A*33
$SMGPS,0.0 m,+0.00 m/s,7.63 VRx,0.005 km,4 m,187.4 °,1:-- (  0.0 km/h),473.6 m*9D
$SMGPS2,-0.07 X,-0.10 Y,+0.96 Z,1 ENL,0 us,0.0 kmh,967.39 hPa,967.25 hPa,+0.02 m/s*08
$GNRMC,173402.90,A,4816.48061,N,01139.86752,E,0.08,,080522,,,A,V*2F
$GNGNS,173402.90,4816.48061,N,01139.86752,E,AAAN,23,0.58,480.3,46.2,,,V*10
$GNGSA,A,3,01,03,08,21,10,32,22,14,17,27,,,0.97,0.58,0.78,1*02
$GNGSA,A,3,81,66,65,88,82,73,,,,,,,0.97,0.58,0.78,2*0A
$GNGSA,A,3,15,34,05,03,21,27,09,,,,,,0.97,0.58,0.78,3*05
$GNVTG,,T,,M,0.079,N,0.146,K,A*30
$SMGPS,-0.0 m,+0.00 m/s,7.60 VRx,0.005 km,4 m,187.4 °,1:-- (  0.0 km/h),473.5 m*B0
$SMGPS2,-0.07 X,-0.10 Y,+0.97 Z,1 ENL,0 us,0.0 kmh,967.39 hPa,967.25 hPa,+0.02 m/s*09
$GNRMC,173403.00,A,4816.48057,N,01139.86746,E,0.07,,080522,,,A,V*28
$GNGNS,173403.00,4816.48057,N,01139.86746,E,AAAN,23,0.58,480.3,46.2,,,V*18
$GNGSA,A,3,01,03,08,21,10,32,22,14,17,27,,,0.97,0.58,0.78,1*02
$GNGSA,A,3,81,66,65,88,82,73,,,,,,,0.97,0.58,0.78,2*0A
$GNGSA,A,3,15,34,05,03,21,27,09,,,,,,0.97,0.58,0.78,3*05
$GNVTG,,T,,M,0.072,N,0.134,K,A*3E
$SMGPS,-0.0 m,-0.00 m/s,7.62 VRx,0.005 km,4 m,189.4 °,1:-- (  0.0 km/h),473.5 m*BA
$SMGPS2,-0.06 X,-0.10 Y,+0.97 Z,2 ENL,0 us,0.0 kmh,967.39 hPa,967.25 hPa,+0.01 m/s*08
$GNRMC,173403.10,A,4816.48053,N,01139.86737,E,0.24,,080522,,,A,V*2A
$GNGNS,173403.10,4816.48053,N,01139.86737,E,AAAN,23,0.58,480.3,46.2,,,V*1B
$GNGSA,A,3,01,03,08,21,10,32,22,14,17,27,,,0.97,0.58,0.78,1*02
$GNGSA,A,3,81,66,65,88,82,73,,,,,,,0.97,0.58,0.78,2*0A
$GNGSA,A,3,15,34,05,03,21,27,09,,,,,,0.97,0.58,0.78,3*05
$GNVTG,,T,,M,0.241,N,0.447,K,A*3D
$SMGPS,0.0 m,-0.00 m/s,7.60 VRx,0.005 km,4 m,191.5 °,1:-- (  0.0 km/h),473.4 m*9C
$SMGPS2,-0.05 X,-0.07 Y,+0.97 Z,15 ENL,0 us,0.0 kmh,967.39 hPa,967.25 hPa,+0.01 m/s*3B
$GNRMC,173403.20,A,4816.48051,N,01139.86729,E,0.23,,080522,,,A,V*23
$GNGNS,173403.20,4816.48051,N,01139.86729,E,AAAN,23,0.58,480.3,46.2,,,V*15
$GNGSA,A,3,01,03,08,21,10,32,22,14,17,27,,,0.97,0.58,0.78,1*02
$GNGSA,A,3,81,66,65,88,82,73,,,,,,,0.97,0.58,0.78,2*0A
$GNGSA,A,3,15,34,05,03,21,27,09,,,,,,0.97,0.58,0.78,3*05
$GNVTG,,T,,M,0.229,N,0.425,K,A*37
$SMGPS,0.0 m,-0.00 m/s,7.61 VRx,0.005 km,4 m,193.5 °,1:-- (  0.0 km/h),473.3 m*98
$SMGPS2,-0.06 X,-0.09 Y,+0.97 Z,0 ENL,0 us,0.0 kmh,967.39 hPa,967.26 hPa,+0.00 m/s*00
$GNRMC,173403.30,A,4816.48051,N,01139.86721,E,0.09,,080522,,,A,V*22
$GNGNS,173403.30,4816.48051,N,01139.86721,E,AAAN,23,0.58,480.3,46.2,,,V*1C
$GNGSA,A,3,01,03,08,21,10,32,22,14,17,27,,,0.97,0.58,0.78,1*02
$GNGSA,A,3,81,66,65,88,82,73,,,,,,,0.97,0.58,0.78,2*0A
$GNGSA,A,3,15,34,05,03,21,27,09,,,,,,0.97,0.58,0.78,3*05
$GNVTG,,T,,M,0.089,N,0.165,K,A*3E
$SMGPS,-0.0 m,-0.00 m/s,7.60 VRx,0.005 km,4 m,193.5 °,1:-- (  0.0 km/h),473.3 m*B4
$SMGPS2,-0.08 X,-0.07 Y,+0.97 Z,1 ENL,0 us,0.0 kmh,967.39 hPa,967.25 hPa,+0.00 m/s*02
$GNRMC,173403.40,A,4816.48051,N,01139.86716,E,0.20,,080522,,,A,V*2A
$GNGNS,173403.40,4816.48051,N,01139.86716,E,AAAN,23,0.58,480.3,46.2,,,V*1F
$GNGSA,A,3,01,03,08,21,10,32,22,14,17,27,,,0.97,0.58,0.78,1*02
$GNGSA,A,3,81,66,65,88,82,73,,,,,,,0.97,0.58,0.78,2*0A
$GNGSA,A,3,15,34,05,03,21,27,09,,,,,,0.97,0.58,0.78,3*05
$GNVTG,,T,,M,0.198,N,0.367,K,A*3F
$SMGPS,0.0 m,-0.00 m/s,7.61 VRx,0.005 km,4 m,195.5 °,1:-- (  0.0 km/h),473.3 m*9E
$SMGPS2,-0.07 X,-0.08 Y,+0.97 Z,2 ENL,0 us,0.0 kmh,967.39 hPa,967.25 hPa,+0.01 m/s*00
$GNRMC,173403.50,A,4816.48051,N,01139.86710,E,0.06,,080522,,,A,V*29
$GNGNS,173403.50,4816.48051,N,01139.86710,E,AAAN,23,0.58,480.3,46.2,,,V*18
$GNGSA,A,3,01,03,08,21,10,32,22,14,17,27,,,0.97,0.58,0.78,1*02
$GNGSA,A,3,81,66,65,88,82,73,,,,,,,0.97,0.58,0.78,2*0A
$GNGSA,A,3,15,34,05,03,21,27,09,,,,,,0.97,0.58,0.78,3*05
$GNVTG,,T,,M,0.060,N,0.111,K,A*3A
$SMGPS,0.0 m,-0.00 m/s,7.59 VRx,0.005 km,4 m,195.5 °,1:-- (  0.0 km/h),473.2 m*94
$SMGPS2,-0.06 X,-0.09 Y,+0.97 Z,1 ENL,0 us,0.0 kmh,967.38 hPa,967.25 hPa,+0.01 m/s*02
$GNRMC,173403.60,A,4816.48049,N,01139.86703,E,0.12,,080522,,,A,V*24
$GNGNS,173403.60,4816.48049,N,01139.86703,E,AAAN,23,0.58,480.3,46.2,,,V*10
$GNGSA,A,3,01,03,08,21,10,32,22,14,17,27,,,0.97,0.58,0.78,1*02
$GNGSA,A,3,81,66,65,88,82,73,,,,,,,0.97,0.58,0.78,2*0A
$GNGSA,A,3,15,34,05,03,21,27,09,,,,,,0.97,0.58,0.78,3*05
$GNVTG,,T,,M,0.117,N,0.217,K,A*3E
$SMGPS,-0.0 m,-0.00 m/s,7.61 VRx,0.005 km,4 m,198.4 °,1:-- (  0.0 km/h),473.1 m*BD
$SMGPS2,-0.07 X,-0.07 Y,+0.97 Z,4 ENL,0 us,0.0 kmh,967.39 hPa,967.26 hPa,+0.00 m/s*0B
$GNRMC,173403.70,A,4816.48049,N,01139.86695,E,0.12,,080522,,,A,V*2B
$GNGNS,173403.70,4816.48049,N,01139.86695,E,AAAN,23,0.58,480.3,46.2,,,V*1F
$GNGSA,A,3,01,03,08,21,10,32,22,14,17,27,,,0.97,0.58,0.78,1*02
$GNGSA,A,3,81,66,65,88,82,73,,,,,,,0.97,0.58,0.78,2*0A
$GNGSA,A,3,15,34,05,03,21,27,09,,,,,,0.97,0.58,0.78,3*05
$GNVTG,,T,,M,0.115,N,0.212,K,A*39
$SMGPS,-0.0 m,-0.00 m/s,7.57 VRx,0.005 km,4 m,198.4 °,1:-- (  0.0 km/h),473.0 m*B9
$SMGPS2,-0.07 X,-0.09 Y,+0.96 Z,1 ENL,0 us,0.0 kmh,967.39 hPa,967.25 hPa,+0.00 m/s*02
$GNRMC,173403.80,A,4816.48049,N,01139.86688,E,0.12,,080522,,,A,V*28
$GNGNS,173403.80,4816.48049,N,01139.86688,E,AAAN,23,0.58,480.3,46.2,,,V*1C
$GNGSA,A,3,01,03,08,21,10,32,22,14,17,27,,,0.97,0.58,0.78,1*02
$GNGSA,A,3,81,66,65,88,82,73,,,,,,,0.97,0.58,0.78,2*0A
$GNGSA,A,3,15,34,05,03,21,27,09,,,,,,0.97,0.58,0.78,3*05
$GNVTG,,T,,M,0.117,N,0.217,K,A*3E
$SMGPS,0.0 m,-0.00 m/s,7.62 VRx,0.005 km,4 m,200.3 °,1:-- (  0.0 km/h),473.0 m*97
$SMGPS2,-0.08 X,-0.08 Y,+0.97 Z,3 ENL,0 us,0.0 kmh,967.39 hPa,967.26 hPa,-0.00 m/s*0A
$GNRMC,173403.90,A,4816.48048,N,01139.86681,E,0.19,,080522,,,A,V*2A
$GNGNS,173403.90,4816.48048,N,01139.86681,E,AAAN,23,0.58,480.3,46.2,,,V*15
$GNGSA,A,3,01,03,08,21,10,32,22,14,17,27,,,0.97,0.58,0.78,1*02
$GNGSA,A,3,81,66,65,88,82,73,,,,,,,0.97,0.58,0.78,2*0A
$GNGSA,A,3,15,34,05,03,21,27,09,,,,,,0.97,0.58,0.78,3*05
$GNVTG,,T,,M,0.192,N,0.356,K,A*37
$SMGPS,0.0 m,+0.00 m/s,7.59 VRx,0.005 km,4 m,202.1 °,1:-- (  0.0 km/h),473.0 m*99
$SMGPS2,-0.05 X,-0.07 Y,+0.97 Z,1 ENL,0 us,0.0 kmh,967.39 hPa,967.25 hPa,-0.00 m/s*09
$GNRMC,173404.00,A,4816.48048,N,01139.86679,E,0.10,,080522,,,A,V*2A
$GNGNS,173404.00,4816.48048,N,01139.86679,E,AAAN,23,0.58,480.3,46.2,,,V*1C
$GNGSA,A,3,01,03,08,21,10,32,22,14,17,27,,,0.97,0.58,0.78,1*02
$GNGSA,A,3,81,66,65,88,82,73,,,,,,,0.97,0.58,0.78,2*0A
$GNGSA,A,3,15,34,05,03,21,27,09,,,,,,0.97,0.58,0.78,3*05
$GNVTG,,T,,M,0.098,N,0.182,K,A*37
$SMGPS,-0.0 m,+0.00 m/s,7.63 VRx,0.005 km,4 m,202.1 °,1:-- (  0.0 km/h),472.9 m*B5
$SMGPS2,-0.05 X,-0.07 Y,+0.97 Z,1 ENL,0 us,0.0 kmh,967.39 hPa,967.26 hPa,-0.01 m/s*0B
$GNRMC,173404.10,A,4816.48048,N,01139.86678,E,0.12,,080522,,,A,V*28
$GNGNS,173404.10,4816.48048,N,01139.86678,E,AAAN,23,0.58,480.3,46.2,,,V*1C
$GNGSA,A,3,01,03,08,21,10,32,22,14,17,27,,,0.97,0.58,0.78,1*02
$GNGSA,A,3,81,66,65,88,82,73,,,,,,,0.97,0.58,0.78,2*0A
$GNGSA,A,3,15,34,05,03,21,27,09,,,,,,0.97,0.58,0.78,3*05
$GNVTG,,T,,M,0.123,N,0.228,K,A*35
$SMGPS,-0.0 m,-0.00 m/s,7.59 VRx,0.005 km,4 m,202.1 °,1:-- (  0.0 km/h),472.9 m*BA
$SMGPS2,-0.05 X,-0.07 Y,+0.97 Z,2 ENL,0 us,0.0 kmh,967.39 hPa,967.25 hPa,-0.01 m/s*0B
$GNRMC,173404.20,A,4816.48049,N,01139.86676,E,0.22,,080522,,,A,V*27
$GNGNS,173404.20,4816.48049,N,01139.86676,E,AAAN,23,0.58,480.3,46.2,,,V*10
$GNGSA,A,3,01,03,08,21,10,32,22,14,17,27,,,0.97,0.58,0.78,1*02
$GNGSA,A,3,81,66,65,88,82,73,,,,,,,0.97,0.58,0.78,2*0A
$GNGSA,A,3,15,34,05,03,21,27,09,,,,,,0.97,0.58,0.78,3*05
$GNVTG,,T,,M,0.217,N,0.401,K,A*3C
$SMGPS,-0.0 m,-0.00 m/s,7.62 VRx,0.005 km,4 m,202.1 °,1:-- (  0.0 km/h),472.9 m*B2
$SMGPS2,-0.04 X,-0.08 Y,+0.96 Z,2 ENL,0 us,0.0 kmh,967.39 hPa,967.26 hPa,-0.01 m/s*07
$GNRMC,173404.30,A,4816.48050,N,01139.86674,E,0.08,,080522,,,A,V*24
$GNGNS,173404.30,4816.48050,N,01139.86674,E,AAAN,23,0.58,480.3,46.2,,,V*1B
$GNGSA,A,3,01,03,08,21,10,32,22,14,17,27,,,0.97,0.58,0.78,1*02
$GNGSA,A,3,81,66,65,88,82,73,,,,,,,0.97,0.58,0.78,2*0A
$GNGSA,A,3,15,34,05,03,21,27,09,,,,,,0.97,0.58,0.78,3*05
$GNVTG,,T,,M,0.083,N,0.153,K,A*31
$SMGPS,-0.0 m,-0.00 m/s,7.58 VRx,0.005 km,4 m,203.9 °,1:-- (  0.0 km/h),472.8 m*B3
$SMGPS2,-0.05 X,-0.07 Y,+0.96 Z,2 ENL,0 us,0.0 kmh,967.39 hPa,967.26 hPa,-0.02 m/s*0A
$GNRMC,173404.40,A,4816.48051,N,01139.86674,E,0.14,,080522,,,A,V*2F
$GNGNS,173404.40,4816.48051,N,01139.86674,E,AAAN,23,0.58,480.3,46.2,,,V*1D
$GNGSA,A,3,01,03,08,21,10,32,22,14,17,27,,,0.97,0.58,0.78,1*02
$GNGSA,A,3,81,66,65,88,82,73,,,,,,,0.97,0.58,0.78,2*0A
$GNGSA,A,3,15,34,05,03,21,27,09,,,,,,0.97,0.58,0.78,3*05
$GNVTG,,T,,M,0.144,N,0.266,K,A*3E
$SMGPS,0.0 m,+0.00 m/s,7.62 VRx,0.005 km,4 m,203.9 °,1:-- (  0.0 km/h),472.8 m*91
$SMGPS2,-0.05 X,-0.05 Y,+0.97 Z,3 ENL,0 us,0.0 kmh,967.39 hPa,967.26 hPa,-0.02 m/s*08
$GNRMC,173404.50,A,4816.48052,N,01139.86676,E,0.10,,080522,,,A,V*2B
$GNGNS,173404.50,4816.48052,N,01139.86676,E,AAAN,23,0.58,480.3,46.2,,,V*1D
$GNGSA,A,3,01,03,08,21,10,32,22,14,17,27,,,0.97,0.58,0.78,1*02
$GNGSA,A,3,81,66,65,88,82,73,,,,,,,0.97,0.58,0.78,2*0A
$GNGSA,A,3,15,34,05,03,21,27,09,,,,,,0.97,0.58,0.78,3*05
$GNVTG,,T,,M,0.096,N,0.177,K,A*33
$SMGPS,-0.0 m,+0.00 m/s,7.61 VRx,0.005 km,4 m,203.9 °,1:-- (  0.0 km/h),472.8 m*BF
$SMGPS2,-0.04 X,-0.04 Y,+0.97 Z,1 ENL,0 us,0.0 kmh,967.39 hPa,967.26 hPa,-0.01 m/s*09
$GNRMC,173404.60,A,4816.48052,N,01139.86678,E,0.06,,080522,,,A,V*21
$GNGNS,173404.60,4816.48052,N,01139.86678,E,AAAN,23,0.58,480.3,46.2,,,V*10
$GNGSA,A,3,01,03,08,21,10,32,22,14,17,27,,,0.97,0.58,0.78,1*02
$GNGSA,A,3,81,66,65,88,82,73,,,,,,,0.97,0.58,0.78,2*0A
$GNGSA,A,3,15,34,05,03,21,27,09,,,,,,0.97,0.58,0.78,3*05
$GNVTG,,T,,M,0.062,N,0.114,K,A*3D
$SMGPS,-0.0 m,-0.00 m/s,7.62 VRx,0.005 km,4 m,203.9 °,1:-- (  0.0 km/h),472.7 m*B5
$SMGPS2,-0.05 X,-0.04 Y,+0.98 Z,1 ENL,0 us,0.0 kmh,967.39 hPa,967.26 hPa,-0.02 m/s*04
$GNRMC,173404.70,A,4816.48052,N,01139.86679,E,0.03,,080522,,,A,V*24
$GNGNS,173404.70,4816.48052,N,01139.86679,E,AAAN,23,0.58,480.3,46.2,,,V*10
$GNGSA,A,3,01,03,08,21,10,32,22,14,17,27,,,0.97,0.58,0.78,1*02
$GNGSA,A,3,81,66,65,88,82,73,,,,,,,0.97,0.58,0.78,2*0A
$GNGSA,A,3,15,34,05,03,21,27,09,,,,,,0.97,0.58,0.78,3*05
$GNVTG,,T,,M,0.034,N,0.063,K,A*3F
$SMGPS,0.0 m,-0.00 m/s,7.60 VRx,0.005 km,4 m,202.1 °,1:-- (  0.0 km/h),472.7 m*93
$SMGPS2,-0.03 X,-0.05 Y,+0.97 Z,3 ENL,0 us,0.0 kmh,967.38 hPa,967.26 hPa,-0.01 m/s*0C
$GNRMC,173404.80,A,4816.48054,N,01139.86682,E,0.24,,080522,,,A,V*2C
$GNGNS,173404.80,4816.48054,N,01139.86682,E,AAAN,23,0.58,480.3,46.2,,,V*1D
$GNGSA,A,3,01,03,08,21,10,32,22,14,17,27,,,0.97,0.58,0.78,1*02
$GNGSA,A,3,81,66,65,88,82,73,,,,,,,0.97,0.58,0.78,2*0A
$GNGSA,A,3,15,34,05,03,21,27,09,,,,,,0.97,0.58,0.78,3*05
$GNVTG,,T,,M,0.243,N,0.450,K,A*39
$SMGPS,-0.0 m,+0.00 m/s,7.62 VRx,0.005 km,4 m,202.1 °,1:-- (  0.0 km/h),472.6 m*BB
$SMGPS2,-0.04 X,-0.03 Y,+0.99 Z,1 ENL,0 us,0.0 kmh,967.39 hPa,967.26 hPa,-0.01 m/s*00
$GNRMC,173404.90,A,4816.48054,N,01139.86682,E,0.19,,080522,,,A,V*23
$GNGNS,173404.90,4816.48054,N,01139.86682,E,AAAN,23,0.58,480.3,46.2,,,V*1C
$GNGSA,A,3,01,03,08,21,10,32,22,14,17,27,,,0.97,0.58,0.78,1*02
$GNGSA,A,3,81,66,65,88,82,73,,,,,,,0.97,0.58,0.78,2*0A
$GNGSA,A,3,15,34,05,03,21,27,09,,,,,,0.97,0.58,0.78,3*05
$GNVTG,,T,,M,0.186,N,0.344,K,A*31
$SMGPS,-0.0 m,+0.00 m/s,7.60 VRx,0.005 km,4 m,202.1 °,1:-- (  0.0 km/h),472.7 m*B8
$SMGPS2,-0.07 X,-0.02 Y,+0.96 Z,1 ENL,0 us,0.0 kmh,967.39 hPa,967.26 hPa,-0.01 m/s*0D
$GNRMC,173405.00,A,4816.48053,N,01139.86682,E,0.17,,080522,,,A,V*22
$GNGNS,173405.00,4816.48053,N,01139.86682,E,AAAN,23,0.58,480.3,46.2,,,V*13
$GNGSA,A,3,01,03,08,21,10,32,22,14,17,27,,,0.97,0.58,0.78,1*02
$GNGSA,A,3,81,66,65,88,82,73,,,,,,,0.97,0.58,0.78,2*0A
$GNGSA,A,3,15,34,05,03,21,27,09,,,,,,0.97,0.58,0.78,3*05
$GNVTG,,T,,M,0.166,N,0.308,K,A*37
$SMGPS,-0.0 m,+0.00 m/s,7.62 VRx,0.005 km,4 m,202.1 °,1:-- (  0.0 km/h),472.7 m*BA
$SMGPS2,-0.04 X,-0.02 Y,+0.99 Z,1 ENL,0 us,0.0 kmh,967.39 hPa,967.26 hPa,-0.01 m/s*01
$GNRMC,173405.10,A,4816.48052,N,01139.86683,E,0.14,,080522,,,A,V*20
$GNGNS,173405.10,4816.48052,N,01139.86683,E,AAAN,23,0.58,480.3,46.2,,,V*12
$GNGSA,A,3,01,03,08,21,10,32,22,14,17,27,,,0.97,0.58,0.78,1*02
$GNGSA,A,3,81,66,65,88,82,73,,,,,,,0.97,0.58,0.78,2*0A
$GNGSA,A,3,15,34,05,03,21,27,09,,,,,,0.97,0.58,0.78,3*05
$GNVTG,,T,,M,0.144,N,0.268,K,A*30
$SMGPS,-0.0 m,-0.00 m/s,7.59 VRx,0.005 km,4 m,202.1 °,1:-- (  0.0 km/h),472.6 m*B5
$SMGPS2,-0.03 X,-0.05 Y,+0.96 Z,1 ENL,0 us,0.0 kmh,967.39 hPa,967.26 hPa,-0.01 m/s*0E
$GNRMC,173405.20,A,4816.48050,N,01139.86685,E,0.05,,080522,,,A,V*27
$GNGNS,173405.20,4816.48050,N,01139.86685,E,AAAN,23,0.58,480.3,46.2,,,V*15
$GNGSA,A,3,01,03,08,21,10,32,22,14,17,27,,,0.97,0.58,0.78,1*02
$GNGSA,A,3,81,66,65,88,82,73,,,,,,,0.97,0.58,0.78,2*0A
$GNGSA,A,3,15,34,05,03,21,27,09,,,,,,0.97,0.58,0.78,3*05
$GNVTG,,T,,M,0.051,N,0.094,K,A*34
$SMGPS,0.0 m,-0.00 m/s,7.63 VRx,0.005 km,4 m,202.1 °,1:-- (  0.0 km/h),472.6 m*91
$SMGPS2,-0.02 X,-0.04 Y,+0.97 Z,1 ENL,0 us,0.0 kmh,967.39 hPa,967.26 hPa,-0.01 m/s*0F
$GNRMC,173405.30,A,4816.48049,N,01139.86688,E,0.11,,080522,,,A,V*26
$GNGNS,173405.30,4816.48049,N,01139.86688,E,AAAN,23,0.58,480.2,46.2,,,V*10
$GNGSA,A,3,01,03,08,21,10,32,22,14,17,27,,,0.97,0.58,0.78,1*02
$GNGSA,A,3,81,66,65,88,82,73,,,,,,,0.97,0.58,0.78,2*0A
$GNGSA,A,3,15,34,05,03,21,27,09,,,,,,0.97,0.58,0.78,3*05
$GNVTG,,T,,M,0.112,N,0.207,K,A*3A
$SMGPS,-0.1 m,-0.00 m/s,7.59 VRx,0.005 km,4 m,202.1 °,1:-- (  0.0 km/h),472.6 m*B4
$SMGPS2,-0.04 X,-0.03 Y,+0.98 Z,1 ENL,0 us,0.0 kmh,967.40 hPa,967.26 hPa,-0.01 m/s*0F
$GNRMC,173405.40,A,4816.48048,N,01139.86689,E,0.05,,080522,,,A,V*24
$GNGNS,173405.40,4816.48048,N,01139.86689,E,AAAN,23,0.58,480.3,46.2,,,V*16
$GNGSA,A,3,01,03,08,21,10,32,22,14,17,27,,,0.97,0.58,0.78,1*02
$GNGSA,A,3,81,66,65,88,82,73,,,,,,,0.97,0.58,0.78,2*0A
$GNGSA,A,3,15,34,05,03,21,27,09,,,,,,0.97,0.58,0.78,3*05
$GNVTG,,T,,M,0.047,N,0.086,K,A*30
$SMGPS,-0.0 m,-0.01 m/s,7.62 VRx,0.005 km,4 m,202.1 °,1:-- (  0.0 km/h),472.7 m*BD
$SMGPS2,-0.03 X,-0.02 Y,+0.97 Z,1 ENL,0 us,0.0 kmh,967.39 hPa,967.26 hPa,-0.02 m/s*0B
$GNRMC,173405.50,A,4816.48048,N,01139.86692,E,0.09,,080522,,,A,V*23
$GNGNS,173405.50,4816.48048,N,01139.86692,E,AAAN,23,0.58,480.3,46.2,,,V*1D
$GNGSA,A,3,01,03,08,21,10,32,22,14,17,27,,,0.97,0.58,0.78,1*02
$GNGSA,A,3,81,66,65,88,82,73,,,,,,,0.97,0.58,0.78,2*0A
$GNGSA,A,3,15,34,05,03,21,27,09,,,,,,0.97,0.58,0.78,3*05
$GNVTG,,T,,M,0.093,N,0.172,K,A*33
$SMGPS,-0.0 m,-0.01 m/s,7.60 VRx,0.005 km,4 m,200.3 °,1:-- (  0.0 km/h),472.7 m*BF
$SMGPS2,-0.05 X,-0.02 Y,+0.97 Z,1 ENL,0 us,0.0 kmh,967.39 hPa,967.26 hPa,-0.02 m/s*0D
$GNRMC,173405.60,A,4816.48047,N,01139.86694,E,0.07,,080522,,,A,V*27
$GNGNS,173405.60,4816.48047,N,01139.86694,E,AAAN,23,0.58,480.3,46.2,,,V*17
$GNGSA,A,3,01,03,08,21,10,32,22,14,17,27,,,0.97,0.58,0.78,1*02
$GNGSA,A,3,81,66,65,88,82,73,,,,,,,0.97,0.58,0.78,2*0A
$GNGSA,A,3,15,34,05,03,21,27,09,,,,,,0.97,0.58,0.78,3*05
$GNVTG,,T,,M,0.068,N,0.126,K,A*36
$SMGPS,0.0 m,-0.01 m/s,7.61 VRx,0.005 km,4 m,200.3 °,1:-- (  0.0 km/h),472.8 m*9C
$SMGPS2,-0.02 X,-0.02 Y,+0.98 Z,1 ENL,0 us,0.0 kmh,967.39 hPa,967.26 hPa,-0.02 m/s*05
$GNRMC,173405.70,A,4816.48046,N,01139.86696,E,0.22,,080522,,,A,V*22
$GNGNS,173405.70,4816.48046,N,01139.86696,E,AAAN,23,0.58,480.3,46.2,,,V*15
$GNGSA,A,3,01,03,08,21,10,32,22,14,17,27,,,0.97,0.58,0.78,1*02
$GNGSA,A,3,81,66,65,88,82,73,,,,,,,0.97,0.58,0.78,2*0A
$GNGSA,A,3,15,34,05,03,21,27,09,,,,,,0.97,0.58,0.78,3*05
$GNVTG,,T,,M,0.222,N,0.411,K,A*3B
$SMGPS,-0.0 m,-0.01 m/s,7.60 VRx,0.005 km,4 m,200.3 °,1:-- (  0.0 km/h),472.8 m*B0
$SMGPS2,-0.02 X,-0.02 Y,+0.97 Z,1 ENL,0 us,0.0 kmh,967.39 hPa,967.26 hPa,-0.02 m/s*0A
$GNRMC,173405.80,A,4816.48045,N,01139.86699,E,0.18,,080522,,,A,V*28
$GNGNS,173405.80,4816.48045,N,01139.86699,E,AAAN,23,0.58,480.3,46.2,,,V*16
$GNGSA,A,3,01,03,08,21,10,32,22,14,17,27,,,0.97,0.58,0.78,1*02
$GNGSA,A,3,81,66,65,88,82,73,,,,,,,0.97,0.58,0.78,2*0A
$GNGSA,A,3,15,34,05,03,21,27,09,,,,,,0.97,0.58,0.78,3*05
$GNVTG,,T,,M,0.180,N,0.333,K,A*37
$SMGPS,0.0 m,-0.01 m/s,7.62 VRx,0.005 km,4 m,200.3 °,1:-- (  0.0 km/h),472.8 m*9F
$SMGPS2,-0.03 X,-0.02 Y,+0.98 Z,1 ENL,0 us,0.0 kmh,967.39 hPa,967.26 hPa,-0.02 m/s*04
$GNRMC,173405.90,A,4816.48044,N,01139.86701,E,0.11,,080522,,,A,V*21
$GNGNS,173405.90,4816.48044,N,01139.86701,E,AAAN,23,0.58,480.3,46.2,,,V*16
$GNGSA,A,3,01,03,08,21,10,32,22,14,17,27,,,0.97,0.58,0.78,1*02
$GNGSA,A,3,81,66,65,88,82,73,,,,,,,0.97,0.58,0.78,2*0A
$GNGSA,A,3,15,34,05,03,21,27,09,,,,,,0.97,0.58,0.78,3*05
$GNVTG,,T,,M,0.109,N,0.202,K,A*35
$SMGPS,-0.0 m,-0.02 m/s,7.61 VRx,0.005 km,4 m,200.3 °,1:-- (  0.0 km/h),472.8 m*B2
$SMGPS2,-0.03 X,-0.01 Y,+0.98 Z,2 ENL,0 us,0.0 kmh,967.39 hPa,967.25 hPa,-0.01 m/s*04
$GNRMC,173406.00,A,4816.48044,N,01139.86704,E,0.12,,080522,,,A,V*2D
$GNGNS,173406.00,4816.48044,N,01139.86704,E,AAAN,23,0.58,480.3,46.2,,,V*19
$GNGSA,A,3,01,03,08,21,10,32,22,14,17,27,,,0.97,0.58,0.78,1*02
$GNGSA,A,3,81,66,65,88,82,73,,,,,,,0.97,0.58,0.78,2*0A
$GNGSA,A,3,15,34,05,03,21,27,09,,,,,,0.97,0.58,0.78,3*05
$GNVTG,,T,,M,0.121,N,0.224,K,A*3B
$SMGPS,0.0 m,-0.01 m/s,7.61 VRx,0.005 km,4 m,198.4 °,1:-- (  0.0 km/h),472.9 m*98
$SMGPS2,-0.00 X,-0.03 Y,+0.98 Z,1 ENL,0 us,0.0 kmh,967.39 hPa,967.26 hPa,-0.01 m/s*05
$GNRMC,173406.10,A,4816.48044,N,01139.86707,E,0.13,,080522,,,A,V*2E
$GNGNS,173406.10,4816.48044,N,01139.86707,E,AAAN,23,0.58,480.3,46.2,,,V*1B
$GNGSA,A,3,01,03,08,21,10,32,22,14,17,27,,,0.97,0.58,0.78,1*02
$GNGSA,A,3,81,66,65,88,82,73,,,,,,,0.97,0.58,0.78,2*0A
$GNGSA,A,3,15,34,05,03,21,27,09,,,,,,0.97,0.58,0.78,3*05
$GNVTG,,T,,M,0.125,N,0.232,K,A*38
$SMGPS,0.0 m,-0.01 m/s,7.58 VRx,0.005 km,4 m,198.4 °,1:-- (  0.0 km/h),472.9 m*92
$SMGPS2,-0.01 X,-0.02 Y,+0.97 Z,2 ENL,0 us,0.0 kmh,967.39 hPa,967.26 hPa,-0.01 m/s*09
$GNRMC,173406.20,A,4816.48044,N,01139.86710,E,0.09,,080522,,,A,V*20
$GNGNS,173406.20,4816.48044,N,01139.86710,E,AAAN,23,0.58,480.3,46.2,,,V*1E
$GNGSA,A,3,01,03,08,21,10,32,22,14,17,27,,,0.97,0.58,0.78,1*02
$GNGSA,A,3,81,66,65,88,82,73,,,,,,,0.97,0.58,0.78,2*0A
$GNGSA,A,3,15,34,05,03,21,27,09,,,,,,0.97,0.58,0.78,3*05
$GNVTG,,T,,M,0.092,N,0.170,K,A*30
$SMGPS,-0.0 m,-0.01 m/s,7.62 VRx,0.005 km,4 m,198.4 °,1:-- (  0.0 km/h),472.9 m*B6
$SMGPS2,+0.00 X,-0.00 Y,+0.98 Z,1 ENL,0 us,0.0 kmh,967.39 hPa,967.25 hPa,-0.00 m/s*02
$GNRMC,173406.30,A,4816.48045,N,01139.86713,E,0.11,,080522,,,A,V*2A
$GNGNS,173406.30,4816.48045,N,01139.86713,E,AAAN,23,0.58,480.3,46.2,,,V*1D
$GNGSA,A,3,01,03,08,21,10,32,22,14,17,27,,,0.97,0.58,0.78,1*02
$GNGSA,A,3,81,66,65,88,82,73,,,,,,,0.97,0.58,0.78,2*0A
$GNGSA,A,3,15,34,05,03,21,27,09,,,,,,0.97,0.58,0.78,3*05
$GNVTG,,T,,M,0.106,N,0.197,K,A*35
$SMGPS,-0.0 m,-0.01 m/s,7.59 VRx,0.005 km,4 m,198.4 °,1:-- (  0.0 km/h),473.0 m*B6
$SMGPS2,-0.00 X,-0.02 Y,+0.97 Z,51 ENL,0 us,0.0 kmh,967.39 hPa,967.26 hPa,+0.00 m/s*39
$GNRMC,173406.40,A,4816.48045,N,01139.86715,E,0.07,,080522,,,A,V*2C
$GNGNS,173406.40,4816.48045,N,01139.86715,E,AAAN,23,0.58,480.3,46.2,,,V*1C
$GNGSA,A,3,01,03,08,21,10,32,22,14,17,27,,,0.97,0.58,0.78,1*02
$GNGSA,A,3,81,66,65,88,82,73,,,,,,,0.97,0.58,0.78,2*0A
$GNGSA,A,3,15,34,05,03,21,27,09,,,,,,0.97,0.58,0.78,3*05
$GNVTG,,T,,M,0.071,N,0.132,K,A*3B
$SMGPS,-0.0 m,-0.01 m/s,7.63 VRx,0.005 km,4 m,195.5 °,1:-- (  0.0 km/h),473.0 m*B3
$SMGPS2,-0.04 X,-0.01 Y,+0.98 Z,3 ENL,0 us,0.0 kmh,967.39 hPa,967.26 hPa,+0.00 m/s*06
$GNRMC,173406.50,A,4816.48045,N,01139.86718,E,0.05,,080522,,,A,V*22
$GNGNS,173406.50,4816.48045,N,01139.86718,E,AAAN,23,0.58,480.3,46.2,,,V*10
$GNGSA,A,3,01,03,08,21,10,32,22,14,17,27,,,0.97,0.58,0.78,1*02
$GNGSA,A,3,81,66,65,88,82,73,,,,,,,0.97,0.58,0.78,2*0A
$GNGSA,A,3,15,34,05,03,21,27,09,,,,,,0.97,0.58,0.78,3*05
$GNVTG,,T,,M,0.045,N,0.083,K,A*37
$SMGPS,0.0 m,-0.01 m/s,7.59 VRx,0.005 km,4 m,195.5 °,1:-- (  0.0 km/h),473.0 m*97
$SMGPS2,-0.02 X,-0.00 Y,+0.97 Z,1 ENL,0 us,0.0 kmh,967.39 hPa,967.25 hPa,+0.01 m/s*0E
$GNRMC,173406.60,A,4816.48045,N,01139.86719,E,0.07,,080522,,,A,V*22
$GNGNS,173406.60,4816.48045,N,01139.86719,E,AAAN,23,0.58,480.3,46.2,,,V*12
$GNGSA,A,3,01,03,08,21,10,32,22,14,17,27,,,0.97,0.58,0.78,1*02
$GNGSA,A,3,81,66,65,88,82,73,,,,,,,0.97,0.58,0.78,2*0A
$GNGSA,A,3,15,34,05,03,21,27,09,,,,,,0.97,0.58,0.78,3*05
$GNVTG,,T,,M,0.072,N,0.132,K,A*38
$SMGPS,0.0 m,-0.00 m/s,7.63 VRx,0.005 km,4 m,195.5 °,1:-- (  0.0 km/h),473.0 m*9F
$SMGPS2,+0.01 X,+0.00 Y,+0.97 Z,1 ENL,0 us,0.0 kmh,967.39 hPa,967.26 hPa,+0.01 m/s*0E
$GNRMC,173406.70,A,4816.48045,N,01139.86721,E,0.02,,080522,,,A,V*2D
$GNGNS,173406.70,4816.48045,N,01139.86721,E,AAAN,23,0.58,480.3,46.2,,,V*18
$GNGSA,A,3,01,03,08,21,10,32,22,14,17,27,,,0.97,0.58,0.78,1*02
$GNGSA,A,3,81,66,65,88,82,73,,,,,,,0.97,0.58,0.78,2*0A
$GNGSA,A,3,15,34,05,03,21,27,09,,,,,,0.97,0.58,0.78,3*05
$GNVTG,,T,,M,0.017,N,0.032,K,A*3A
$SMGPS,0.0 m,-0.00 m/s,7.60 VRx,0.005 km,4 m,195.5 °,1:-- (  0.0 km/h),473.0 m*9C
$SMGPS2,+0.00 X,-0.00 Y,+0.96 Z,2 ENL,0 us,0.0 kmh,967.39 hPa,967.26 hPa,+0.00 m/s*0A
$GNRMC,173406.80,A,4816.48046,N,01139.86723,E,0.10,,080522,,,A,V*20
$GNGNS,173406.80,4816.48046,N,01139.86723,E,AAAN,23,0.58,480.3,46.2,,,V*16
$GNGSA,A,3,01,03,08,21,10,32,22,14,17,27,,,0.97,0.58,0.78,1*02
$GNGSA,A,3,81,66,65,88,82,73,,,,,,,0.97,0.58,0.78,2*0A
$GNGSA,A,3,15,34,05,03,21,27,09,,,,,,0.97,0.58,0.78,3*05
$GNVTG,,T,,M,0.100,N,0.186,K,A*33
$SMGPS,-0.0 m,-0.01 m/s,7.62 VRx,0.005 km,4 m,195.5 °,1:-- (  0.0 km/h),473.0 m*B2
$SMGPS2,-0.03 X,+0.00 Y,+0.96 Z,1 ENL,0 us,0.0 kmh,967.39 hPa,967.26 hPa,+0.00 m/s*0A
$GNRMC,173406.90,A,4816.48047,N,01139.86726,E,0.04,,080522,,,A,V*20
$GNGNS,173406.90,4816.48047,N,01139.86726,E,AAAN,23,0.58,480.3,46.2,,,V*13
$GNGSA,A,3,01,03,08,21,10,32,22,14,17,27,,,0.97,0.58,0.78,1*02
$GNGSA,A,3,81,66,65,88,82,73,,,,,,,0.97,0.58,0.78,2*0A
$GNGSA,A,3,15,34,05,03,21,27,09,,,,,,0.97,0.58,0.78,3*05
$GNVTG,,T,,M,0.035,N,0.065,K,A*38
$SMGPS,-0.0 m,-0.01 m/s,7.60 VRx,0.005 km,4 m,195.5 °,1:-- (  0.0 km/h),473.0 m*B0
$SMGPS2,-0.03 X,-0.04 Y,+0.95 Z,1 ENL,0 us,0.0 kmh,967.39 hPa,967.26 hPa,-0.00 m/s*0D
$GNRMC,173407.00,A,4816.48048,N,01139.86727,E,0.21,,080522,,,A,V*21
$GNGNS,173407.00,4816.48048,N,01139.86727,E,AAAN,23,0.58,480.3,46.2,,,V*15
$GNGSA,A,3,01,03,08,21,10,32,22,14,17,27,,,0.97,0.58,0.78,1*02
$GNGSA,A,3,81,66,65,88,82,73,,,,,,,0.97,0.58,0.78,2*0A
$GNGSA,A,3,15,34,05,03,21,27,09,,,,,,0.97,0.58,0.78,3*05
$GNVTG,,T,,M,0.205,N,0.380,K,A*31
$SMGPS,-0.0 m,-0.01 m/s,7.61 VRx,0.005 km,4 m,193.5 °,1:-- (  0.0 km/h),473.0 m*B7
$SMGPS2,-0.00 X,-0.03 Y,+0.99 Z,61 ENL,0 us,0.0 kmh,967.40 hPa,967.26 hPa,-0.01 m/s*3C
$GNRMC,173407.10,A,4816.48048,N,01139.86729,E,0.16,,080522,,,A,V*2A
$GNGNS,173407.10,4816.48048,N,01139.86729,E,AAAN,23,0.58,480.3,46.2,,,V*1A
$GNGSA,A,3,01,03,08,21,10,32,22,14,17,27,,,0.97,0.58,0.78,1*02
$GNGSA,A,3,81,66,65,88,82,73,,,,,,,0.97,0.58,0.78,2*0A
$GNGSA,A,3,15,34,05,03,21,27,09,,,,,,0.97,0.58,0.78,3*05
$GNVTG,,T,,M,0.161,N,0.298,K,A*38
$SMGPS,-0.0 m,-0.01 m/s,7.59 VRx,0.005 km,4 m,193.5 °,1:-- (  0.0 km/h),473.0 m*BC
$SMGPS2,-0.01 X,+0.07 Y,+1.01 Z,4 ENL,0 us,0.0 kmh,967.39 hPa,967.26 hPa,-0.00 m/s*03
$GNRMC,173407.20,A,4816.48048,N,01139.86731,E,0.08,,080522,,,A,V*2F
$GNGNS,173407.20,4816.48048,N,01139.86731,E,AAAN,23,0.58,480.3,46.2,,,V*10
$GNGSA,A,3,01,03,08,21,10,32,22,14,17,27,,,0.97,0.58,0.78,1*02
$GNGSA,A,3,81,66,65,88,82,73,,,,,,,0.97,0.58,0.78,2*0A
$GNGSA,A,3,15,34,05,03,21,27,09,,,,,,0.97,0.58,0.78,3*05
$GNVTG,,T,,M,0.080,N,0.148,K,A*38
$SMGPS,-0.0 m,-0.01 m/s,7.62 VRx,0.005 km,4 m,193.5 °,1:-- (  0.0 km/h),473.1 m*B5
$SMGPS2,-0.04 X,-0.04 Y,+0.90 Z,1 ENL,0 us,0.0 kmh,967.39 hPa,967.26 hPa,-0.01 m/s*0E
$GNRMC,173407.30,A,4816.48049,N,01139.86732,E,0.17,,080522,,,A,V*22
$GNGNS,173407.30,4816.48049,N,01139.86732,E,AAAN,23,0.58,480.3,46.2,,,V*13
$GNGSA,A,3,01,03,08,21,10,32,22,14,17,27,,,0.97,0.58,0.78,1*02
$GNGSA,A,3,81,66,65,88,82,73,,,,,,,0.97,0.58,0.78,2*0A
$GNGSA,A,3,15,34,05,03,21,27,09,,,,,,0.97,0.58,0.78,3*05
$GNVTG,,T,,M,0.165,N,0.306,K,A*3A
$SMGPS,0.0 m,-0.02 m/s,7.60 VRx,0.005 km,4 m,193.5 °,1:-- (  0.0 km/h),473.1 m*99
$SMGPS2,-0.11 X,-0.04 Y,+0.91 Z,1 ENL,0 us,0.0 kmh,967.39 hPa,967.26 hPa,-0.01 m/s*0B
$GNRMC,173407.40,A,4816.48048,N,01139.86732,E,0.33,,080522,,,A,V*22
$GNGNS,173407.40,4816.48048,N,01139.86732,E,AAAN,23,0.58,480.3,46.2,,,V*15
$GNGSA,A,3,01,03,08,21,10,32,22,14,17,27,,,0.97,0.58,0.78,1*02
$GNGSA,A,3,81,66,65,88,82,73,,,,,,,0.97,0.58,0.78,2*0A
$GNGSA,A,3,15,34,05,03,21,27,09,,,,,,0.97,0.58,0.78,3*05
$GNVTG,,T,,M,0.324,N,0.599,K,A*3D
$SMGPS,0.0 m,-0.01 m/s,7.62 VRx,0.005 km,4 m,193.5 °,1:-- (  0.0 km/h),473.1 m*98
$SMGPS2,-0.16 X,-0.13 Y,+1.03 Z,1 ENL,0 us,0.0 kmh,967.39 hPa,967.26 hPa,-0.01 m/s*00
$GNRMC,173407.50,A,4816.48048,N,01139.86733,E,0.49,,080522,,,A,V*2F
$GNGNS,173407.50,4816.48048,N,01139.86733,E,AAAN,23,0.58,480.3,46.2,,,V*15
$GNGSA,A,3,01,03,08,21,10,32,22,14,17,27,,,0.97,0.58,0.78,1*02
$GNGSA,A,3,81,66,65,88,82,73,,,,,,,0.97,0.58,0.78,2*0A
$GNGSA,A,3,15,34,05,03,21,27,09,,,,,,0.97,0.58,0.78,3*05
$GNVTG,,T,,M,0.493,N,0.912,K,A*39
$SMGPS,-0.0 m,-0.02 m/s,7.59 VRx,0.005 km,4 m,193.5 °,1:-- (  0.0 km/h),473.1 m*BE
$SMGPS2,-0.17 X,-0.11 Y,+0.88 Z,1 ENL,0 us,0.0 kmh,967.39 hPa,967.26 hPa,-0.02 m/s*02
$GNRMC,173407.60,A,4816.48048,N,01139.86734,E,0.38,,080522,,,A,V*2D
$GNGNS,173407.60,4816.48048,N,01139.86734,E,AAAN,23,0.58,480.3,46.2,,,V*11
$GNGSA,A,3,01,03,08,21,10,32,22,14,17,27,,,0.97,0.58,0.78,1*02
$GNGSA,A,3,81,66,65,88,82,73,,,,,,,0.97,0.58,0.78,2*0A
$GNGSA,A,3,15,34,05,03,21,27,09,,,,,,0.97,0.58,0.78,3*05
$GNVTG,,T,,M,0.380,N,0.704,K,A*35
$SMGPS,-0.0 m,-0.02 m/s,7.62 VRx,0.005 km,4 m,193.5 °,1:-- (  0.0 km/h),473.1 m*B6
$SMGPS2,-0.17 X,-0.10 Y,+0.97 Z,1 ENL,0 us,0.0 kmh,967.39 hPa,967.26 hPa,-0.02 m/s*0D
$GNRMC,173407.70,A,4816.48049,N,01139.86735,E,0.73,,080522,,,A,V*23
$GNGNS,173407.70,4816.48049,N,01139.86735,E,AAAN,23,0.58,480.3,46.2,,,V*10
$GNGSA,A,3,01,03,08,21,10,32,22,14,17,27,,,0.97,0.58,0.78,1*02
$GNGSA,A,3,81,66,65,88,82,73,,,,,,,0.97,0.58,0.78,2*0A
$GNGSA,A,3,15,34,05,03,21,27,09,,,,,,0.97,0.58,0.78,3*05
$GNVTG,,T,,M,0.731,N,1.354,K,A*3B
$SMGPS,-0.0 m,-0.02 m/s,7.59 VRx,0.005 km,4 m,193.5 °,1:-- (  0.0 km/h),473.1 m*BE
$SMGPS2,-0.21 X,-0.13 Y,+0.97 Z,2 ENL,0 us,0.0 kmh,967.40 hPa,967.26 hPa,-0.02 m/s*06
$GNRMC,173407.80,A,4816.48049,N,01139.86736,E,0.91,,080522,,,A,V*23
$GNGNS,173407.80,4816.48049,N,01139.86736,E,AAAN,23,0.58,480.2,46.2,,,V*1D
$GNGSA,A,3,01,03,08,21,10,32,22,14,17,27,,,0.97,0.58,0.78,1*02
$GNGSA,A,3,81,66,65,88,82,73,,,,,,,0.97,0.58,0.78,2*0A
$GNGSA,A,3,15,34,05,03,21,27,09,,,,,,0.97,0.58,0.78,3*05
$GNVTG,,T,,M,0.908,N,1.681,K,A*32
$SMGPS,-0.1 m,-0.02 m/s,7.63 VRx,0.005 km,4 m,193.5 °,1:-- (  0.0 km/h),473.1 m*B6
$SMGPS2,-0.26 X,-0.12 Y,+0.97 Z,1 ENL,0 us,0.0 kmh,967.40 hPa,967.27 hPa,-0.02 m/s*02
$GNRMC,173407.90,A,4816.48047,N,01139.86738,E,1.07,203.47,080522,,,A,V*30
$GNGNS,173407.90,4816.48047,N,01139.86738,E,AAAN,23,0.58,480.3,46.2,,,V*1D
$GNGSA,A,3,01,03,08,21,10,32,22,14,17,27,,,0.97,0.58,0.78,1*02
$GNGSA,A,3,81,66,65,88,82,73,,,,,,,0.97,0.58,0.78,2*0A
$GNGSA,A,3,15,34,05,03,21,27,09,,,,,,0.97,0.58,0.78,3*05
$GNVTG,203.47,T,,M,1.064,N,1.971,K,A*2C
$SMGPS,-0.0 m,-0.03 m/s,7.60 VRx,0.005 km,4 m,193.5 °,1:-- (  0.0 km/h),473.1 m*B5
$SMGPS2,-0.21 X,-0.06 Y,+0.99 Z,1 ENL,0 us,0.0 kmh,967.40 hPa,967.27 hPa,-0.03 m/s*0F
$GNRMC,173408.00,A,4816.48045,N,01139.86740,E,1.21,194.24,080522,,,A,V*37
$GNGNS,173408.00,4816.48045,N,01139.86740,E,AAAN,23,0.58,480.3,46.2,,,V*16
$GNGSA,A,3,01,03,08,21,10,32,22,14,17,27,,,0.97,0.58,0.78,1*02
$GNGSA,A,3,81,66,65,88,82,73,,,,,,,0.97,0.58,0.78,2*0A
$GNGSA,A,3,15,34,05,03,21,27,09,,,,,,0.97,0.58,0.78,3*05
$GNVTG,194.24,T,,M,1.210,N,2.242,K,A*2D
$SMGPS,-0.0 m,-0.04 m/s,7.62 VRx,0.005 km,4 m,191.5 °,1:-- (  0.0 km/h),473.1 m*B2
$SMGPS2,-0.14 X,+0.03 Y,+1.04 Z,0 ENL,0 us,0.0 kmh,967.40 hPa,967.26 hPa,-0.04 m/s*08
$GNRMC,173408.10,A,4816.48042,N,01139.86742,E,1.23,190.99,080522,,,A,V*33
$GNGNS,173408.10,4816.48042,N,01139.86742,E,AAAN,23,0.58,480.3,46.2,,,V*12
$GNGSA,A,3,01,03,08,21,10,32,22,14,17,27,,,0.97,0.58,0.78,1*02
$GNGSA,A,3,81,66,65,88,82,73,,,,,,,0.97,0.58,0.78,2*0A
$GNGSA,A,3,15,34,05,03,21,27,09,,,,,,0.97,0.58,0.78,3*05
$GNVTG,190.99,T,,M,1.230,N,2.279,K,A*25
$SMGPS,0.0 m,-0.04 m/s,7.57 VRx,0.005 km,4 m,191.5 °,1:-- (  0.0 km/h),473.2 m*9A
$SMGPS2,-0.13 X,+0.06 Y,+0.98 Z,1 ENL,0 us,0.0 kmh,967.40 hPa,967.26 hPa,-0.04 m/s*0F
$GNRMC,173408.20,A,4816.48039,N,01139.86743,E,1.03,193.87,080522,,,A,V*33
$GNGNS,173408.20,4816.48039,N,01139.86743,E,AAAN,23,0.58,480.3,46.2,,,V*1C
$GNGSA,A,3,01,03,08,21,10,32,22,14,17,27,,,0.97,0.58,0.78,1*02
$GNGSA,A,3,81,66,65,88,82,73,,,,,,,0.97,0.58,0.78,2*0A
$GNGSA,A,3,15,34,05,03,21,27,09,,,,,,0.97,0.58,0.78,3*05
$GNVTG,193.87,T,,M,1.031,N,1.910,K,A*2D
$SMGPS,-0.0 m,-0.04 m/s,7.60 VRx,0.005 km,4 m,191.5 °,1:-- (  0.0 km/h),473.2 m*B3
$SMGPS2,-0.16 X,+0.02 Y,+0.93 Z,1 ENL,0 us,0.0 kmh,967.40 hPa,967.26 hPa,-0.03 m/s*02
$GNRMC,173408.30,A,4816.48037,N,01139.86744,E,0.99,191.27,080522,,,A,V*31
$GNGNS,173408.30,4816.48037,N,01139.86744,E,AAAN,23,0.58,480.3,46.2,,,V*14
$GNGSA,A,3,01,03,08,21,10,32,22,14,17,27,,,0.97,0.58,0.78,1*02
$GNGSA,A,3,81,66,65,88,82,73,,,,,,,0.97,0.58,0.78,2*0A
$GNGSA,A,3,15,34,05,03,21,27,09,,,,,,0.97,0.58,0.78,3*05
$GNVTG,191.27,T,,M,0.983,N,1.820,K,A*26
$SMGPS,0.0 m,-0.04 m/s,7.58 VRx,0.005 km,4 m,191.5 °,1:-- (  0.0 km/h),473.2 m*95
$SMGPS2,-0.21 X,+0.00 Y,+1.02 Z,1 ENL,0 us,0.0 kmh,967.40 hPa,967.27 hPa,-0.04 m/s*0B
$GNRMC,173408.40,A,4816.48034,N,01139.86745,E,0.79,,080522,,,A,V*28
$GNGNS,173408.40,4816.48034,N,01139.86745,E,AAAN,23,0.58,480.3,46.2,,,V*11
$GNGSA,A,3,01,03,08,21,10,32,22,14,17,27,,,0.97,0.58,0.78,1*02
$GNGSA,A,3,81,66,65,88,82,73,,,,,,,0.97,0.58,0.78,2*0A
$GNGSA,A,3,15,34,05,03,21,27,09,,,,,,0.97,0.58,0.78,3*05
$GNVTG,,T,,M,0.786,N,1.456,K,A*32
$SMGPS,0.0 m,-0.03 m/s,7.61 VRx,0.005 km,4 m,191.5 °,1:-- (  0.0 km/h),473.2 m*98
$SMGPS2,-0.26 X,+0.00 Y,+1.01 Z,0 ENL,0 us,0.0 kmh,967.40 hPa,967.27 hPa,-0.04 m/s*0E
$GNRMC,173408.50,A,4816.48032,N,01139.86746,E,0.86,,080522,,,A,V*2C
$GNGNS,173408.50,4816.48032,N,01139.86746,E,AAAN,23,0.58,480.3,46.2,,,V*15
$GNGSA,A,3,01,03,08,21,10,32,22,14,17,27,,,0.97,0.58,0.78,1*02
$GNGSA,A,3,81,66,65,88,82,73,,,,,,,0.97,0.58,0.78,2*0A
$GNGSA,A,3,15,34,05,03,21,27,09,,,,,,0.97,0.58,0.78,3*05
$GNVTG,,T,,M,0.863,N,1.598,K,A*35
$SMGPS,0.0 m,-0.03 m/s,7.61 VRx,0.005 km,4 m,191.5 °,1:-- (  0.0 km/h),473.2 m*98
$SMGPS2,-0.19 X,-0.00 Y,+1.06 Z,1 ENL,0 us,0.0 kmh,967.39 hPa,967.27 hPa,-0.03 m/s*0B
$GNRMC,173408.60,A,4816.48031,N,01139.86747,E,0.75,,080522,,,A,V*21
$GNGNS,173408.60,4816.48031,N,01139.86747,E,AAAN,23,0.58,480.3,46.2,,,V*14
$GNGSA,A,3,01,03,08,21,10,32,22,14,17,27,,,0.97,0.58,0.78,1*02
$GNGSA,A,3,81,66,65,88,82,73,,,,,,,0.97,0.58,0.78,2*0A
$GNGSA,A,3,15,34,05,03,21,27,09,,,,,,0.97,0.58,0.78,3*05
$GNVTG,,T,,M,0.748,N,1.385,K,A*39
$SMGPS,0.0 m,-0.01 m/s,7.61 VRx,0.005 km,4 m,191.5 °,1:-- (  0.0 km/h),473.2 m*9A
$SMGPS2,-0.18 X,+0.08 Y,+1.07 Z,1 ENL,0 us,0.0 kmh,967.39 hPa,967.26 hPa,-0.02 m/s*05
$GNRMC,173408.70,A,4816.48029,N,01139.86749,E,0.71,,080522,,,A,V*23
$GNGNS,173408.70,4816.48029,N,01139.86749,E,AAAN,23,0.58,480.4,46.2,,,V*15
$GNGSA,A,3,01,03,08,21,10,32,22,14,17,27,,,0.97,0.58,0.78,1*02
$GNGSA,A,3,81,66,65,88,82,73,,,,,,,0.97,0.58,0.78,2*0A
$GNGSA,A,3,15,34,05,03,21,27,09,,,,,,0.97,0.58,0.78,3*05
$GNVTG,,T,,M,0.713,N,1.320,K,A*38
$SMGPS,0.1 m,-0.00 m/s,7.57 VRx,0.005 km,4 m,191.5 °,1:-- (  0.0 km/h),473.3 m*9E
$SMGPS2,-0.11 X,+0.09 Y,+1.00 Z,1 ENL,0 us,0.0 kmh,967.39 hPa,967.25 hPa,-0.01 m/s*0A
$GNRMC,173408.80,A,4816.48027,N,01139.86750,E,1.24,192.72,080522,,,A,V*3A
$GNGNS,173408.80,4816.48027,N,01139.86750,E,AAAN,23,0.58,480.4,46.2,,,V*1C
$GNGSA,A,3,01,03,08,21,10,32,22,14,17,27,,,0.97,0.58,0.78,1*02
$GNGSA,A,3,81,66,65,88,82,73,,,,,,,0.97,0.58,0.78,2*0A
$GNGSA,A,3,15,34,05,03,21,27,09,,,,,,0.97,0.58,0.78,3*05
$GNVTG,192.72,T,,M,1.241,N,2.298,K,A*2B
$SMGPS,0.1 m,+0.01 m/s,7.60 VRx,0.005 km,4 m,191.5 °,1:-- (  0.0 km/h),473.3 m*9D
$SMGPS2,-0.05 X,+0.17 Y,+0.84 Z,1 ENL,0 us,0.0 kmh,967.38 hPa,967.25 hPa,+0.01 m/s*0A
$GNRMC,173408.90,A,4816.48024,N,01139.86750,E,1.09,192.09,080522,,,A,V*3B
$GNGNS,173408.90,4816.48024,N,01139.86750,E,AAAN,23,0.58,480.4,46.2,,,V*1E
$GNGSA,A,3,01,03,08,21,10,32,22,14,17,27,,,0.97,0.58,0.78,1*02
$GNGSA,A,3,81,66,65,88,82,73,,,,,,,0.97,0.58,0.78,2*0A
$GNGSA,A,3,15,34,05,03,21,27,09,,,,,,0.97,0.58,0.78,3*05
$GNVTG,192.09,T,,M,1.087,N,2.013,K,A*2E
$SMGPS,0.1 m,+0.02 m/s,7.58 VRx,0.005 km,4 m,189.4 °,1:-- (  0.0 km/h),473.4 m*9A
$SMGPS2,-0.04 X,+0.25 Y,+0.82 Z,1 ENL,0 us,0.0 kmh,967.38 hPa,967.25 hPa,+0.02 m/s*0F
$GNRMC,173409.00,A,4816.48022,N,01139.86753,E,1.18,165.15,080522,,,A,V*33
$GNGNS,173409.00,4816.48022,N,01139.86753,E,AAAN,23,0.58,480.4,46.2,,,V*13
$GNGSA,A,3,01,03,08,21,10,32,22,14,17,27,,,0.97,0.58,0.78,1*02
$GNGSA,A,3,81,66,65,88,82,73,,,,,,,0.97,0.58,0.78,2*0A
$GNGSA,A,3,15,34,05,03,21,27,09,,,,,,0.97,0.58,0.78,3*05
$GNVTG,165.15,T,,M,1.181,N,2.187,K,A*20
$SMGPS,0.1 m,+0.04 m/s,7.63 VRx,0.005 km,4 m,189.4 °,1:-- (  0.0 km/h),473.4 m*94
$SMGPS2,-0.04 X,+0.26 Y,+0.76 Z,1 ENL,0 us,0.0 kmh,967.38 hPa,967.25 hPa,+0.04 m/s*01
$GNRMC,173409.10,A,4816.48020,N,01139.86756,E,0.69,,080522,,,A,V*2A
$GNGNS,173409.10,4816.48020,N,01139.86756,E,AAAN,23,0.58,480.4,46.2,,,V*15
$GNGSA,A,3,01,03,08,21,10,32,22,14,17,27,,,0.97,0.58,0.78,1*02
$GNGSA,A,3,81,66,65,88,82,73,,,,,,,0.97,0.58,0.78,2*0A
$GNGSA,A,3,15,34,05,03,21,27,09,,,,,,0.97,0.58,0.78,3*05
$GNVTG,,T,,M,0.678,N,1.256,K,A*34
$SMGPS,0.1 m,+0.06 m/s,7.58 VRx,0.006 km,5 m,187.8 °,1:-- (  0.0 km/h),473.5 m*9F
$SMGPS2,-0.09 X,+0.35 Y,+0.82 Z,1 ENL,0 us,0.0 kmh,967.38 hPa,967.24 hPa,+0.06 m/s*06
$GNRMC,173409.20,A,4816.48019,N,01139.86758,E,0.51,,080522,,,A,V*26
$GNGNS,173409.20,4816.48019,N,01139.86758,E,AAAN,23,0.58,480.3,46.2,,,V*15
$GNGSA,A,3,01,03,08,21,10,32,22,14,17,27,,,0.97,0.58,0.78,1*02
$GNGSA,A,3,81,66,65,88,82,73,,,,,,,0.97,0.58,0.78,2*0A
$GNGSA,A,3,15,34,05,03,21,27,09,,,,,,0.97,0.58,0.78,3*05
$GNVTG,,T,,M,0.494,N,0.915,K,A*39
$SMGPS,0.0 m,+0.06 m/s,7.61 VRx,0.006 km,5 m,187.8 °,1:-- (  0.0 km/h),473.5 m*94
$SMGPS2,-0.17 X,+0.36 Y,+0.96 Z,1 ENL,0 us,0.0 kmh,967.38 hPa,967.25 hPa,+0.07 m/s*0F
$GNRMC,173409.30,A,4816.48018,N,01139.86761,E,0.42,,080522,,,A,V*2E
$GNGNS,173409.30,4816.48018,N,01139.86761,E,AAAN,23,0.58,480.4,46.2,,,V*18
$GNGSA,A,3,01,03,08,21,10,32,22,14,17,27,,,0.97,0.58,0.78,1*02
$GNGSA,A,3,81,66,65,88,82,73,,,,,,,0.97,0.58,0.78,2*0A
$GNGSA,A,3,15,34,05,03,21,27,09,,,,,,0.97,0.58,0.78,3*05
$GNVTG,,T,,M,0.394,N,0.730,K,A*37
$SMGPS,0.1 m,+0.07 m/s,7.59 VRx,0.006 km,5 m,187.8 °,1:-- (  0.0 km/h),473.5 m*9F
$SMGPS2,-0.13 X,+0.38 Y,+0.98 Z,1 ENL,0 us,0.0 kmh,967.38 hPa,967.24 hPa,+0.09 m/s*04
$GNRMC,173409.40,A,4816.48019,N,01139.86764,E,0.26,,080522,,,A,V*2F
$GNGNS,173409.40,4816.48019,N,01139.86764,E,AAAN,24,0.55,480.3,46.2,,,V*16
$GNGSA,A,3,01,03,08,21,10,32,22,14,17,27,,,0.92,0.55,0.74,1*06
$GNGSA,A,3,81,66,65,88,82,73,,,,,,,0.97,0.58,0.78,2*0A
$GNGSA,A,3,15,34,05,03,21,27,09,,,,,,0.97,0.58,0.78,3*05
$GNVTG,,T,,M,0.209,N,0.386,K,A*3B
$SMGPS,0.0 m,+0.08 m/s,7.62 VRx,0.006 km,5 m,187.8 °,1:-- (  0.0 km/h),473.5 m*99
$SMGPS2,-0.07 X,+0.25 Y,+0.91 Z,1 ENL,0 us,0.0 kmh,967.38 hPa,967.24 hPa,+0.09 m/s*04
$GNRMC,173409.50,A,4816.48021,N,01139.86767,E,0.61,,080522,,,A,V*25
$GNGNS,173409.50,4816.48021,N,01139.86767,E,AAAN,24,0.55,480.3,46.2,,,V*1F
$GNGSA,A,3,01,03,08,21,10,32,22,14,17,27,,,0.92,0.55,0.74,1*06
$GNGSA,A,3,81,66,65,88,82,67,73,,,,,,0.92,0.55,0.74,2*0F
$GNGSA,A,3,15,34,05,03,21,27,09,,,,,,0.92,0.55,0.74,3*01
$GNVTG,,T,,M,0.588,N,1.089,K,A*38
$SMGPS,0.0 m,+0.08 m/s,7.58 VRx,0.006 km,5 m,186.0 °,1:-- (  0.0 km/h),473.5 m*99
$SMGPS2,-0.04 X,+0.17 Y,+0.89 Z,1 ENL,0 us,0.0 kmh,967.38 hPa,967.24 hPa,+0.09 m/s*0F
$GNRMC,173409.60,A,4816.48023,N,01139.86770,E,0.56,,080522,,,A,V*26
$GNGNS,173409.60,4816.48023,N,01139.86770,E,AAAN,24,0.55,480.3,46.2,,,V*18
$GNGSA,A,3,01,03,08,21,10,32,22,14,17,27,,,0.92,0.55,0.74,1*06
$GNGSA,A,3,81,66,65,88,82,67,73,,,,,,0.92,0.55,0.74,2*0F
$GNGSA,A,3,15,34,05,03,21,27,09,,,,,,0.92,0.55,0.74,3*01
$GNVTG,,T,,M,0.540,N,1.000,K,A*3D
$SMGPS,0.0 m,+0.08 m/s,7.59 VRx,0.006 km,5 m,186.0 °,1:-- (  0.0 km/h),473.5 m*98
$SMGPS2,-0.02 X,+0.22 Y,+0.94 Z,1 ENL,0 us,0.0 kmh,967.38 hPa,967.24 hPa,+0.09 m/s*03
$GNRMC,173409.70,A,4816.48024,N,01139.86772,E,0.47,,080522,,,A,V*22
$GNGNS,173409.70,4816.48024,N,01139.86772,E,AAAN,24,0.55,480.3,46.2,,,V*1C
$GNGSA,A,3,01,03,08,21,10,32,22,14,17,27,,,0.92,0.55,0.74,1*06
$GNGSA,A,3,81,66,65,88,82,67,73,,,,,,0.92,0.55,0.74,2*0F
$GNGSA,A,3,15,34,05,03,21,27,09,,,,,,0.92,0.55,0.74,3*01
$GNVTG,,T,,M,0.445,N,0.824,K,A*36
$SMGPS,0.0 m,+0.08 m/s,7.58 VRx,0.006 km,4 m,187.4 °,1:-- (  0.0 km/h),473.5 m*9D
$SMGPS2,-0.10 X,+0.28 Y,+0.93 Z,1 ENL,0 us,0.0 kmh,967.38 hPa,967.24 hPa,+0.10 m/s*05
$GNRMC,173409.80,A,4816.48025,N,01139.86774,E,0.59,,080522,,,A,V*25
$GNGNS,173409.80,4816.48025,N,01139.86774,E,AAAN,24,0.55,480.3,46.2,,,V*14
$GNGSA,A,3,01,03,08,21,10,32,22,14,17,27,,,0.92,0.55,0.74,1*06
$GNGSA,A,3,81,66,65,88,82,67,73,,,,,,0.92,0.55,0.74,2*0F
$GNGSA,A,3,15,34,05,03,21,27,09,,,,,,0.92,0.55,0.74,3*01
$GNVTG,,T,,M,0.572,N,1.059,K,A*30
$SMGPS,0.0 m,+0.08 m/s,7.59 VRx,0.006 km,4 m,187.4 °,1:-- (  0.0 km/h),473.5 m*9C
$SMGPS2,-0.20 X,+0.28 Y,+0.98 Z,1 ENL,0 us,0.0 kmh,967.38 hPa,967.24 hPa,+0.09 m/s*05
$GNRMC,173409.90,A,4816.48027,N,01139.86778,E,0.76,,080522,,,A,V*27
$GNGNS,173409.90,4816.48027,N,01139.86778,E,AAAN,24,0.55,480.3,46.2,,,V*1B
$GNGSA,A,3,01,03,08,21,10,32,22,14,17,27,,,0.92,0.55,0.74,1*06
$GNGSA,A,3,81,66,65,88,82,67,73,,,,,,0.92,0.55,0.74,2*0F
$GNGSA,A,3,15,34,05,03,21,27,09,,,,,,0.92,0.55,0.74,3*01
$GNVTG,,T,,M,0.746,N,1.382,K,A*30
$SMGPS,0.0 m,+0.08 m/s,7.58 VRx,0.006 km,4 m,185.3 °,1:-- (  0.0 km/h),473.5 m*98
$SMGPS2,-0.15 X,+0.24 Y,+0.91 Z,1 ENL,0 us,0.0 kmh,967.37 hPa,967.25 hPa,+0.08 m/s*09
$GNRMC,173410.00,A,4816.48028,N,01139.86780,E,0.46,,080522,,,A,V*2D
$GNGNS,173410.00,4816.48028,N,01139.86780,E,AAAN,24,0.55,480.3,46.2,,,V*12
$GNGSA,A,3,01,03,08,21,10,32,22,14,17,27,,,0.92,0.55,0.74,1*06
$GNGSA,A,3,81,66,65,88,82,67,73,,,,,,0.92,0.55,0.74,2*0F
$GNGSA,A,3,15,34,05,03,21,27,09,,,,,,0.92,0.55,0.74,3*01
$GNVTG,,T,,M,0.436,N,0.807,K,A*33
$SMGPS,0.0 m,+0.07 m/s,7.60 VRx,0.006 km,4 m,185.3 °,1:-- (  0.0 km/h),473.4 m*9D
$SMGPS2,-0.06 X,+0.15 Y,+0.88 Z,1 ENL,0 us,0.0 kmh,967.37 hPa,967.24 hPa,+0.07 m/s*0F
$GNRMC,173410.10,A,4816.48029,N,01139.86780,E,0.47,,080522,,,A,V*2C
$GNGNS,173410.10,4816.48029,N,01139.86780,E,AAAN,24,0.55,480.3,46.2,,,V*12
$GNGSA,A,3,01,03,08,21,10,32,22,14,17,27,,,0.92,0.55,0.74,1*06
$GNGSA,A,3,81,66,65,88,82,67,73,,,,,,0.92,0.55,0.74,2*0F
$GNGSA,A,3,15,34,05,03,21,27,09,,,,,,0.92,0.55,0.74,3*01
$GNVTG,,T,,M,0.447,N,0.827,K,A*37
$SMGPS,0.0 m,+0.07 m/s,7.57 VRx,0.006 km,4 m,185.3 °,1:-- (  0.0 km/h),473.4 m*99
$SMGPS2,-0.11 X,+0.16 Y,+0.99 Z,1 ENL,0 us,0.0 kmh,967.37 hPa,967.24 hPa,+0.07 m/s*0A
$GNRMC,173410.20,A,4816.48031,N,01139.86781,E,0.20,,080522,,,A,V*26
$GNGNS,173410.20,4816.48031,N,01139.86781,E,AAAN,24,0.55,480.3,46.2,,,V*19
$GNGSA,A,3,01,03,08,21,10,32,22,14,17,27,,,0.92,0.55,0.74,1*06
$GNGSA,A,3,81,66,65,88,82,67,73,,,,,,0.92,0.55,0.74,2*0F
$GNGSA,A,3,15,34,05,03,21,27,09,,,,,,0.92,0.55,0.74,3*01
$GNVTG,,T,,M,0.147,N,0.273,K,A*39
$SMGPS,0.0 m,+0.07 m/s,7.60 VRx,0.006 km,4 m,185.3 °,1:-- (  0.0 km/h),473.4 m*9D
$SMGPS2,-0.06 X,+0.18 Y,+0.96 Z,1 ENL,0 us,0.0 kmh,967.38 hPa,967.24 hPa,+0.07 m/s*02
$GNRMC,173410.30,A,4816.48031,N,01139.86781,E,0.25,,080522,,,A,V*22
$GNGNS,173410.30,4816.48031,N,01139.86781,E,AAAN,24,0.55,480.3,46.2,,,V*18
$GNGSA,A,3,01,03,08,21,10,32,22,14,17,27,,,0.92,0.55,0.74,1*06
$GNGSA,A,3,81,66,65,88,82,67,73,,,,,,0.92,0.55,0.74,2*0F
$GNGSA,A,3,15,34,05,03,21,27,09,,,,,,0.92,0.55,0.74,3*01
$GNVTG,,T,,M,0.211,N,0.390,K,A*35
$SMGPS,0.0 m,+0.07 m/s,7.57 VRx,0.006 km,4 m,185.3 °,1:-- (  0.0 km/h),473.4 m*99
$SMGPS2,+0.02 X,+0.21 Y,+0.93 Z,1 ENL,0 us,0.0 kmh,967.37 hPa,967.24 hPa,+0.06 m/s*01
$GNRMC,173410.40,A,4816.48031,N,01139.86781,E,0.16,,080522,,,A,V*25
$GNGNS,173410.40,4816.48031,N,01139.86781,E,AAAN,24,0.55,480.3,46.2,,,V*1F
$GNGSA,A,3,01,03,08,21,10,32,22,14,17,27,,,0.92,0.55,0.74,1*06
$GNGSA,A,3,81,66,65,88,82,67,73,,,,,,0.92,0.55,0.74,2*0F
$GNGSA,A,3,15,34,05,03,21,27,09,,,,,,0.92,0.55,0.74,3*01
$GNVTG,,T,,M,0.099,N,0.184,K,A*30
$SMGPS,0.0 m,+0.06 m/s,7.60 VRx,0.006 km,4 m,185.3 °,1:-- (  0.0 km/h),473.4 m*9C
$SMGPS2,-0.05 X,+0.27 Y,+0.89 Z,1 ENL,0 us,0.0 kmh,967.37 hPa,967.25 hPa,+0.05 m/s*0F
$GNRMC,173410.50,A,4816.48032,N,01139.86783,E,0.28,,080522,,,A,V*28
$GNGNS,173410.50,4816.48032,N,01139.86783,E,AAAN,24,0.55,480.3,46.2,,,V*1F
$GNGSA,A,3,01,03,08,21,10,32,22,14,17,27,,,0.92,0.55,0.74,1*06
$GNGSA,A,3,81,66,65,88,82,67,73,,,,,,0.92,0.55,0.74,2*0F
$GNGSA,A,3,15,34,05,03,21,27,09,,,,,,0.92,0.55,0.74,3*01
$GNVTG,,T,,M,0.253,N,0.468,K,A*33
$SMGPS,-0.0 m,+0.06 m/s,7.58 VRx,0.006 km,4 m,185.3 °,1:-- (  0.0 km/h),473.4 m*BA
$SMGPS2,-0.05 X,+0.27 Y,+0.93 Z,1 ENL,0 us,0.0 kmh,967.38 hPa,967.24 hPa,+0.05 m/s*0A
$GNRMC,173410.60,A,4816.48032,N,01139.86784,E,0.23,,080522,,,A,V*27
$GNGNS,173410.60,4816.48032,N,01139.86784,E,AAAN,24,0.55,480.3,46.2,,,V*1B
$GNGSA,A,3,01,03,08,21,10,32,22,14,17,27,,,0.92,0.55,0.74,1*06
$GNGSA,A,3,81,66,65,88,82,67,73,,,,,,0.92,0.55,0.74,2*0F
$GNGSA,A,3,15,34,05,03,21,27,09,,,,,,0.92,0.55,0.74,3*01
$GNVTG,,T,,M,0.211,N,0.391,K,A*34
$SMGPS,0.0 m,+0.05 m/s,7.59 VRx,0.006 km,4 m,185.3 °,1:-- (  0.0 km/h),473.4 m*95
$SMGPS2,-0.13 X,+0.30 Y,+0.97 Z,1 ENL,0 us,0.0 kmh,967.38 hPa,967.25 hPa,+0.05 m/s*0E
$GNRMC,173410.70,A,4816.48033,N,01139.86786,E,0.41,,080522,,,A,V*21
$GNGNS,173410.70,4816.48033,N,01139.86786,E,AAAN,24,0.55,480.3,46.2,,,V*19
$GNGSA,A,3,01,03,08,21,10,32,22,14,17,27,,,0.92,0.55,0.74,1*06
$GNGSA,A,3,81,66,65,88,82,67,73,,,,,,0.92,0.55,0.74,2*0F
$GNGSA,A,3,15,34,05,03,21,27,09,,,,,,0.92,0.55,0.74,3*01
$GNVTG,,T,,M,0.398,N,0.737,K,A*3C
$SMGPS,-0.0 m,+0.05 m/s,7.58 VRx,0.006 km,4 m,185.3 °,1:-- (  0.0 km/h),473.4 m*B9
$SMGPS2,-0.18 X,+0.26 Y,+0.92 Z,1 ENL,0 us,0.0 kmh,967.38 hPa,967.24 hPa,+0.04 m/s*07
$GNRMC,173410.80,A,4816.48033,N,01139.86788,E,0.30,,080522,,,A,V*26
$GNGNS,173410.80,4816.48033,N,01139.86788,E,AAAN,24,0.55,480.3,46.2,,,V*18
$GNGSA,A,3,01,03,08,21,10,32,22,14,17,27,,,0.92,0.55,0.74,1*06
$GNGSA,A,3,81,66,65,88,82,67,73,,,,,,0.92,0.55,0.74,2*0F
$GNGSA,A,3,15,34,05,03,21,27,09,,,,,,0.92,0.55,0.74,3*01
$GNVTG,,T,,M,0.292,N,0.541,K,A*34
