$GPSSETUP,8AE8,0,1,1,0,0,1,0,0,0,1,3,0,0,0,0,6,0,C8,C8,1F4,1C2,32,64,7C,64,7D0,5,1,1,1E,0,0,0,0,0,0,1003,4,10,5,6,10,10,10,10,10,10,10,10,10,BC10,0,80,0,108,302,604,0,20F,0,0,0,0,0,0,0,0,0,0,0,0,0,0,0,0,0,0,0,0,0,0,0,0,0,0,0,0,0,0,0,0,0,20,12C,1EC6*46
$GNRMC,171135.10,A,4816.48269,N,01139.86534,E,3.04,187.02,080522,,,A,V*31
$GNGNS,171135.10,4816.48269,N,01139.86534,E,AAAN,17,0.74,478.9,46.2,,,V*17
$GNGSA,A,3,01,14,08,10,32,21,22,03,27,,,,1.30,0.74,1.07,1*0F
$GNGSA,A,3,81,88,66,87,,,,,,,,,1.30,0.74,1.07,2*03
$GNGSA,A,3,15,34,05,03,,,,,,,,,1.30,0.74,1.07,3*01
$GNVTG,187.02,T,,M,3.034,N,5.619,K,A*20
$SMGPS,0.3 m,+0.08 m/s,7.32 VRx,0.000 km,0 m,90.0 °,1:-- (  0.0 km/h),478.6 m*AB
$SMGPS2,-0.02 X,+0.31 Y,+0.77 Z,0 ENL,0 us,0.0 kmh,967.26 hPa,967.12 hPa,+0.08 m/s*06
$GNRMC,171135.20,A,4816.48249,N,01139.86516,E,2.80,187.93,080522,,,A,V*35
$GNGNS,171135.20,4816.48249,N,01139.86516,E,AAAN,18,0.73,478.9,46.2,,,V*1E
$GNGSA,A,3,01,14,08,10,32,21,22,03,27,,,,1.22,0.73,0.98,1*0C
$GNGSA,A,3,81,88,66,87,,,,,,,,,1.30,0.74,1.07,2*03
$GNGSA,A,3,15,34,05,03,,,,,,,,,1.30,0.74,1.07,3*01
$GNVTG,187.93,T,,M,2.795,N,5.177,K,A*2A
$SMGPS,0.3 m,+0.08 m/s,7.31 VRx,0.001 km,1 m,14.0 °,1:-- (  0.0 km/h),476.6 m*AA
$SMGPS2,+0.00 X,+0.29 Y,+0.86 Z,0 ENL,0 us,0.0 kmh,967.25 hPa,967.12 hPa,+0.09 m/s*07
$GNRMC,171135.30,A,4816.48246,N,01139.86511,E,2.74,185.17,080522,,,A,V*39
$GNGNS,171135.30,4816.48246,N,01139.86511,E,AAAN,18,0.73,478.9,46.2,,,V*17
$GNGSA,A,3,01,14,08,10,32,21,22,03,27,,,,1.22,0.73,0.98,1*0C
$GNGSA,A,3,81,88,66,87,,,,,,,,,1.22,0.73,0.98,2*00
$GNGSA,A,3,15,34,05,03,36,,,,,,,,1.22,0.73,0.98,3*07
$GNVTG,185.17,T,,M,2.739,N,5.072,K,A*26
$SMGPS,0.3 m,+0.08 m/s,7.27 VRx,0.002 km,0 m,270.0 °,1:-- (  0.0 km/h),475.0 m*9A
$SMGPS2,-0.05 X,+0.40 Y,+0.96 Z,0 ENL,0 us,0.0 kmh,967.25 hPa,967.12 hPa,+0.09 m/s*0A
$GNRMC,171135.40,A,4816.48239,N,01139.86506,E,2.99,181.28,080522,,,A,V*3B
$GNGNS,171135.40,4816.48239,N,01139.86506,E,AAAN,20,0.68,478.8,46.2,,,V*1E
$GNGSA,A,3,01,14,08,10,32,21,22,03,27,,,,1.13,0.68,0.90,1*0C
$GNGSA,A,3,81,88,66,87,,,,,,,,,1.22,0.73,0.98,2*00
$GNGSA,A,3,15,34,05,03,36,,,,,,,,1.22,0.73,0.98,3*07
$GNVTG,181.28,T,,M,2.985,N,5.527,K,A*22
$SMGPS,0.2 m,+0.08 m/s,7.22 VRx,0.002 km,0 m,270.0 °,1:-- (  0.0 km/h),474.8 m*97
$SMGPS2,-0.27 X,+0.44 Y,+1.11 Z,0 ENL,0 us,0.0 kmh,967.26 hPa,967.13 hPa,+0.08 m/s*03
$GNRMC,171135.50,A,4816.48226,N,01139.86505,E,2.49,179.19,080522,,,A,V*3F
$GNGNS,171135.50,4816.48226,N,01139.86505,E,AAAN,20,0.68,478.7,46.2,,,V*1D
$GNGSA,A,3,01,14,08,10,32,21,22,03,27,,,,1.13,0.68,0.90,1*0C
$GNGSA,A,3,81,65,88,66,87,,,,,,,,1.13,0.68,0.90,2*03
$GNGSA,A,3,15,34,05,03,27,36,,,,,,,1.13,0.68,0.90,3*02
$GNVTG,179.19,T,,M,2.486,N,4.603,K,A*2D
$SMGPS,0.1 m,+0.07 m/s,7.26 VRx,0.002 km,0 m,270.0 °,1:-- (  0.0 km/h),474.4 m*93
$SMGPS2,-0.25 X,+0.43 Y,+0.92 Z,0 ENL,0 us,0.0 kmh,967.26 hPa,967.12 hPa,+0.08 m/s*0D
$GNRMC,171135.60,A,4816.48208,N,01139.86480,E,2.14,179.29,080522,,,A,V*37
$GNGNS,171135.60,4816.48208,N,01139.86480,E,AAAN,20,0.68,478.7,46.2,,,V*1E
$GNGSA,A,3,01,14,08,10,32,21,22,03,27,,,,1.13,0.68,0.90,1*0C
$GNGSA,A,3,81,65,88,66,87,,,,,,,,1.13,0.68,0.90,2*03
$GNGSA,A,3,15,34,05,03,27,36,,,,,,,1.13,0.68,0.90,3*02
$GNVTG,179.29,T,,M,2.134,N,3.953,K,A*2F
$SMGPS,0.1 m,+0.07 m/s,7.22 VRx,0.002 km,0 m,270.0 °,1:-- (  0.0 km/h),473.7 m*93
$SMGPS2,-0.12 X,+0.36 Y,+0.83 Z,0 ENL,0 us,0.0 kmh,967.25 hPa,967.12 hPa,+0.08 m/s*08
$GNRMC,171135.70,A,4816.48193,N,01139.86465,E,1.91,185.01,080522,,,A,V*3B
$GNGNS,171135.70,4816.48193,N,01139.86465,E,AAAN,20,0.68,478.7,46.2,,,V*15
$GNGSA,A,3,01,14,08,10,32,21,22,03,27,,,,1.13,0.68,0.90,1*0C
$GNGSA,A,3,81,65,88,66,87,,,,,,,,1.13,0.68,0.90,2*03
$GNGSA,A,3,15,34,05,03,27,36,,,,,,,1.13,0.68,0.90,3*02
$GNVTG,185.01,T,,M,1.907,N,3.533,K,A*27
$SMGPS,0.1 m,+0.06 m/s,7.26 VRx,0.003 km,1 m,213.6 °,1:-- (  0.0 km/h),473.1 m*93
$SMGPS2,-0.08 X,+0.32 Y,+0.91 Z,0 ENL,0 us,0.0 kmh,967.26 hPa,967.12 hPa,+0.07 m/s*08
$GNRMC,171135.80,A,4816.48178,N,01139.86454,E,1.89,183.55,080522,,,A,V*3D
$GNGNS,171135.80,4816.48178,N,01139.86454,E,AAAN,20,0.68,478.7,46.2,,,V*1D
$GNGSA,A,3,01,14,08,10,32,21,22,03,27,,,,1.13,0.68,0.90,1*0C
$GNGSA,A,3,81,65,88,66,87,,,,,,,,1.13,0.68,0.90,2*03
$GNGSA,A,3,15,34,05,03,27,36,,,,,,,1.13,0.68,0.90,3*02
$GNVTG,183.55,T,,M,1.887,N,3.495,K,A*24
$SMGPS,0.1 m,+0.06 m/s,7.22 VRx,0.003 km,1 m,219.8 °,1:-- (  0.0 km/h),472.9 m*9A
$SMGPS2,-0.09 X,+0.33 Y,+0.98 Z,1 ENL,0 us,0.0 kmh,967.25 hPa,967.12 hPa,+0.07 m/s*03
$GNRMC,171135.90,A,4816.48173,N,01139.86458,E,1.44,179.80,080522,,,A,V*37
$GNGNS,171135.90,4816.48173,N,01139.86458,E,AAAN,20,0.68,478.7,46.2,,,V*1B
$GNGSA,A,3,01,14,08,10,32,21,22,03,27,,,,1.13,0.68,0.90,1*0C
$GNGSA,A,3,81,65,88,66,87,,,,,,,,1.13,0.68,0.90,2*03
$GNGSA,A,3,15,34,05,03,27,36,,,,,,,1.13,0.68,0.90,3*02
$GNVTG,179.80,T,,M,1.435,N,2.657,K,A*21
$SMGPS,0.1 m,+0.05 m/s,7.25 VRx,0.003 km,1 m,225.0 °,1:-- (  0.0 km/h),472.4 m*94
$SMGPS2,-0.07 X,+0.40 Y,+1.09 Z,1 ENL,0 us,0.0 kmh,967.26 hPa,967.12 hPa,+0.06 m/s*02
$GNRMC,171136.00,A,4816.48172,N,01139.86460,E,1.48,171.84,080522,,,A,V*37
$GNGNS,171136.00,4816.48172,N,01139.86460,E,AAAN,19,0.69,478.7,46.2,,,V*10
$GNGSA,A,3,01,14,08,10,32,21,22,03,27,,,,1.21,0.69,0.99,1*05
$GNGSA,A,3,81,65,88,66,87,,,,,,,,1.13,0.68,0.90,2*03
$GNGSA,A,3,15,34,05,03,27,36,,,,,,,1.13,0.68,0.90,3*02
$GNVTG,171.84,T,,M,1.478,N,2.738,K,A*2C
$SMGPS,0.1 m,+0.05 m/s,7.22 VRx,0.003 km,1 m,219.8 °,1:-- (  0.0 km/h),472.2 m*92
$SMGPS2,-0.07 X,+0.25 Y,+0.97 Z,0 ENL,0 us,0.0 kmh,967.25 hPa,967.11 hPa,+0.06 m/s*06
$GNRMC,171136.10,A,4816.48168,N,01139.86462,E,0.96,,080522,,,A,V*28
$GNGNS,171136.10,4816.48168,N,01139.86462,E,AAAN,19,0.69,478.7,46.2,,,V*18
$GNGSA,A,3,01,14,08,10,32,21,22,03,27,,,,1.21,0.69,0.99,1*05
$GNGSA,A,3,81,65,88,66,87,,,,,,,,1.21,0.69,0.99,2*0A
$GNGSA,A,3,15,34,05,03,27,,,,,,,,1.21,0.69,0.99,3*0E
$GNVTG,,T,,M,0.953,N,1.765,K,A*37
$SMGPS,0.1 m,+0.06 m/s,7.24 VRx,0.003 km,1 m,219.8 °,1:-- (  0.0 km/h),471.7 m*91
$SMGPS2,-0.03 X,+0.25 Y,+0.66 Z,0 ENL,0 us,0.0 kmh,967.25 hPa,967.11 hPa,+0.06 m/s*0C
$GNRMC,171136.20,A,4816.48163,N,01139.86464,E,1.64,176.90,080522,,,A,V*3D
$GNGNS,171136.20,4816.48163,N,01139.86464,E,AAAN,20,0.65,478.7,46.2,,,V*10
$GNGSA,A,3,01,14,08,10,32,21,22,03,27,,,,1.12,0.65,0.91,1*01
$GNGSA,A,3,81,65,88,66,87,,,,,,,,1.21,0.69,0.99,2*0A
$GNGSA,A,3,15,34,05,03,27,,,,,,,,1.21,0.69,0.99,3*0E
$GNVTG,176.90,T,,M,1.638,N,3.034,K,A*22
$SMGPS,0.1 m,+0.07 m/s,7.25 VRx,0.003 km,2 m,202.6 °,1:-- (  0.0 km/h),471.4 m*95
$SMGPS2,-0.02 X,+0.22 Y,+0.67 Z,0 ENL,0 us,0.0 kmh,967.25 hPa,967.11 hPa,+0.08 m/s*05
$GNRMC,171136.30,A,4816.48151,N,01139.86466,E,1.25,180.37,080522,,,A,V*3E
$GNGNS,171136.30,4816.48151,N,01139.86466,E,AAAN,22,0.62,478.6,46.2,,,V*16
$GNGSA,A,3,01,14,08,10,32,21,22,03,27,,,,1.01,0.62,0.80,1*04
$GNGSA,A,3,81,65,88,66,87,,,,,,,,1.12,0.65,0.91,2*0E
$GNGSA,A,3,15,34,05,03,27,21,,,,,,,1.12,0.65,0.91,3*09
$GNVTG,180.37,T,,M,1.238,N,2.292,K,A*2D
$SMGPS,0.0 m,+0.08 m/s,7.25 VRx,0.003 km,2 m,202.6 °,1:-- (  0.0 km/h),471.7 m*98
$SMGPS2,+0.00 X,+0.47 Y,+0.83 Z,0 ENL,0 us,0.0 kmh,967.25 hPa,967.11 hPa,+0.09 m/s*09
$GNRMC,171136.40,A,4816.48146,N,01139.86465,E,0.79,,080522,,,A,V*27
$GNGNS,171136.40,4816.48146,N,01139.86465,E,AAAN,22,0.62,478.6,46.2,,,V*14
$GNGSA,A,3,01,14,08,10,32,21,22,03,27,,,,1.01,0.62,0.80,1*04
$GNGSA,A,3,81,65,88,66,82,87,,,,,,,1.01,0.62,0.80,2*01
$GNGSA,A,3,15,34,05,03,27,21,36,,,,,,1.01,0.62,0.80,3*09
$GNVTG,,T,,M,0.775,N,1.435,K,A*3B
$SMGPS,0.0 m,+0.09 m/s,7.25 VRx,0.003 km,2 m,202.6 °,1:-- (  0.0 km/h),471.8 m*96
$SMGPS2,-0.14 X,+0.54 Y,+0.98 Z,0 ENL,0 us,0.0 kmh,967.25 hPa,967.11 hPa,+0.10 m/s*0A
$GNRMC,171136.50,A,4816.48138,N,01139.86471,E,0.51,,080522,,,A,V*20
$GNGNS,171136.50,4816.48138,N,01139.86471,E,AAAN,21,0.63,478.6,46.2,,,V*1B
$GNGSA,A,3,01,14,08,10,32,21,22,03,27,,,,1.08,0.63,0.87,1*0B
$GNGSA,A,3,81,65,88,66,82,87,,,,,,,1.01,0.62,0.80,2*01
$GNGSA,A,3,15,34,05,03,27,21,36,,,,,,1.01,0.62,0.80,3*09
$GNVTG,,T,,M,0.487,N,0.901,K,A*3E
$SMGPS,0.0 m,+0.09 m/s,7.24 VRx,0.003 km,2 m,202.6 °,1:-- (  0.0 km/h),471.9 m*96
$SMGPS2,-0.06 X,+0.36 Y,+0.97 Z,0 ENL,0 us,0.0 kmh,967.25 hPa,967.11 hPa,+0.10 m/s*02
$GNRMC,171136.60,A,4816.48139,N,01139.86476,E,0.20,,080522,,,A,V*23
$GNGNS,171136.60,4816.48139,N,01139.86476,E,AAAN,20,0.66,478.6,46.2,,,V*1A
$GNGSA,A,3,01,14,08,10,32,21,22,03,27,,,,1.19,0.66,1.00,1*00
$GNGSA,A,3,81,65,88,66,82,87,,,,,,,1.08,0.63,0.87,2*0E
$GNGSA,A,3,15,34,05,03,27,21,,,,,,,1.08,0.63,0.87,3*03
$GNVTG,,T,,M,0.094,N,0.174,K,A*32
$SMGPS,0.0 m,+0.09 m/s,7.24 VRx,0.003 km,2 m,198.4 °,1:-- (  0.0 km/h),471.8 m*95
$SMGPS2,-0.09 X,+0.27 Y,+0.93 Z,0 ENL,0 us,0.0 kmh,967.25 hPa,967.10 hPa,+0.11 m/s*09
$GNRMC,171136.70,A,4816.48139,N,01139.86478,E,0.25,,080522,,,A,V*29
$GNGNS,171136.70,4816.48139,N,01139.86478,E,AAAN,20,0.66,478.6,46.2,,,V*15
$GNGSA,A,3,01,14,08,10,32,21,22,03,27,,,,1.19,0.66,1.00,1*00
$GNGSA,A,3,81,65,88,66,82,,,,,,,,1.19,0.66,1.00,2*0A
$GNGSA,A,3,15,34,05,03,27,21,,,,,,,1.19,0.66,1.00,3*08
$GNVTG,,T,,M,0.187,N,0.346,K,A*32
$SMGPS,0.0 m,+0.09 m/s,7.26 VRx,0.003 km,2 m,198.4 °,1:-- (  0.0 km/h),472.5 m*99
$SMGPS2,-0.05 X,+0.19 Y,+0.95 Z,0 ENL,0 us,0.0 kmh,967.25 hPa,967.11 hPa,+0.11 m/s*0F
$GNRMC,171136.80,A,4816.48139,N,01139.86484,E,0.23,,080522,,,A,V*23
$GNGNS,171136.80,4816.48139,N,01139.86484,E,AAAN,21,0.62,478.6,46.2,,,V*1C
$GNGSA,A,3,01,14,08,10,32,21,22,03,27,,,,1.12,0.62,0.94,1*03
$GNGSA,A,3,81,65,88,66,82,,,,,,,,1.19,0.66,1.00,2*0A
$GNGSA,A,3,15,34,05,03,27,21,,,,,,,1.19,0.66,1.00,3*08
$GNVTG,,T,,M,0.169,N,0.312,K,A*33
$SMGPS,0.0 m,+0.08 m/s,7.23 VRx,0.003 km,2 m,198.4 °,1:-- (  0.0 km/h),473.1 m*98
$SMGPS2,-0.03 X,+0.27 Y,+0.95 Z,0 ENL,0 us,0.0 kmh,967.25 hPa,967.11 hPa,+0.10 m/s*05
$GNRMC,171136.90,A,4816.48139,N,01139.86491,E,0.17,,080522,,,A,V*21
$GNGNS,171136.90,4816.48139,N,01139.86491,E,AAAN,21,0.62,478.6,46.2,,,V*19
$GNGSA,A,3,01,14,08,10,32,21,22,03,27,,,,1.12,0.62,0.94,1*03
$GNGSA,A,3,81,65,88,66,82,,,,,,,,1.12,0.62,0.94,2*09
$GNGSA,A,3,15,34,05,03,09,27,21,,,,,,1.12,0.62,0.94,3*02
$GNVTG,,T,,M,0.102,N,0.189,K,A*3E
$SMGPS,-0.0 m,+0.07 m/s,7.26 VRx,0.003 km,2 m,194.0 °,1:-- (  0.0 km/h),473.8 m*BE
$SMGPS2,+0.00 X,+0.34 Y,+1.03 Z,0 ENL,0 us,0.0 kmh,967.25 hPa,967.12 hPa,+0.09 m/s*07
$GNRMC,171137.00,A,4816.48144,N,01139.86497,E,0.28,,080522,,,A,V*29
$GNGNS,171137.00,4816.48144,N,01139.86497,E,AAAN,23,0.58,478.7,46.2,,,V*17
$GNGSA,A,3,01,14,08,10,32,21,22,03,27,,,,0.97,0.58,0.78,1*04
$GNGSA,A,3,81,65,88,66,82,,,,,,,,1.12,0.62,0.94,2*09
$GNGSA,A,3,15,34,05,03,09,27,21,,,,,,1.12,0.62,0.94,3*02
$GNVTG,,T,,M,0.259,N,0.479,K,A*39
$SMGPS,0.1 m,+0.06 m/s,7.23 VRx,0.003 km,2 m,194.0 °,1:-- (  0.0 km/h),474.2 m*9B
$SMGPS2,+0.03 X,+0.36 Y,+0.96 Z,0 ENL,0 us,0.0 kmh,967.24 hPa,967.11 hPa,+0.07 m/s*07
$GNRMC,171137.10,A,4816.48146,N,01139.86502,E,0.52,,080522,,,A,V*2A
$GNGNS,171137.10,4816.48146,N,01139.86502,E,AAAN,23,0.58,478.7,46.2,,,V*19
$GNGSA,A,3,01,14,08,10,32,21,22,03,27,,,,0.97,0.58,0.78,1*04
$GNGSA,A,3,81,65,88,66,82,87,,,,,,,0.97,0.58,0.78,2*01
$GNGSA,A,3,15,34,05,03,09,27,21,36,,,,,0.97,0.58,0.78,3*00
$GNVTG,,T,,M,0.509,N,0.943,K,A*3F
$SMGPS,0.1 m,+0.06 m/s,7.24 VRx,0.003 km,2 m,189.4 °,1:-- (  0.0 km/h),474.6 m*90
$SMGPS2,-0.03 X,+0.20 Y,+0.70 Z,0 ENL,0 us,0.0 kmh,967.24 hPa,967.10 hPa,+0.07 m/s*0F
$GNRMC,171137.20,A,4816.48148,N,01139.86508,E,0.48,,080522,,,A,V*26
$GNGNS,171137.20,4816.48148,N,01139.86508,E,AAAN,23,0.58,478.6,46.2,,,V*1F
$GNGSA,A,3,01,14,08,10,32,21,22,03,27,,,,0.97,0.58,0.78,1*04
$GNGSA,A,3,81,65,88,66,82,87,,,,,,,0.97,0.58,0.78,2*01
$GNGSA,A,3,15,34,05,03,09,27,21,36,,,,,0.97,0.58,0.78,3*00
$GNVTG,,T,,M,0.470,N,0.871,K,A*30
$SMGPS,0.0 m,+0.05 m/s,7.23 VRx,0.003 km,2 m,189.4 °,1:-- (  0.0 km/h),475.0 m*92
$SMGPS2,-0.14 X,+0.28 Y,+0.89 Z,0 ENL,0 us,0.0 kmh,967.25 hPa,967.10 hPa,+0.07 m/s*06
$GNRMC,171137.30,A,4816.48145,N,01139.86515,E,0.34,,080522,,,A,V*2D
$GNGNS,171137.30,4816.48145,N,01139.86515,E,AAAN,23,0.58,478.7,46.2,,,V*1E
$GNGSA,A,3,01,14,08,10,32,21,22,03,27,,,,0.97,0.58,0.78,1*04
$GNGSA,A,3,81,65,88,66,82,87,,,,,,,0.97,0.58,0.78,2*01
$GNGSA,A,3,15,34,05,03,09,27,21,36,,,,,0.97,0.58,0.78,3*00
$GNVTG,,T,,M,0.329,N,0.608,K,A*3B
$SMGPS,0.1 m,+0.05 m/s,7.26 VRx,0.003 km,2 m,184.8 °,1:-- (  0.0 km/h),475.1 m*96
$SMGPS2,-0.17 X,+0.36 Y,+1.02 Z,0 ENL,0 us,0.0 kmh,967.24 hPa,967.11 hPa,+0.06 m/s*09
$GNRMC,171137.40,A,4816.48142,N,01139.86520,E,0.19,,080522,,,A,V*24
$GNGNS,171137.40,4816.48142,N,01139.86520,E,AAAN,23,0.58,478.7,46.2,,,V*18
$GNGSA,A,3,01,14,08,10,32,21,22,03,27,,,,0.97,0.58,0.78,1*04
$GNGSA,A,3,81,65,88,66,82,87,,,,,,,0.97,0.58,0.78,2*01
$GNGSA,A,3,15,34,05,03,09,27,21,36,,,,,0.97,0.58,0.78,3*00
$GNVTG,,T,,M,0.159,N,0.295,K,A*3E
$SMGPS,0.1 m,+0.05 m/s,7.24 VRx,0.003 km,2 m,184.8 °,1:-- (  0.0 km/h),475.2 m*97
$SMGPS2,-0.06 X,+0.31 Y,+0.91 Z,0 ENL,0 us,0.0 kmh,967.24 hPa,967.10 hPa,+0.07 m/s*05
$GNRMC,171137.50,A,4816.48139,N,01139.86528,E,0.23,,080522,,,A,V*28
$GNGNS,171137.50,4816.48139,N,01139.86528,E,AAAN,23,0.58,478.7,46.2,,,V*1D
$GNGSA,A,3,01,14,08,10,32,21,22,03,27,,,,0.97,0.58,0.78,1*04
$GNGSA,A,3,81,65,88,66,82,87,,,,,,,0.97,0.58,0.78,2*01
$GNGSA,A,3,15,34,05,03,09,27,21,36,,,,,0.97,0.58,0.78,3*00
$GNVTG,,T,,M,0.202,N,0.374,K,A*3D
$SMGPS,0.1 m,+0.05 m/s,7.26 VRx,0.003 km,2 m,180.0 °,1:-- (  0.0 km/h),475.1 m*9A
$SMGPS2,-0.11 X,+0.37 Y,+0.87 Z,0 ENL,0 us,0.0 kmh,967.24 hPa,967.11 hPa,+0.07 m/s*03
$GNRMC,171137.60,A,4816.48139,N,01139.86533,E,0.15,,080522,,,A,V*24
$GNGNS,171137.60,4816.48139,N,01139.86533,E,AAAN,23,0.58,478.7,46.2,,,V*14
$GNGSA,A,3,01,14,08,10,32,21,22,03,27,,,,0.97,0.58,0.78,1*04
$GNGSA,A,3,81,65,88,66,82,87,,,,,,,0.97,0.58,0.78,2*01
$GNGSA,A,3,15,34,05,03,09,27,21,36,,,,,0.97,0.58,0.78,3*00
$GNVTG,,T,,M,0.113,N,0.209,K,A*35
$SMGPS,0.1 m,+0.05 m/s,7.25 VRx,0.003 km,2 m,180.0 °,1:-- (  0.0 km/h),475.0 m*98
$SMGPS2,-0.05 X,+0.27 Y,+0.91 Z,0 ENL,0 us,0.0 kmh,967.24 hPa,967.10 hPa,+0.07 m/s*01
$GNRMC,171137.70,A,4816.48139,N,01139.86542,E,0.10,,080522,,,A,V*26
$GNGNS,171137.70,4816.48139,N,01139.86542,E,AAAN,23,0.58,478.6,46.2,,,V*12
$GNGSA,A,3,01,14,08,10,32,21,22,03,27,,,,0.97,0.58,0.78,1*04
$GNGSA,A,3,81,65,88,66,82,87,,,,,,,0.97,0.58,0.78,2*01
$GNGSA,A,3,15,34,05,03,09,27,21,36,,,,,0.97,0.58,0.78,3*00
$GNVTG,,T,,M,0.031,N,0.057,K,A*3D
$SMGPS,0.0 m,+0.05 m/s,7.26 VRx,0.003 km,2 m,172.9 °,1:-- (  0.0 km/h),474.9 m*96
$SMGPS2,-0.05 X,+0.31 Y,+0.88 Z,0 ENL,0 us,0.0 kmh,967.25 hPa,967.10 hPa,+0.08 m/s*00
$GNRMC,171137.80,A,4816.48139,N,01139.86548,E,0.11,,080522,,,A,V*22
$GNGNS,171137.80,4816.48139,N,01139.86548,E,AAAN,23,0.58,478.7,46.2,,,V*16
$GNGSA,A,3,01,14,08,10,32,21,22,03,27,,,,0.97,0.58,0.78,1*04
$GNGSA,A,3,81,65,88,66,82,87,,,,,,,0.97,0.58,0.78,2*01
$GNGSA,A,3,15,34,05,03,09,27,21,36,,,,,0.97,0.58,0.78,3*00
$GNVTG,,T,,M,0.056,N,0.105,K,A*3A
$SMGPS,0.1 m,+0.05 m/s,7.24 VRx,0.003 km,2 m,168.3 °,1:-- (  0.0 km/h),475.0 m*9C
$SMGPS2,-0.04 X,+0.31 Y,+0.88 Z,1 ENL,0 us,0.0 kmh,967.24 hPa,967.10 hPa,+0.07 m/s*0E
$GNRMC,171137.90,A,4816.48139,N,01139.86553,E,0.19,,080522,,,A,V*21
$GNGNS,171137.90,4816.48139,N,01139.86553,E,AAAN,24,0.55,478.7,46.2,,,V*17
$GNGSA,A,3,01,14,08,10,32,21,22,03,27,,,,0.94,0.55,0.76,1*04
$GNGSA,A,3,81,65,88,66,82,87,,,,,,,0.97,0.58,0.78,2*01
$GNGSA,A,3,15,34,05,03,09,27,21,36,,,,,0.97,0.58,0.78,3*00
$GNVTG,,T,,M,0.164,N,0.303,K,A*3E
$SMGPS,0.1 m,+0.05 m/s,7.27 VRx,0.003 km,2 m,168.3 °,1:-- (  0.0 km/h),474.9 m*97
$SMGPS2,+0.01 X,+0.32 Y,+0.91 Z,0 ENL,0 us,0.0 kmh,967.24 hPa,967.10 hPa,+0.07 m/s*07
$GNRMC,171138.00,A,4816.48139,N,01139.86555,E,0.12,,080522,,,A,V*2A
$GNGNS,171138.00,4816.48139,N,01139.86555,E,AAAN,24,0.55,478.7,46.2,,,V*17
$GNGSA,A,3,01,14,08,10,32,21,22,03,27,,,,0.94,0.55,0.76,1*04
$GNGSA,A,3,81,65,88,66,82,72,87,,,,,,0.94,0.55,0.76,2*04
$GNGSA,A,3,15,34,05,03,09,27,21,36,,,,,0.94,0.55,0.76,3*00
$GNVTG,,T,,M,0.082,N,0.153,K,A*30
$SMGPS,0.1 m,+0.05 m/s,7.24 VRx,0.003 km,2 m,168.3 °,1:-- (  0.0 km/h),474.9 m*94
$SMGPS2,+0.01 X,+0.33 Y,+0.90 Z,0 ENL,0 us,0.0 kmh,967.24 hPa,967.10 hPa,+0.07 m/s*07
$GNRMC,171138.10,A,4816.48138,N,01139.86558,E,0.13,,080522,,,A,V*26
$GNGNS,171138.10,4816.48138,N,01139.86558,E,AAAN,24,0.55,478.7,46.2,,,V*1A
$GNGSA,A,3,01,14,08,10,32,21,22,03,27,,,,0.94,0.55,0.76,1*04
$GNGSA,A,3,81,65,88,66,82,72,87,,,,,,0.94,0.55,0.76,2*04
$GNGSA,A,3,15,34,05,03,09,27,21,36,,,,,0.94,0.55,0.76,3*00
$GNVTG,,T,,M,0.100,N,0.185,K,A*30
$SMGPS,0.1 m,+0.04 m/s,7.27 VRx,0.003 km,2 m,163.8 °,1:-- (  0.0 km/h),474.9 m*96
$SMGPS2,+0.03 X,+0.40 Y,+0.87 Z,0 ENL,0 us,0.0 kmh,967.24 hPa,967.10 hPa,+0.06 m/s*06
$GNRMC,171138.20,A,4816.48135,N,01139.86561,E,0.08,,080522,,,A,V*28
$GNGNS,171138.20,4816.48135,N,01139.86561,E,AAAN,24,0.55,478.7,46.2,,,V*1E
$GNGSA,A,3,01,14,08,10,32,21,22,03,27,,,,0.94,0.55,0.76,1*04
$GNGSA,A,3,81,65,88,66,82,72,87,,,,,,0.94,0.55,0.76,2*04
$GNGSA,A,3,15,34,05,03,09,27,21,36,,,,,0.94,0.55,0.76,3*00
$GNVTG,,T,,M,0.025,N,0.046,K,A*38
$SMGPS,0.1 m,+0.04 m/s,7.24 VRx,0.003 km,2 m,163.8 °,1:-- (  0.0 km/h),474.8 m*94
$SMGPS2,+0.07 X,+0.41 Y,+0.87 Z,0 ENL,0 us,0.0 kmh,967.24 hPa,967.10 hPa,+0.06 m/s*03
$GNRMC,171138.30,A,4816.48130,N,01139.86562,E,0.10,,080522,,,A,V*26
$GNGNS,171138.30,4816.48130,N,01139.86562,E,AAAN,24,0.55,478.7,46.2,,,V*19
$GNGSA,A,3,01,14,08,10,32,21,22,03,27,,,,0.94,0.55,0.76,1*04
$GNGSA,A,3,81,65,88,66,82,72,87,,,,,,0.94,0.55,0.76,2*04
$GNGSA,A,3,15,34,05,03,09,27,21,36,,,,,0.94,0.55,0.76,3*00
$GNVTG,,T,,M,0.070,N,0.130,K,A*38
$SMGPS,0.1 m,+0.04 m/s,7.27 VRx,0.003 km,2 m,163.8 °,1:-- (  0.0 km/h),474.7 m*98
$SMGPS2,+0.01 X,+0.40 Y,+0.89 Z,0 ENL,0 us,0.0 kmh,967.24 hPa,967.10 hPa,+0.06 m/s*0A
$GNRMC,171138.40,A,4816.48128,N,01139.86563,E,0.16,,080522,,,A,V*2F
$GNGNS,171138.40,4816.48128,N,01139.86563,E,AAAN,24,0.55,478.7,46.2,,,V*16
$GNGSA,A,3,01,14,08,10,32,21,22,03,27,,,,0.94,0.55,0.76,1*04
$GNGSA,A,3,81,65,88,66,82,72,87,,,,,,0.94,0.55,0.76,2*04
$GNGSA,A,3,15,34,05,03,09,27,21,36,,,,,0.94,0.55,0.76,3*00
$GNVTG,,T,,M,0.150,N,0.278,K,A*34
$SMGPS,0.1 m,+0.03 m/s,7.24 VRx,0.003 km,2 m,163.8 °,1:-- (  0.0 km/h),474.5 m*9E
$SMGPS2,+0.03 X,+0.39 Y,+0.88 Z,0 ENL,0 us,0.0 kmh,967.24 hPa,967.10 hPa,+0.06 m/s*07
$GNRMC,171138.50,A,4816.48124,N,01139.86563,E,0.08,,080522,,,A,V*2D
$GNGNS,171138.50,4816.48124,N,01139.86563,E,AAAN,24,0.55,478.6,46.2,,,V*1A
$GNGSA,A,3,01,14,08,10,32,21,22,03,27,,,,0.94,0.55,0.76,1*04
$GNGSA,A,3,81,65,88,66,82,72,87,,,,,,0.94,0.55,0.76,2*04
$GNGSA,A,3,15,34,05,03,09,27,21,36,,,,,0.94,0.55,0.76,3*00
$GNVTG,,T,,M,0.069,N,0.127,K,A*36
$SMGPS,0.0 m,+0.02 m/s,7.28 VRx,0.003 km,2 m,163.8 °,1:-- (  0.0 km/h),474.4 m*93
$SMGPS2,+0.05 X,+0.42 Y,+0.84 Z,0 ENL,0 us,0.0 kmh,967.25 hPa,967.10 hPa,+0.05 m/s*03
$GNRMC,171138.60,A,4816.48119,N,01139.86562,E,0.05,,080522,,,A,V*2C
$GNGNS,171138.60,4816.48119,N,01139.86562,E,AAAN,24,0.55,478.6,46.2,,,V*16
$GNGSA,A,3,01,14,08,10,32,21,22,03,27,,,,0.94,0.55,0.76,1*04
$GNGSA,A,3,81,65,88,66,82,72,87,,,,,,0.94,0.55,0.76,2*04
$GNGSA,A,3,15,34,05,03,09,27,21,36,,,,,0.94,0.55,0.76,3*00
$GNVTG,,T,,M,0.043,N,0.079,K,A*34
$SMGPS,0.0 m,+0.02 m/s,7.26 VRx,0.003 km,2 m,163.8 °,1:-- (  0.0 km/h),474.3 m*9A
$SMGPS2,+0.01 X,+0.46 Y,+0.87 Z,0 ENL,0 us,0.0 kmh,967.25 hPa,967.11 hPa,+0.05 m/s*01
$GNRMC,171138.70,A,4816.48114,N,01139.86564,E,0.09,,080522,,,A,V*2A
$GNGNS,171138.70,4816.48114,N,01139.86564,E,AAAN,25,0.53,478.6,46.2,,,V*1B
$GNGSA,A,3,01,14,08,10,32,21,22,03,27,,,,0.91,0.53,0.73,1*02
$GNGSA,A,3,81,65,88,66,82,72,87,,,,,,0.94,0.55,0.76,2*04
$GNGSA,A,3,15,34,05,03,09,27,21,36,,,,,0.94,0.55,0.76,3*00
$GNVTG,,T,,M,0.089,N,0.164,K,A*3F
$SMGPS,0.0 m,+0.01 m/s,7.26 VRx,0.003 km,3 m,170.6 °,1:-- (  0.0 km/h),474.2 m*95
$SMGPS2,+0.00 X,+0.37 Y,+0.92 Z,0 ENL,0 us,0.0 kmh,967.25 hPa,967.10 hPa,+0.04 m/s*02
$GNRMC,171138.80,A,4816.48111,N,01139.86566,E,0.15,,080522,,,A,V*2F
$GNGNS,171138.80,4816.48111,N,01139.86566,E,AAAN,25,0.53,478.7,46.2,,,V*12
$GNGSA,A,3,01,14,08,10,32,21,22,03,27,,,,0.91,0.53,0.73,1*02
$GNGSA,A,3,81,65,88,66,82,72,87,73,,,,,0.91,0.53,0.73,2*06
$GNGSA,A,3,15,34,05,03,09,27,21,36,,,,,0.91,0.53,0.73,3*06
$GNVTG,,T,,M,0.151,N,0.280,K,A*32
$SMGPS,0.1 m,+0.01 m/s,7.25 VRx,0.003 km,3 m,170.6 °,1:-- (  0.0 km/h),474.2 m*97
$SMGPS2,+0.02 X,+0.38 Y,+0.85 Z,0 ENL,0 us,0.0 kmh,967.24 hPa,967.11 hPa,+0.03 m/s*0E
$GNRMC,171138.90,A,4816.48110,N,01139.86567,E,0.05,,080522,,,A,V*2F
$GNGNS,171138.90,4816.48110,N,01139.86567,E,AAAN,24,0.55,478.6,46.2,,,V*15
$GNGSA,A,3,01,14,08,10,32,21,22,03,27,,,,0.94,0.55,0.76,1*04
$GNGSA,A,3,81,65,88,66,82,72,87,73,,,,,0.91,0.53,0.73,2*06
$GNGSA,A,3,15,34,05,03,09,27,21,36,,,,,0.91,0.53,0.73,3*06
$GNVTG,,T,,M,0.046,N,0.086,K,A*31
$SMGPS,0.0 m,+0.01 m/s,7.27 VRx,0.003 km,3 m,170.6 °,1:-- (  0.0 km/h),474.1 m*97
$SMGPS2,-0.01 X,+0.40 Y,+0.86 Z,0 ENL,0 us,0.0 kmh,967.25 hPa,967.10 hPa,+0.03 m/s*07
$GNRMC,171139.00,A,4816.48108,N,01139.86569,E,0.16,,080522,,,A,V*22
$GNGNS,171139.00,4816.48108,N,01139.86569,E,AAAN,25,0.53,478.6,46.2,,,V*1D
$GNGSA,A,3,01,14,08,10,32,21,22,03,27,,,,0.91,0.53,0.73,1*02
$GNGSA,A,3,81,65,88,66,82,72,87,,,,,,0.94,0.55,0.76,2*04
$GNGSA,A,3,15,34,05,03,09,27,21,36,,,,,0.94,0.55,0.76,3*00
$GNVTG,,T,,M,0.158,N,0.293,K,A*39
$SMGPS,0.0 m,+0.00 m/s,7.25 VRx,0.003 km,3 m,167.9 °,1:-- (  0.0 km/h),474.0 m*9C
$SMGPS2,-0.01 X,+0.37 Y,+0.90 Z,0 ENL,0 us,0.0 kmh,967.25 hPa,967.10 hPa,+0.02 m/s*01
$GNRMC,171139.10,A,4816.48107,N,01139.86571,E,0.13,,080522,,,A,V*20
$GNGNS,171139.10,4816.48107,N,01139.86571,E,AAAN,25,0.53,478.6,46.2,,,V*1A
$GNGSA,A,3,01,14,08,10,32,21,22,03,27,,,,0.91,0.53,0.73,1*02
$GNGSA,A,3,81,65,88,66,82,72,87,73,,,,,0.91,0.53,0.73,2*06
$GNGSA,A,3,15,34,05,03,09,27,21,36,,,,,0.91,0.53,0.73,3*06
$GNVTG,,T,,M,0.132,N,0.245,K,A*3E
$SMGPS,0.0 m,-0.00 m/s,7.27 VRx,0.003 km,3 m,167.9 °,1:-- (  0.0 km/h),473.9 m*96
$SMGPS2,-0.00 X,+0.44 Y,+0.91 Z,0 ENL,0 us,0.0 kmh,967.25 hPa,967.11 hPa,+0.01 m/s*07
$GNRMC,171139.20,A,4816.48105,N,01139.86574,E,0.07,,080522,,,A,V*21
$GNGNS,171139.20,4816.48105,N,01139.86574,E,AAAN,25,0.53,478.6,46.2,,,V*1E
$GNGSA,A,3,01,14,08,10,32,21,22,03,27,,,,0.91,0.53,0.73,1*02
$GNGSA,A,3,81,65,88,66,82,72,87,73,,,,,0.91,0.53,0.73,2*06
$GNGSA,A,3,15,34,05,03,09,27,21,36,,,,,0.91,0.53,0.73,3*06
$GNVTG,,T,,M,0.067,N,0.124,K,A*3B
$SMGPS,0.0 m,+0.00 m/s,7.24 VRx,0.003 km,3 m,167.9 °,1:-- (  0.0 km/h),473.8 m*92
$SMGPS2,+0.01 X,+0.42 Y,+0.88 Z,0 ENL,0 us,0.0 kmh,967.24 hPa,967.11 hPa,-0.00 m/s*08
$GNRMC,171139.30,A,4816.48103,N,01139.86579,E,0.05,,080522,,,A,V*29
$GNGNS,171139.30,4816.48103,N,01139.86579,E,AAAN,25,0.53,478.6,46.2,,,V*14
$GNGSA,A,3,01,14,08,10,32,21,22,03,27,,,,0.91,0.53,0.73,1*02
$GNGSA,A,3,81,65,88,66,82,72,87,73,,,,,0.91,0.53,0.73,2*06
$GNGSA,A,3,15,34,05,03,09,27,21,36,,,,,0.91,0.53,0.73,3*06
$GNVTG,,T,,M,0.050,N,0.093,K,A*32
$SMGPS,0.0 m,+0.01 m/s,7.28 VRx,0.003 km,3 m,167.9 °,1:-- (  0.0 km/h),473.8 m*9F
$SMGPS2,-0.00 X,+0.39 Y,+0.86 Z,0 ENL,0 us,0.0 kmh,967.24 hPa,967.11 hPa,-0.01 m/s*0C
$GNRMC,171139.40,A,4816.48103,N,01139.86582,E,0.08,,080522,,,A,V*27
$GNGNS,171139.40,4816.48103,N,01139.86582,E,AAAN,25,0.53,478.6,46.2,,,V*17
$GNGSA,A,3,01,14,08,10,32,21,22,03,27,,,,0.91,0.53,0.73,1*02
$GNGSA,A,3,81,65,88,66,82,72,87,73,,,,,0.91,0.53,0.73,2*06
$GNGSA,A,3,15,34,05,03,09,27,21,36,,,,,0.91,0.53,0.73,3*06
$GNVTG,,T,,M,0.078,N,0.145,K,A*32
$SMGPS,0.0 m,+0.01 m/s,7.24 VRx,0.003 km,3 m,165.3 °,1:-- (  0.0 km/h),473.7 m*94
$SMGPS2,-0.00 X,+0.40 Y,+0.86 Z,0 ENL,0 us,0.0 kmh,967.24 hPa,967.11 hPa,-0.01 m/s*02
$GNRMC,171139.50,A,4816.48102,N,01139.86585,E,0.08,,080522,,,A,V*20
$GNGNS,171139.50,4816.48102,N,01139.86585,E,AAAN,25,0.53,478.6,46.2,,,V*10
$GNGSA,A,3,01,14,08,10,32,21,22,03,27,,,,0.91,0.53,0.73,1*02
$GNGSA,A,3,81,65,88,66,82,72,87,73,,,,,0.91,0.53,0.73,2*06
$GNGSA,A,3,15,34,05,03,09,27,21,36,,,,,0.91,0.53,0.73,3*06
$GNVTG,,T,,M,0.076,N,0.141,K,A*38
$SMGPS,0.0 m,+0.00 m/s,7.28 VRx,0.003 km,3 m,165.3 °,1:-- (  0.0 km/h),473.7 m*99
$SMGPS2,-0.01 X,+0.41 Y,+0.88 Z,0 ENL,0 us,0.0 kmh,967.24 hPa,967.11 hPa,-0.01 m/s*0C
$GNRMC,171139.60,A,4816.48102,N,01139.86588,E,0.03,,080522,,,A,V*25
$GNGNS,171139.60,4816.48102,N,01139.86588,E,AAAN,25,0.53,478.5,46.2,,,V*1D
$GNGSA,A,3,01,14,08,10,32,21,22,03,27,,,,0.91,0.53,0.73,1*02
$GNGSA,A,3,81,65,88,66,82,72,87,73,,,,,0.91,0.53,0.73,2*06
$GNGSA,A,3,15,34,05,03,09,27,21,36,,,,,0.91,0.53,0.73,3*06
$GNVTG,,T,,M,0.026,N,0.048,K,A*35
$SMGPS,-0.1 m,+0.00 m/s,7.24 VRx,0.003 km,3 m,165.3 °,1:-- (  0.0 km/h),473.7 m*B9
$SMGPS2,-0.01 X,+0.41 Y,+0.88 Z,0 ENL,0 us,0.0 kmh,967.25 hPa,967.11 hPa,-0.01 m/s*0D
$GNRMC,171139.70,A,4816.48101,N,01139.86592,E,0.09,,080522,,,A,V*26
$GNGNS,171139.70,4816.48101,N,01139.86592,E,AAAN,25,0.53,478.6,46.2,,,V*17
$GNGSA,A,3,01,14,08,10,32,21,22,03,27,,,,0.91,0.53,0.73,1*02
$GNGSA,A,3,81,65,88,66,82,72,87,73,,,,,0.91,0.53,0.73,2*06
$GNGSA,A,3,15,34,05,03,09,27,21,36,,,,,0.91,0.53,0.73,3*06
$GNVTG,,T,,M,0.094,N,0.174,K,A*32
$SMGPS,0.0 m,+0.00 m/s,7.25 VRx,0.003 km,3 m,165.3 °,1:-- (  0.0 km/h),473.7 m*94
$SMGPS2,+0.02 X,+0.40 Y,+0.88 Z,0 ENL,0 us,0.0 kmh,967.24 hPa,967.11 hPa,-0.01 m/s*08
$GNRMC,171139.80,A,4816.48100,N,01139.86595,E,0.02,,080522,,,A,V*24
$GNGNS,171139.80,4816.48100,N,01139.86595,E,AAAN,25,0.53,478.6,46.2,,,V*1E
$GNGSA,A,3,01,14,08,10,32,21,22,03,27,,,,0.91,0.53,0.73,1*02
$GNGSA,A,3,81,65,88,66,82,72,87,73,,,,,0.91,0.53,0.73,2*06
$GNGSA,A,3,15,34,05,03,09,27,21,36,,,,,0.91,0.53,0.73,3*06
$GNVTG,,T,,M,0.018,N,0.033,K,A*34
$SMGPS,0.0 m,+0.00 m/s,7.23 VRx,0.003 km,3 m,162.8 °,1:-- (  0.0 km/h),473.7 m*9E
$SMGPS2,-0.06 X,+0.42 Y,+0.89 Z,0 ENL,0 us,0.0 kmh,967.24 hPa,967.11 hPa,-0.01 m/s*09
$GNRMC,171139.90,A,4816.48099,N,01139.86598,E,0.08,,080522,,,A,V*23
$GNGNS,171139.90,4816.48099,N,01139.86598,E,AAAN,25,0.53,478.6,46.2,,,V*13
$GNGSA,A,3,01,14,08,10,32,21,22,03,27,,,,0.91,0.53,0.73,1*02
$GNGSA,A,3,81,65,88,66,82,72,87,73,,,,,0.91,0.53,0.73,2*06
$GNGSA,A,3,15,34,05,03,09,27,21,36,,,,,0.91,0.53,0.73,3*06
$GNVTG,,T,,M,0.079,N,0.147,K,A*31
$SMGPS,0.0 m,+0.00 m/s,7.25 VRx,0.003 km,3 m,162.8 °,1:-- (  0.0 km/h),473.7 m*98
$SMGPS2,-0.02 X,+0.42 Y,+0.87 Z,0 ENL,0 us,0.0 kmh,967.24 hPa,967.11 hPa,-0.01 m/s*03
$GNRMC,171140.00,A,4816.48099,N,01139.86599,E,0.11,,080522,,,A,V*2D
$GNGNS,171140.00,4816.48099,N,01139.86599,E,AAAN,25,0.53,478.6,46.2,,,V*15
$GNGSA,A,3,01,14,08,10,32,21,22,03,27,,,,0.91,0.53,0.73,1*02
$GNGSA,A,3,81,65,88,66,82,72,87,73,,,,,0.91,0.53,0.73,2*06
$GNGSA,A,3,15,34,05,03,09,27,21,36,,,,,0.91,0.53,0.73,3*06
$GNVTG,,T,,M,0.105,N,0.194,K,A*35
$SMGPS,-0.0 m,-0.00 m/s,7.24 VRx,0.003 km,3 m,162.8 °,1:-- (  0.0 km/h),473.7 m*B2
$SMGPS2,-0.01 X,+0.39 Y,+0.86 Z,0 ENL,0 us,0.0 kmh,967.25 hPa,967.11 hPa,-0.01 m/s*0C
$GNRMC,171140.10,A,4816.48099,N,01139.86601,E,0.11,,080522,,,A,V*2E
$GNGNS,171140.10,4816.48099,N,01139.86601,E,AAAN,25,0.53,478.6,46.2,,,V*16
$GNGSA,A,3,01,14,08,10,32,21,22,03,27,,,,0.91,0.53,0.73,1*02
$GNGSA,A,3,81,65,88,66,82,72,87,73,,,,,0.91,0.53,0.73,2*06
$GNGSA,A,3,15,34,05,03,09,27,21,36,,,,,0.91,0.53,0.73,3*06
$GNVTG,,T,,M,0.109,N,0.202,K,A*35
$SMGPS,-0.0 m,-0.01 m/s,7.24 VRx,0.003 km,3 m,162.8 °,1:-- (  0.0 km/h),473.7 m*B3
$SMGPS2,-0.03 X,+0.41 Y,+0.88 Z,0 ENL,0 us,0.0 kmh,967.25 hPa,967.11 hPa,-0.01 m/s*0F
$GNRMC,171140.20,A,4816.48099,N,01139.86602,E,0.03,,080522,,,A,V*2D
$GNGNS,171140.20,4816.48099,N,01139.86602,E,AAAN,25,0.53,478.6,46.2,,,V*16
$GNGSA,A,3,01,14,08,10,32,21,22,03,27,,,,0.91,0.53,0.73,1*02
$GNGSA,A,3,81,65,88,66,82,72,87,73,,,,,0.91,0.53,0.73,2*06
$GNGSA,A,3,15,34,05,03,09,27,21,36,,,,,0.91,0.53,0.73,3*06
$GNVTG,,T,,M,0.020,N,0.038,K,A*34
$SMGPS,-0.0 m,-0.01 m/s,7.23 VRx,0.003 km,3 m,162.8 °,1:-- (  0.0 km/h),473.7 m*B4
$SMGPS2,-0.02 X,+0.43 Y,+0.88 Z,0 ENL,0 us,0.0 kmh,967.25 hPa,967.11 hPa,-0.01 m/s*0C
$GNRMC,171140.30,A,4816.48098,N,01139.86603,E,0.12,,080522,,,A,V*2C
$GNGNS,171140.30,4816.48098,N,01139.86603,E,AAAN,25,0.53,478.6,46.2,,,V*17
$GNGSA,A,3,01,14,08,10,32,21,22,03,27,,,,0.91,0.53,0.73,1*02
$GNGSA,A,3,81,65,88,66,82,72,87,73,,,,,0.91,0.53,0.73,2*06
$GNGSA,A,3,15,34,05,03,09,27,21,36,,,,,0.91,0.53,0.73,3*06
$GNVTG,,T,,M,0.118,N,0.219,K,A*3F
$SMGPS,-0.0 m,-0.01 m/s,7.25 VRx,0.003 km,3 m,162.8 °,1:-- (  0.0 km/h),473.7 m*B2
$SMGPS2,+0.02 X,+0.46 Y,+0.89 Z,0 ENL,0 us,0.0 kmh,967.25 hPa,967.11 hPa,-0.02 m/s*0D
$GNRMC,171140.40,A,4816.48099,N,01139.86605,E,0.03,,080522,,,A,V*2C
$GNGNS,171140.40,4816.48099,N,01139.86605,E,AAAN,25,0.53,478.6,46.2,,,V*17
$GNGSA,A,3,01,14,08,10,32,21,22,03,27,,,,0.91,0.53,0.73,1*02
$GNGSA,A,3,81,65,88,66,82,72,87,73,,,,,0.91,0.53,0.73,2*06
$GNGSA,A,3,15,34,05,03,09,27,21,36,,,,,0.91,0.53,0.73,3*06
$GNVTG,,T,,M,0.025,N,0.047,K,A*39
$SMGPS,-0.0 m,-0.01 m/s,7.23 VRx,0.003 km,3 m,160.4 °,1:-- (  0.0 km/h),473.7 m*BA
$SMGPS2,-0.06 X,+0.37 Y,+0.85 Z,0 ENL,0 us,0.0 kmh,967.25 hPa,967.11 hPa,-0.01 m/s*06
$GNRMC,171140.50,A,4816.48099,N,01139.86607,E,0.11,,080522,,,A,V*2C
$GNGNS,171140.50,4816.48099,N,01139.86607,E,AAAN,25,0.53,478.6,46.2,,,V*14
$GNGSA,A,3,01,14,08,10,32,21,22,03,27,,,,0.91,0.53,0.73,1*02
$GNGSA,A,3,81,65,88,66,82,72,87,73,,,,,0.91,0.53,0.73,2*06
$GNGSA,A,3,15,34,05,03,09,27,21,36,,,,,0.91,0.53,0.73,3*06
$GNVTG,,T,,M,0.106,N,0.196,K,A*34
$SMGPS,-0.0 m,-0.01 m/s,7.26 VRx,0.003 km,3 m,160.4 °,1:-- (  0.0 km/h),473.8 m*B0
$SMGPS2,+0.00 X,+0.40 Y,+0.85 Z,0 ENL,0 us,0.0 kmh,967.25 hPa,967.11 hPa,-0.02 m/s*05
$GNRMC,171140.60,A,4816.48100,N,01139.86609,E,0.14,,080522,,,A,V*25
$GNGNS,171140.60,4816.48100,N,01139.86609,E,AAAN,25,0.53,478.6,46.2,,,V*18
$GNGSA,A,3,01,14,08,10,32,21,22,03,27,,,,0.91,0.53,0.73,1*02
$GNGSA,A,3,81,65,88,66,82,72,87,73,,,,,0.91,0.53,0.73,2*06
$GNGSA,A,3,15,34,05,03,09,27,21,36,,,,,0.91,0.53,0.73,3*06
$GNVTG,,T,,M,0.143,N,0.264,K,A*3B
$SMGPS,-0.0 m,-0.01 m/s,7.22 VRx,0.003 km,3 m,160.4 °,1:-- (  0.0 km/h),473.8 m*B4
$SMGPS2,-0.06 X,+0.43 Y,+0.87 Z,0 ENL,0 us,0.0 kmh,967.25 hPa,967.11 hPa,-0.02 m/s*04
$GNRMC,171140.70,A,4816.48101,N,01139.86611,E,0.05,,080522,,,A,V*2C
$GNGNS,171140.70,4816.48101,N,01139.86611,E,AAAN,25,0.53,478.6,46.2,,,V*11
$GNGSA,A,3,01,14,08,10,32,21,22,03,27,,,,0.91,0.53,0.73,1*02
$GNGSA,A,3,81,65,88,66,82,72,87,73,,,,,0.91,0.53,0.73,2*06
$GNGSA,A,3,15,34,05,03,09,27,21,36,,,,,0.91,0.53,0.73,3*06
$GNVTG,,T,,M,0.048,N,0.090,K,A*38
$SMGPS,0.0 m,-0.01 m/s,7.25 VRx,0.003 km,3 m,160.4 °,1:-- (  0.0 km/h),473.8 m*9E
$SMGPS2,-0.03 X,+0.44 Y,+0.89 Z,0 ENL,0 us,0.0 kmh,967.25 hPa,967.11 hPa,-0.03 m/s*09
$GNRMC,171140.80,A,4816.48101,N,01139.86612,E,0.23,,080522,,,A,V*24
$GNGNS,171140.80,4816.48101,N,01139.86612,E,AAAN,25,0.53,478.6,46.2,,,V*1D
$GNGSA,A,3,01,14,08,10,32,21,22,03,27,,,,0.91,0.53,0.73,1*02
$GNGSA,A,3,81,65,88,66,82,72,87,73,,,,,0.91,0.53,0.73,2*06
$GNGSA,A,3,15,34,05,03,09,27,21,36,,,,,0.91,0.53,0.73,3*06
$GNVTG,,T,,M,0.232,N,0.430,K,A*39
$SMGPS,0.0 m,-0.01 m/s,7.23 VRx,0.003 km,3 m,160.4 °,1:-- (  0.0 km/h),473.8 m*98
$SMGPS2,-0.06 X,+0.45 Y,+0.89 Z,0 ENL,0 us,0.0 kmh,967.24 hPa,967.11 hPa,-0.02 m/s*0D
$GNRMC,171140.90,A,4816.48102,N,01139.86615,E,0.23,,080522,,,A,V*21
$GNGNS,171140.90,4816.48102,N,01139.86615,E,AAAN,25,0.53,478.6,46.2,,,V*18
$GNGSA,A,3,01,14,08,10,32,21,22,03,27,,,,0.91,0.53,0.73,1*02
$GNGSA,A,3,81,65,88,66,82,72,87,73,,,,,0.91,0.53,0.73,2*06
$GNGSA,A,3,15,34,05,03,09,27,21,36,,,,,0.91,0.53,0.73,3*06
$GNVTG,,T,,M,0.234,N,0.434,K,A*3B
$SMGPS,-0.0 m,-0.01 m/s,7.26 VRx,0.003 km,3 m,160.4 °,1:-- (  0.0 km/h),473.8 m*B0
$SMGPS2,-0.05 X,+0.47 Y,+0.86 Z,0 ENL,0 us,0.0 kmh,967.25 hPa,967.11 hPa,-0.02 m/s*02
$GNRMC,171141.00,A,4816.48104,N,01139.86616,E,0.06,,080522,,,A,V*2B
$GNGNS,171141.00,4816.48104,N,01139.86616,E,AAAN,25,0.53,478.6,46.2,,,V*15
$GNGSA,A,3,01,14,08,10,32,21,22,03,27,,,,0.91,0.53,0.73,1*02
$GNGSA,A,3,81,65,88,66,82,72,87,73,,,,,0.91,0.53,0.73,2*06
$GNGSA,A,3,15,34,05,03,09,27,21,36,,,,,0.91,0.53,0.73,3*06
$GNVTG,,T,,M,0.055,N,0.102,K,A*3E
$SMGPS,0.0 m,-0.01 m/s,7.23 VRx,0.003 km,3 m,156.8 °,1:-- (  0.0 km/h),473.8 m*91
$SMGPS2,+0.04 X,+0.40 Y,+0.85 Z,0 ENL,0 us,0.0 kmh,967.25 hPa,967.11 hPa,-0.02 m/s*01
$GNRMC,171141.10,A,4816.48105,N,01139.86618,E,0.16,,080522,,,A,V*24
$GNGNS,171141.10,4816.48105,N,01139.86618,E,AAAN,25,0.53,478.6,46.2,,,V*1B
$GNGSA,A,3,01,14,08,10,32,21,22,03,27,,,,0.91,0.53,0.73,1*02
$GNGSA,A,3,81,65,88,66,82,72,87,73,,,,,0.91,0.53,0.73,2*06
$GNGSA,A,3,15,34,05,03,09,27,21,36,,,,,0.91,0.53,0.73,3*06
$GNVTG,,T,,M,0.160,N,0.295,K,A*34
$SMGPS,-0.0 m,-0.01 m/s,7.25 VRx,0.003 km,3 m,156.8 °,1:-- (  0.0 km/h),473.8 m*BA
$SMGPS2,-0.03 X,+0.59 Y,+0.95 Z,0 ENL,0 us,0.0 kmh,967.25 hPa,967.10 hPa,-0.02 m/s*08
$GNRMC,171141.20,A,4816.48106,N,01139.86621,E,0.10,,080522,,,A,V*28
$GNGNS,171141.20,4816.48106,N,01139.86621,E,AAAN,25,0.53,478.6,46.2,,,V*11
$GNGSA,A,3,01,14,08,10,32,21,22,03,27,,,,0.91,0.53,0.73,1*02
$GNGSA,A,3,81,65,88,66,82,72,87,73,,,,,0.91,0.53,0.73,2*06
$GNGSA,A,3,15,34,05,03,09,27,21,36,,,,,0.91,0.53,0.73,3*06
$GNVTG,,T,,M,0.101,N,0.186,K,A*32
$SMGPS,0.0 m,-0.00 m/s,7.24 VRx,0.003 km,3 m,156.8 °,1:-- (  0.0 km/h),473.8 m*97
$SMGPS2,-0.02 X,+0.41 Y,+0.82 Z,0 ENL,0 us,0.0 kmh,967.24 hPa,967.11 hPa,-0.01 m/s*05
$GNRMC,171141.30,A,4816.48106,N,01139.86623,E,0.27,,080522,,,A,V*2F
$GNGNS,171141.30,4816.48106,N,01139.86623,E,AAAN,25,0.53,478.6,46.2,,,V*12
$GNGSA,A,3,01,14,08,10,32,21,22,03,27,,,,0.91,0.53,0.73,1*02
$GNGSA,A,3,81,65,88,66,82,72,87,73,,,,,0.91,0.53,0.73,2*06
$GNGSA,A,3,15,34,05,03,09,27,21,36,,,,,0.91,0.53,0.73,3*06
$GNVTG,,T,,M,0.268,N,0.496,K,A*3A
$SMGPS,0.0 m,-0.00 m/s,7.25 VRx,0.003 km,3 m,156.8 °,1:-- (  0.0 km/h),473.7 m*99
$SMGPS2,+0.06 X,+0.34 Y,+0.76 Z,0 ENL,0 us,0.0 kmh,967.24 hPa,967.11 hPa,+0.00 m/s*09
$GNRMC,171141.40,A,4816.48108,N,01139.86624,E,0.18,,080522,,,A,V*2D
$GNGNS,171141.40,4816.48108,N,01139.86624,E,AAAN,25,0.53,478.6,46.2,,,V*1C
$GNGSA,A,3,01,14,08,10,32,21,22,03,27,,,,0.91,0.53,0.73,1*02
$GNGSA,A,3,81,65,88,66,82,72,87,73,,,,,0.91,0.53,0.73,2*06
$GNGSA,A,3,15,34,05,03,09,27,21,36,,,,,0.91,0.53,0.73,3*06
$GNVTG,,T,,M,0.180,N,0.333,K,A*37
$SMGPS,0.0 m,+0.00 m/s,7.24 VRx,0.003 km,3 m,156.8 °,1:-- (  0.0 km/h),473.7 m*9E
$SMGPS2,-0.04 X,+0.42 Y,+0.88 Z,0 ENL,0 us,0.0 kmh,967.24 hPa,967.11 hPa,+0.01 m/s*0C
$GNRMC,171141.50,A,4816.48108,N,01139.86626,E,0.18,,080522,,,A,V*2E
$GNGNS,171141.50,4816.48108,N,01139.86626,E,AAAN,25,0.53,478.6,46.2,,,V*1F
$GNGSA,A,3,01,14,08,10,32,21,22,03,27,,,,0.91,0.53,0.73,1*02
$GNGSA,A,3,81,65,88,66,82,72,87,73,,,,,0.91,0.53,0.73,2*06
$GNGSA,A,3,15,34,05,03,09,27,21,36,,,,,0.91,0.53,0.73,3*06
$GNVTG,,T,,M,0.175,N,0.323,K,A*3C
$SMGPS,0.0 m,+0.01 m/s,7.25 VRx,0.003 km,3 m,156.8 °,1:-- (  0.0 km/h),473.7 m*9E
$SMGPS2,+0.05 X,+0.41 Y,+0.88 Z,0 ENL,0 us,0.0 kmh,967.24 hPa,967.11 hPa,+0.01 m/s*08
$GNRMC,171141.60,A,4816.48109,N,01139.86626,E,0.21,,080522,,,A,V*26
$GNGNS,171141.60,4816.48109,N,01139.86626,E,AAAN,25,0.53,478.6,46.2,,,V*1D
$GNGSA,A,3,01,14,08,10,32,21,22,03,27,,,,0.91,0.53,0.73,1*02
$GNGSA,A,3,81,65,88,66,82,72,87,73,,,,,0.91,0.53,0.73,2*06
$GNGSA,A,3,15,34,05,03,09,27,21,36,,,,,0.91,0.53,0.73,3*06
$GNVTG,,T,,M,0.204,N,0.379,K,A*36
$SMGPS,0.0 m,+0.02 m/s,7.23 VRx,0.003 km,3 m,156.8 °,1:-- (  0.0 km/h),473.6 m*9A
$SMGPS2,+0.08 X,+0.39 Y,+0.85 Z,0 ENL,0 us,0.0 kmh,967.24 hPa,967.10 hPa,+0.02 m/s*05
$GNRMC,171141.70,A,4816.48110,N,01139.86627,E,0.08,,080522,,,A,V*25
$GNGNS,171141.70,4816.48110,N,01139.86627,E,AAAN,25,0.53,478.6,46.2,,,V*15
$GNGSA,A,3,01,14,08,10,32,21,22,03,27,,,,0.91,0.53,0.73,1*02
$GNGSA,A,3,81,65,88,66,82,72,87,73,,,,,0.91,0.53,0.73,2*06
$GNGSA,A,3,15,34,05,03,09,27,21,36,,,,,0.91,0.53,0.73,3*06
$GNVTG,,T,,M,0.061,N,0.112,K,A*38
$SMGPS,-0.0 m,+0.02 m/s,7.26 VRx,0.003 km,3 m,156.8 °,1:-- (  0.0 km/h),473.6 m*B2
$SMGPS2,+0.08 X,+0.44 Y,+0.84 Z,0 ENL,0 us,0.0 kmh,967.25 hPa,967.11 hPa,+0.02 m/s*0E
$GNRMC,171141.80,A,4816.48110,N,01139.86629,E,0.16,,080522,,,A,V*2B
$GNGNS,171141.80,4816.48110,N,01139.86629,E,AAAN,25,0.53,478.7,46.2,,,V*15
$GNGSA,A,3,01,14,08,10,32,21,22,03,27,,,,0.91,0.53,0.73,1*02
$GNGSA,A,3,81,65,88,66,82,72,87,73,,,,,0.91,0.53,0.73,2*06
$GNGSA,A,3,15,34,05,03,09,27,21,36,,,,,0.91,0.53,0.73,3*06
$GNVTG,,T,,M,0.148,N,0.275,K,A*30
$SMGPS,0.1 m,+0.03 m/s,7.22 VRx,0.003 km,3 m,156.8 °,1:-- (  0.0 km/h),473.5 m*98
$SMGPS2,+0.04 X,+0.43 Y,+0.84 Z,0 ENL,0 us,0.0 kmh,967.23 hPa,967.10 hPa,+0.02 m/s*02
$GNRMC,171141.90,A,4816.48110,N,01139.86630,E,0.09,,080522,,,A,V*2C
$GNGNS,171141.90,4816.48110,N,01139.86630,E,AAAN,25,0.53,478.6,46.2,,,V*1D
$GNGSA,A,3,01,14,08,10,32,21,22,03,27,,,,0.91,0.53,0.73,1*02
$GNGSA,A,3,81,65,88,66,82,72,87,73,,,,,0.91,0.53,0.73,2*06
$GNGSA,A,3,15,34,05,03,09,27,21,36,,,,,0.91,0.53,0.73,3*06
$GNVTG,,T,,M,0.065,N,0.121,K,A*3C
$SMGPS,-0.0 m,+0.03 m/s,7.26 VRx,0.003 km,3 m,154.6 °,1:-- (  0.0 km/h),473.5 m*BC
$SMGPS2,+0.02 X,+0.46 Y,+0.83 Z,0 ENL,0 us,0.0 kmh,967.24 hPa,967.11 hPa,+0.02 m/s*00
$GNRMC,171142.00,A,4816.48110,N,01139.86632,E,0.12,,080522,,,A,V*2E
$GNGNS,171142.00,4816.48110,N,01139.86632,E,AAAN,25,0.53,478.6,46.2,,,V*15
$GNGSA,A,3,01,14,08,10,32,21,22,03,27,,,,0.91,0.53,0.73,1*02
$GNGSA,A,3,81,65,88,66,82,72,87,73,,,,,0.91,0.53,0.73,2*06
$GNGSA,A,3,15,34,05,03,09,27,21,36,,,,,0.91,0.53,0.73,3*06
$GNVTG,,T,,M,0.105,N,0.194,K,A*35
$SMGPS,-0.0 m,+0.03 m/s,7.22 VRx,0.003 km,3 m,154.6 °,1:-- (  0.0 km/h),473.4 m*B9
$SMGPS2,+0.01 X,+0.48 Y,+0.87 Z,0 ENL,0 us,0.0 kmh,967.25 hPa,967.11 hPa,+0.02 m/s*08
$GNRMC,171142.10,A,4816.48110,N,01139.86633,E,0.06,,080522,,,A,V*2B
$GNGNS,171142.10,4816.48110,N,01139.86633,E,AAAN,25,0.53,478.6,46.2,,,V*15
$GNGSA,A,3,01,14,08,10,32,21,22,03,27,,,,0.91,0.53,0.73,1*02
$GNGSA,A,3,81,65,88,66,82,72,87,73,,,,,0.91,0.53,0.73,2*06
$GNGSA,A,3,15,34,05,03,09,27,21,36,,,,,0.91,0.53,0.73,3*06
$GNVTG,,T,,M,0.046,N,0.086,K,A*31
$SMGPS,-0.0 m,+0.02 m/s,7.25 VRx,0.003 km,3 m,154.6 °,1:-- (  0.0 km/h),473.4 m*BF
$SMGPS2,+0.01 X,+0.50 Y,+0.82 Z,0 ENL,0 us,0.0 kmh,967.24 hPa,967.11 hPa,+0.02 m/s*05
$GNRMC,171142.20,A,4816.48110,N,01139.86634,E,0.06,,080522,,,A,V*2F
$GNGNS,171142.20,4816.48110,N,01139.86634,E,AAAN,25,0.53,478.6,46.2,,,V*11
$GNGSA,A,3,01,14,08,10,32,21,22,03,27,,,,0.91,0.53,0.73,1*02
$GNGSA,A,3,81,65,88,66,82,72,87,73,,,,,0.91,0.53,0.73,2*06
$GNGSA,A,3,15,34,05,03,09,27,21,36,,,,,0.91,0.53,0.73,3*06
$GNVTG,,T,,M,0.049,N,0.090,K,A*39
$SMGPS,-0.0 m,+0.01 m/s,7.22 VRx,0.003 km,3 m,154.6 °,1:-- (  0.0 km/h),473.3 m*BC
$SMGPS2,+0.00 X,+0.51 Y,+0.83 Z,0 ENL,0 us,0.0 kmh,967.25 hPa,967.11 hPa,+0.01 m/s*06
$GNRMC,171142.30,A,4816.48110,N,01139.86635,E,0.07,,080522,,,A,V*2E
$GNGNS,171142.30,4816.48110,N,01139.86635,E,AAAN,25,0.53,478.6,46.2,,,V*11
$GNGSA,A,3,01,14,08,10,32,21,22,03,27,,,,0.91,0.53,0.73,1*02
$GNGSA,A,3,81,65,88,66,82,72,87,73,,,,,0.91,0.53,0.73,2*06
$GNGSA,A,3,15,34,05,03,09,27,21,36,,,,,0.91,0.53,0.73,3*06
$GNVTG,,T,,M,0.074,N,0.136,K,A*3A
$SMGPS,-0.0 m,+0.01 m/s,7.25 VRx,0.003 km,3 m,154.6 °,1:-- (  0.0 km/h),473.3 m*BB
$SMGPS2,-0.12 X,+0.48 Y,+0.85 Z,0 ENL,0 us,0.0 kmh,967.24 hPa,967.10 hPa,+0.01 m/s*0D
$GNRMC,171142.40,A,4816.48110,N,01139.86636,E,0.03,,080522,,,A,V*2E
$GNGNS,171142.40,4816.48110,N,01139.86636,E,AAAN,25,0.53,478.6,46.2,,,V*15
$GNGSA,A,3,01,14,08,10,32,21,22,03,27,,,,0.91,0.53,0.73,1*02
$GNGSA,A,3,81,65,88,66,82,72,87,73,,,,,0.91,0.53,0.73,2*06
$GNGSA,A,3,15,34,05,03,09,27,21,36,,,,,0.91,0.53,0.73,3*06
$GNVTG,,T,,M,0.026,N,0.048,K,A*35
$SMGPS,-0.0 m,+0.01 m/s,7.23 VRx,0.003 km,3 m,154.6 °,1:-- (  0.0 km/h),473.2 m*BC
$SMGPS2,-0.03 X,+0.52 Y,+0.85 Z,0 ENL,0 us,0.0 kmh,967.24 hPa,967.11 hPa,+0.00 m/s*06
$GNRMC,171142.50,A,4816.48110,N,01139.86637,E,0.06,,080522,,,A,V*2B
$GNGNS,171142.50,4816.48110,N,01139.86637,E,AAAN,25,0.53,478.6,46.2,,,V*15
$GNGSA,A,3,01,14,08,10,32,21,22,03,27,,,,0.91,0.53,0.73,1*02
$GNGSA,A,3,81,65,88,66,82,72,87,73,,,,,0.91,0.53,0.73,2*06
$GNGSA,A,3,15,34,05,03,09,27,21,36,,,,,0.91,0.53,0.73,3*06
$GNVTG,,T,,M,0.062,N,0.115,K,A*3C
$SMGPS,-0.0 m,-0.00 m/s,7.25 VRx,0.003 km,3 m,154.6 °,1:-- (  0.0 km/h),473.2 m*BD
$SMGPS2,-0.02 X,+0.48 Y,+0.81 Z,0 ENL,0 us,0.0 kmh,967.25 hPa,967.11 hPa,+0.00 m/s*09
$GNRMC,171142.60,A,4816.48110,N,01139.86639,E,0.14,,080522,,,A,V*25
$GNGNS,171142.60,4816.48110,N,01139.86639,E,AAAN,25,0.53,478.6,46.2,,,V*18
$GNGSA,A,3,01,14,08,10,32,21,22,03,27,,,,0.91,0.53,0.73,1*02
$GNGSA,A,3,81,65,88,66,82,72,87,73,,,,,0.91,0.53,0.73,2*06
$GNGSA,A,3,15,34,05,03,09,27,21,36,,,,,0.91,0.53,0.73,3*06
$GNVTG,,T,,M,0.139,N,0.258,K,A*39
$SMGPS,0.0 m,-0.01 m/s,7.23 VRx,0.003 km,3 m,154.6 °,1:-- (  0.0 km/h),473.2 m*97
$SMGPS2,-0.10 X,+0.48 Y,+0.84 Z,0 ENL,0 us,0.0 kmh,967.24 hPa,967.11 hPa,+0.00 m/s*0E
$GNRMC,171142.70,A,4816.48110,N,01139.86641,E,0.19,,080522,,,A,V*26
$GNGNS,171142.70,4816.48110,N,01139.86641,E,AAAN,25,0.53,478.6,46.2,,,V*16
$GNGSA,A,3,01,14,08,10,32,21,22,03,27,,,,0.91,0.53,0.73,1*02
$GNGSA,A,3,81,65,88,66,82,72,87,73,,,,,0.91,0.53,0.73,2*06
$GNGSA,A,3,15,34,05,03,09,27,21,36,,,,,0.91,0.53,0.73,3*06
$GNVTG,,T,,M,0.189,N,0.350,K,A*3B
$SMGPS,-0.0 m,-0.01 m/s,7.25 VRx,0.003 km,3 m,154.6 °,1:-- (  0.0 km/h),473.2 m*BC
$SMGPS2,-0.09 X,+0.41 Y,+0.88 Z,0 ENL,0 us,0.0 kmh,967.25 hPa,967.10 hPa,+0.00 m/s*03
$GNRMC,171142.80,A,4816.48110,N,01139.86642,E,0.16,,080522,,,A,V*25
$GNGNS,171142.80,4816.48110,N,01139.86642,E,AAAN,25,0.53,478.6,46.2,,,V*1A
$GNGSA,A,3,01,14,08,10,32,21,22,03,27,,,,0.91,0.53,0.73,1*02
$GNGSA,A,3,81,65,88,66,82,72,87,73,,,,,0.91,0.53,0.73,2*06
$GNGSA,A,3,15,34,05,03,09,27,21,36,,,,,0.91,0.53,0.73,3*06
$GNVTG,,T,,M,0.159,N,0.294,K,A*3F
$SMGPS,-0.0 m,-0.02 m/s,7.23 VRx,0.003 km,3 m,152.4 °,1:-- (  0.0 km/h),473.1 m*BE
$SMGPS2,-0.04 X,+0.44 Y,+0.83 Z,0 ENL,0 us,0.0 kmh,967.25 hPa,967.11 hPa,+0.00 m/s*01
$GNRMC,171142.90,A,4816.48110,N,01139.86643,E,0.13,,080522,,,A,V*20
$GNGNS,171142.90,4816.48110,N,01139.86643,E,AAAN,25,0.53,478.6,46.2,,,V*1A
$GNGSA,A,3,01,14,08,10,32,21,22,03,27,,,,0.91,0.53,0.73,1*02
$GNGSA,A,3,81,65,88,66,82,72,87,73,,,,,0.91,0.53,0.73,2*06
$GNGSA,A,3,15,34,05,03,09,27,21,36,,,,,0.91,0.53,0.73,3*06
$GNVTG,,T,,M,0.125,N,0.231,K,A*3B
$SMGPS,0.0 m,-0.01 m/s,7.25 VRx,0.003 km,3 m,152.4 °,1:-- (  0.0 km/h),473.1 m*96
$SMGPS2,+0.01 X,+0.47 Y,+0.86 Z,0 ENL,0 us,0.0 kmh,967.24 hPa,967.12 hPa,-0.00 m/s*00
$GNRMC,171143.00,A,4816.48110,N,01139.86644,E,0.11,,080522,,,A,V*2D
$GNGNS,171143.00,4816.48110,N,01139.86644,E,AAAN,25,0.53,478.6,46.2,,,V*15
$GNGSA,A,3,01,14,08,10,32,21,22,03,27,,,,0.91,0.53,0.73,1*02
$GNGSA,A,3,81,65,88,66,82,72,87,73,,,,,0.91,0.53,0.73,2*06
$GNGSA,A,3,15,34,05,03,09,27,21,36,,,,,0.91,0.53,0.73,3*06
$GNVTG,,T,,M,0.100,N,0.184,K,A*31
$SMGPS,-0.0 m,-0.02 m/s,7.22 VRx,0.003 km,3 m,152.4 °,1:-- (  0.0 km/h),473.1 m*BF
$SMGPS2,+0.02 X,+0.46 Y,+0.87 Z,0 ENL,0 us,0.0 kmh,967.25 hPa,967.11 hPa,-0.01 m/s*00
$GNRMC,171143.10,A,4816.48111,N,01139.86645,E,0.13,,080522,,,A,V*2E
$GNGNS,171143.10,4816.48111,N,01139.86645,E,AAAN,25,0.53,478.6,46.2,,,V*14
$GNGSA,A,3,01,14,08,10,32,21,22,03,27,,,,0.91,0.53,0.73,1*02
$GNGSA,A,3,81,65,88,66,82,72,87,73,,,,,0.91,0.53,0.73,2*06
$GNGSA,A,3,15,34,05,03,09,27,21,36,,,,,0.91,0.53,0.73,3*06
$GNVTG,,T,,M,0.120,N,0.222,K,A*3C
$SMGPS,-0.0 m,-0.03 m/s,7.27 VRx,0.003 km,3 m,152.4 °,1:-- (  0.0 km/h),473.1 m*BB
$SMGPS2,+0.00 X,+0.41 Y,+0.82 Z,0 ENL,0 us,0.0 kmh,967.25 hPa,967.11 hPa,-0.01 m/s*00
$GNRMC,171143.20,A,4816.48111,N,01139.86645,E,0.10,,080522,,,A,V*2E
$GNGNS,171143.20,4816.48111,N,01139.86645,E,AAAN,25,0.53,478.6,46.2,,,V*17
$GNGSA,A,3,01,14,08,10,32,21,22,03,27,,,,0.91,0.53,0.73,1*02
$GNGSA,A,3,81,65,88,66,82,72,87,73,,,,,0.91,0.53,0.73,2*06
$GNGSA,A,3,15,34,05,03,09,27,21,36,,,,,0.91,0.53,0.73,3*06
$GNVTG,,T,,M,0.077,N,0.142,K,A*3A
$SMGPS,0.0 m,-0.03 m/s,7.21 VRx,0.003 km,3 m,152.4 °,1:-- (  0.0 km/h),473.1 m*90
$SMGPS2,-0.08 X,+0.40 Y,+0.81 Z,0 ENL,0 us,0.0 kmh,967.25 hPa,967.11 hPa,-0.01 m/s*0C
$GNRMC,171143.30,A,4816.48111,N,01139.86646,E,0.19,,080522,,,A,V*25
$GNGNS,171143.30,4816.48111,N,01139.86646,E,AAAN,25,0.53,478.6,46.2,,,V*15
$GNGSA,A,3,01,14,08,10,32,21,22,03,27,,,,0.91,0.53,0.73,1*02
$GNGSA,A,3,81,65,88,66,82,72,87,73,,,,,0.91,0.53,0.73,2*06
$GNGSA,A,3,15,34,05,03,09,27,21,36,,,,,0.91,0.53,0.73,3*06
$GNVTG,,T,,M,0.188,N,0.348,K,A*33
$SMGPS,0.0 m,-0.03 m/s,7.27 VRx,0.003 km,3 m,152.4 °,1:-- (  0.0 km/h),473.0 m*97
$SMGPS2,-0.05 X,+0.43 Y,+0.90 Z,0 ENL,0 us,0.0 kmh,967.25 hPa,967.11 hPa,-0.02 m/s*01
$GNRMC,171143.40,A,4816.48112,N,01139.86646,E,0.34,,080522,,,A,V*2E
$GNGNS,171143.40,4816.48112,N,01139.86646,E,AAAN,25,0.53,478.6,46.2,,,V*11
$GNGSA,A,3,01,14,08,10,32,21,22,03,27,,,,0.91,0.53,0.73,1*02
$GNGSA,A,3,81,65,88,66,82,72,87,73,,,,,0.91,0.53,0.73,2*06
$GNGSA,A,3,15,34,05,03,09,27,21,36,,,,,0.91,0.53,0.73,3*06
$GNVTG,,T,,M,0.335,N,0.620,K,A*3C
$SMGPS,-0.0 m,-0.02 m/s,7.25 VRx,0.003 km,3 m,152.4 °,1:-- (  0.0 km/h),473.0 m*B9
$SMGPS2,-0.04 X,+0.41 Y,+0.73 Z,0 ENL,0 us,0.0 kmh,967.25 hPa,967.11 hPa,-0.02 m/s*0F
$GNRMC,171143.50,A,4816.48111,N,01139.86645,E,0.61,,080522,,,A,V*2F
$GNGNS,171143.50,4816.48111,N,01139.86645,E,AAAN,25,0.53,478.6,46.2,,,V*10
$GNGSA,A,3,01,14,08,10,32,21,22,03,27,,,,0.91,0.53,0.73,1*02
$GNGSA,A,3,81,65,88,66,82,72,87,73,,,,,0.91,0.53,0.73,2*06
$GNGSA,A,3,15,34,05,03,09,27,21,36,,,,,0.91,0.53,0.73,3*06
$GNVTG,,T,,M,0.610,N,1.130,K,A*39
$SMGPS,0.0 m,-0.02 m/s,7.25 VRx,0.003 km,3 m,152.4 °,1:-- (  0.0 km/h),473.0 m*94
$SMGPS2,+0.27 X,+0.21 Y,+0.82 Z,0 ENL,0 us,0.0 kmh,967.25 hPa,967.12 hPa,-0.03 m/s*02
$GNRMC,171143.60,A,4816.48110,N,01139.86645,E,0.20,,080522,,,A,V*28
$GNGNS,171143.60,4816.48110,N,01139.86645,E,AAAN,25,0.53,478.6,46.2,,,V*12
$GNGSA,A,3,01,14,08,10,32,21,22,03,27,,,,0.91,0.53,0.73,1*02
$GNGSA,A,3,81,65,88,66,82,72,87,73,,,,,0.91,0.53,0.73,2*06
$GNGSA,A,3,15,34,05,03,09,27,21,36,,,,,0.91,0.53,0.73,3*06
$GNVTG,,T,,M,0.194,N,0.359,K,A*3E
$SMGPS,-0.0 m,-0.03 m/s,7.23 VRx,0.003 km,3 m,152.4 °,1:-- (  0.0 km/h),473.0 m*BE
$SMGPS2,+0.00 X,+0.48 Y,+1.09 Z,0 ENL,0 us,0.0 kmh,967.25 hPa,967.11 hPa,-0.03 m/s*09
$GNRMC,171143.70,A,4816.48109,N,01139.86647,E,0.09,,080522,,,A,V*28
$GNGNS,171143.70,4816.48109,N,01139.86647,E,AAAN,25,0.53,478.5,46.2,,,V*1A
$GNGSA,A,3,01,14,08,10,32,21,22,03,27,,,,0.91,0.53,0.73,1*02
$GNGSA,A,3,81,65,88,66,82,72,87,73,,,,,0.91,0.53,0.73,2*06
$GNGSA,A,3,15,34,05,03,09,27,21,36,,,,,0.91,0.53,0.73,3*06
$GNVTG,,T,,M,0.073,N,0.135,K,A*3E
$SMGPS,-0.1 m,-0.03 m/s,7.24 VRx,0.003 km,3 m,152.4 °,1:-- (  0.0 km/h),473.0 m*B8
$SMGPS2,+0.13 X,+0.37 Y,+0.96 Z,0 ENL,0 us,0.0 kmh,967.26 hPa,967.11 hPa,-0.03 m/s*07
$GNRMC,171143.80,A,4816.48108,N,01139.86649,E,0.27,,080522,,,A,V*24
$GNGNS,171143.80,4816.48108,N,01139.86649,E,AAAN,25,0.53,478.6,46.2,,,V*19
$GNGSA,A,3,01,14,08,10,32,21,22,03,27,,,,0.91,0.53,0.73,1*02
$GNGSA,A,3,81,65,88,66,82,72,87,73,,,,,0.91,0.53,0.73,2*06
$GNGSA,A,3,15,34,05,03,09,27,21,36,,,,,0.91,0.53,0.73,3*06
$GNVTG,,T,,M,0.266,N,0.493,K,A*31
$SMGPS,0.0 m,-0.03 m/s,7.23 VRx,0.003 km,3 m,152.4 °,1:-- (  0.0 km/h),473.0 m*93
$SMGPS2,+0.05 X,+0.26 Y,+0.93 Z,0 ENL,0 us,0.0 kmh,967.25 hPa,967.12 hPa,-0.04 m/s*02
$GNRMC,171143.90,A,4816.48108,N,01139.86651,E,0.13,,080522,,,A,V*2B
$GNGNS,171143.90,4816.48108,N,01139.86651,E,AAAN,25,0.53,478.6,46.2,,,V*11
$GNGSA,A,3,01,14,08,10,32,21,22,03,27,,,,0.91,0.53,0.73,1*02
$GNGSA,A,3,81,65,88,66,82,72,87,73,,,,,0.91,0.53,0.73,2*06
$GNGSA,A,3,15,34,05,03,09,27,21,36,,,,,0.91,0.53,0.73,3*06
$GNVTG,,T,,M,0.106,N,0.196,K,A*34
$SMGPS,-0.0 m,-0.03 m/s,7.24 VRx,0.003 km,3 m,152.4 °,1:-- (  0.0 km/h),473.1 m*B8
$SMGPS2,+0.05 X,+0.26 Y,+0.93 Z,0 ENL,0 us,0.0 kmh,967.25 hPa,967.12 hPa,-0.04 m/s*02
$GNRMC,171144.00,A,4816.48107,N,01139.86653,E,0.25,,080522,,,A,V*2D
$GNGNS,171144.00,4816.48107,N,01139.86653,E,AAAN,25,0.53,478.6,46.2,,,V*12
$GNGSA,A,3,01,14,08,10,32,21,22,03,27,,,,0.91,0.53,0.73,1*02
$GNGSA,A,3,81,65,88,66,82,72,87,73,,,,,0.91,0.53,0.73,2*06
$GNGSA,A,3,15,34,05,03,09,27,21,36,,,,,0.91,0.53,0.73,3*06
$GNVTG,,T,,M,0.236,N,0.437,K,A*3A
$SMGPS,-0.0 m,-0.04 m/s,7.23 VRx,0.003 km,3 m,152.4 °,1:-- (  0.0 km/h),473.1 m*B8
$SMGPS2,+0.09 X,+0.28 Y,+0.93 Z,0 ENL,0 us,0.0 kmh,967.25 hPa,967.12 hPa,-0.05 m/s*01
$GNRMC,171144.10,A,4816.48106,N,01139.86654,E,0.13,,080522,,,A,V*2F
$GNGNS,171144.10,4816.48106,N,01139.86654,E,AAAN,25,0.53,478.6,46.2,,,V*15
$GNGSA,A,3,01,14,08,10,32,21,22,03,27,,,,0.91,0.53,0.73,1*02
$GNGSA,A,3,81,65,88,66,82,72,87,73,,,,,0.91,0.53,0.73,2*06
$GNGSA,A,3,15,34,05,03,09,27,21,36,,,,,0.91,0.53,0.73,3*06
$GNVTG,,T,,M,0.089,N,0.165,K,A*3E
$SMGPS,-0.0 m,-0.05 m/s,7.26 VRx,0.003 km,3 m,150.3 °,1:-- (  0.0 km/h),473.2 m*BA
$SMGPS2,+0.05 X,+0.29 Y,+0.94 Z,0 ENL,0 us,0.0 kmh,967.26 hPa,967.12 hPa,-0.05 m/s*08
$GNRMC,171144.20,A,4816.48106,N,01139.86656,E,0.15,,080522,,,A,V*28
$GNGNS,171144.20,4816.48106,N,01139.86656,E,AAAN,25,0.53,478.6,46.2,,,V*14
$GNGSA,A,3,01,14,08,10,32,21,22,03,27,,,,0.91,0.53,0.73,1*02
$GNGSA,A,3,81,65,88,66,82,72,87,73,,,,,0.91,0.53,0.73,2*06
$GNGSA,A,3,15,34,05,03,09,27,21,36,,,,,0.91,0.53,0.73,3*06
$GNVTG,,T,,M,0.114,N,0.211,K,A*3B
$SMGPS,0.0 m,-0.05 m/s,7.22 VRx,0.003 km,3 m,150.3 °,1:-- (  0.0 km/h),473.2 m*93
$SMGPS2,+0.05 X,+0.23 Y,+0.94 Z,0 ENL,0 us,0.0 kmh,967.25 hPa,967.12 hPa,-0.04 m/s*00
$GNRMC,171144.30,A,4816.48106,N,01139.86658,E,0.10,,080522,,,A,V*22
$GNGNS,171144.30,4816.48106,N,01139.86658,E,AAAN,25,0.53,478.6,46.2,,,V*1B
$GNGSA,A,3,01,14,08,10,32,21,22,03,27,,,,0.91,0.53,0.73,1*02
$GNGSA,A,3,81,65,88,66,82,72,87,73,,,,,0.91,0.53,0.73,2*06
$GNGSA,A,3,15,34,05,03,09,27,21,36,,,,,0.91,0.53,0.73,3*06
$GNVTG,,T,,M,0.030,N,0.055,K,A*3E
$SMGPS,-0.0 m,-0.05 m/s,7.25 VRx,0.003 km,3 m,150.3 °,1:-- (  0.0 km/h),473.3 m*B8
$SMGPS2,+0.05 X,+0.27 Y,+0.94 Z,0 ENL,0 us,0.0 kmh,967.26 hPa,967.12 hPa,-0.04 m/s*07
$GNRMC,171144.40,A,4816.48105,N,01139.86660,E,0.23,,080522,,,A,V*2D
$GNGNS,171144.40,4816.48105,N,01139.86660,E,AAAN,25,0.53,478.6,46.2,,,V*14
$GNGSA,A,3,01,14,08,10,32,21,22,03,27,,,,0.91,0.53,0.73,1*02
$GNGSA,A,3,81,65,88,66,82,72,87,73,,,,,0.91,0.53,0.73,2*06
$GNGSA,A,3,15,34,05,03,09,27,21,36,,,,,0.91,0.53,0.73,3*06
$GNVTG,,T,,M,0.210,N,0.389,K,A*3C
$SMGPS,-0.0 m,-0.04 m/s,7.22 VRx,0.003 km,3 m,150.3 °,1:-- (  0.0 km/h),473.3 m*BE
$SMGPS2,+0.07 X,+0.26 Y,+0.93 Z,0 ENL,0 us,0.0 kmh,967.26 hPa,967.12 hPa,-0.04 m/s*03
$GNRMC,171144.50,A,4816.48104,N,01139.86663,E,0.16,,080522,,,A,V*28
$GNGNS,171144.50,4816.48104,N,01139.86663,E,AAAN,25,0.53,478.6,46.2,,,V*17
$GNGSA,A,3,01,14,08,10,32,21,22,03,27,,,,0.91,0.53,0.73,1*02
$GNGSA,A,3,81,65,88,66,82,72,87,73,,,,,0.91,0.53,0.73,2*06
$GNGSA,A,3,15,34,05,03,09,27,21,36,,,,,0.91,0.53,0.73,3*06
$GNVTG,,T,,M,0.137,N,0.254,K,A*3B
$SMGPS,0.0 m,-0.04 m/s,7.25 VRx,0.003 km,3 m,150.3 °,1:-- (  0.0 km/h),473.3 m*94
$SMGPS2,+0.06 X,+0.25 Y,+0.94 Z,0 ENL,0 us,0.0 kmh,967.25 hPa,967.11 hPa,-0.03 m/s*01
$GNRMC,171144.60,A,4816.48104,N,01139.86665,E,0.18,,080522,,,A,V*23
$GNGNS,171144.60,4816.48104,N,01139.86665,E,AAAN,25,0.53,478.6,46.2,,,V*12
$GNGSA,A,3,01,14,08,10,32,21,22,03,27,,,,0.91,0.53,0.73,1*02
$GNGSA,A,3,81,65,88,66,82,72,87,73,,,,,0.91,0.53,0.73,2*06
$GNGSA,A,3,15,34,05,03,09,27,21,36,,,,,0.91,0.53,0.73,3*06
$GNVTG,,T,,M,0.165,N,0.306,K,A*3A
$SMGPS,-0.0 m,-0.04 m/s,7.22 VRx,0.003 km,3 m,150.3 °,1:-- (  0.0 km/h),473.3 m*BE
$SMGPS2,+0.08 X,+0.24 Y,+0.92 Z,0 ENL,0 us,0.0 kmh,967.26 hPa,967.12 hPa,-0.02 m/s*09
$GNRMC,171144.70,A,4816.48104,N,01139.86667,E,0.08,,080522,,,A,V*21
$GNGNS,171144.70,4816.48104,N,01139.86667,E,AAAN,25,0.53,478.6,46.2,,,V*11
$GNGSA,A,3,01,14,08,10,32,21,22,03,27,,,,0.91,0.53,0.73,1*02
$GNGSA,A,3,81,65,88,66,82,72,87,73,,,,,0.91,0.53,0.73,2*06
$GNGSA,A,3,15,34,05,03,09,27,21,36,,,,,0.91,0.53,0.73,3*06
$GNVTG,,T,,M,0.050,N,0.093,K,A*32
$SMGPS,0.0 m,-0.03 m/s,7.25 VRx,0.003 km,3 m,148.3 °,1:-- (  0.0 km/h),473.4 m*9D
$SMGPS2,+0.06 X,+0.24 Y,+0.93 Z,0 ENL,0 us,0.0 kmh,967.25 hPa,967.12 hPa,-0.02 m/s*05
$GNRMC,171144.80,A,4816.48104,N,01139.86669,E,0.18,,080522,,,A,V*21
$GNGNS,171144.80,4816.48104,N,01139.86669,E,AAAN,25,0.53,478.7,46.2,,,V*11
$GNGSA,A,3,01,14,08,10,32,21,22,03,27,,,,0.91,0.53,0.73,1*02
$GNGSA,A,3,81,65,88,66,82,72,87,73,,,,,0.91,0.53,0.73,2*06
$GNGSA,A,3,15,34,05,03,09,27,21,36,,,,,0.91,0.53,0.73,3*06
$GNVTG,,T,,M,0.177,N,0.328,K,A*35
$SMGPS,0.1 m,-0.02 m/s,7.23 VRx,0.003 km,3 m,148.3 °,1:-- (  0.0 km/h),473.4 m*9B
$SMGPS2,+0.08 X,+0.25 Y,+0.94 Z,0 ENL,0 us,0.0 kmh,967.25 hPa,967.11 hPa,-0.01 m/s*0D
$GNRMC,171144.90,A,4816.48105,N,01139.86670,E,0.07,,080522,,,A,V*27
$GNGNS,171144.90,4816.48105,N,01139.86670,E,AAAN,25,0.53,478.6,46.2,,,V*18
$GNGSA,A,3,01,14,08,10,32,21,22,03,27,,,,0.91,0.53,0.73,1*02
$GNGSA,A,3,81,65,88,66,82,72,87,73,,,,,0.91,0.53,0.73,2*06
$GNGSA,A,3,15,34,05,03,09,27,21,36,,,,,0.91,0.53,0.73,3*06
$GNVTG,,T,,M,0.062,N,0.116,K,A*3F
$SMGPS,-0.0 m,-0.02 m/s,7.25 VRx,0.003 km,3 m,148.3 °,1:-- (  0.0 km/h),473.4 m*B1
$SMGPS2,+0.06 X,+0.26 Y,+0.95 Z,0 ENL,0 us,0.0 kmh,967.26 hPa,967.12 hPa,-0.01 m/s*01
$GNRMC,171145.00,A,4816.48105,N,01139.86672,E,0.04,,080522,,,A,V*2E
$GNGNS,171145.00,4816.48105,N,01139.86672,E,AAAN,25,0.53,478.6,46.2,,,V*12
$GNGSA,A,3,01,14,08,10,32,21,22,03,27,,,,0.91,0.53,0.73,1*02
$GNGSA,A,3,81,65,88,66,82,72,87,73,,,,,0.91,0.53,0.73,2*06
$GNGSA,A,3,15,34,05,03,09,27,21,36,,,,,0.91,0.53,0.73,3*06
$GNVTG,,T,,M,0.032,N,0.060,K,A*3A
$SMGPS,0.0 m,-0.01 m/s,7.24 VRx,0.003 km,3 m,148.3 °,1:-- (  0.0 km/h),473.4 m*9E
$SMGPS2,+0.06 X,+0.24 Y,+0.93 Z,0 ENL,0 us,0.0 kmh,967.25 hPa,967.12 hPa,-0.01 m/s*06
$GNRMC,171145.10,A,4816.48105,N,01139.86673,E,0.06,,080522,,,A,V*2C
$GNGNS,171145.10,4816.48105,N,01139.86673,E,AAAN,25,0.53,478.6,46.2,,,V*12
$GNGSA,A,3,01,14,08,10,32,21,22,03,27,,,,0.91,0.53,0.73,1*02
$GNGSA,A,3,81,65,88,66,82,72,87,73,,,,,0.91,0.53,0.73,2*06
$GNGSA,A,3,15,34,05,03,09,27,21,36,,,,,0.91,0.53,0.73,3*06
$GNVTG,,T,,M,0.059,N,0.110,K,A*31
$SMGPS,-0.0 m,-0.01 m/s,7.24 VRx,0.003 km,3 m,148.3 °,1:-- (  0.0 km/h),473.4 m*B3
$SMGPS2,+0.04 X,+0.23 Y,+0.91 Z,0 ENL,0 us,0.0 kmh,967.26 hPa,967.12 hPa,-0.01 m/s*02
$GNRMC,171145.20,A,4816.48105,N,01139.86675,E,0.04,,080522,,,A,V*2B
$GNGNS,171145.20,4816.48105,N,01139.86675,E,AAAN,25,0.53,478.6,46.2,,,V*17
$GNGSA,A,3,01,14,08,10,32,21,22,03,27,,,,0.91,0.53,0.73,1*02
$GNGSA,A,3,81,65,88,66,82,72,87,73,,,,,0.91,0.53,0.73,2*06
$GNGSA,A,3,15,34,05,03,09,27,21,36,,,,,0.91,0.53,0.73,3*06
$GNVTG,,T,,M,0.015,N,0.028,K,A*33
$SMGPS,-0.0 m,-0.02 m/s,7.23 VRx,0.003 km,3 m,148.3 °,1:-- (  0.0 km/h),473.5 m*B6
$SMGPS2,+0.06 X,+0.23 Y,+0.94 Z,0 ENL,0 us,0.0 kmh,967.26 hPa,967.11 hPa,-0.01 m/s*06
$GNRMC,171145.30,A,4816.48105,N,01139.86677,E,0.04,,080522,,,A,V*28
$GNGNS,171145.30,4816.48105,N,01139.86677,E,AAAN,25,0.53,478.6,46.2,,,V*14
$GNGSA,A,3,01,14,08,10,32,21,22,03,27,,,,0.91,0.53,0.73,1*02
$GNGSA,A,3,81,65,88,66,82,72,87,73,,,,,0.91,0.53,0.73,2*06
$GNGSA,A,3,15,34,05,03,09,27,21,36,,,,,0.91,0.53,0.73,3*06
$GNVTG,,T,,M,0.018,N,0.034,K,A*33
$SMGPS,-0.0 m,-0.02 m/s,7.25 VRx,0.003 km,3 m,148.3 °,1:-- (  0.0 km/h),473.5 m*B0
$SMGPS2,+0.02 X,+0.25 Y,+0.99 Z,0 ENL,0 us,0.0 kmh,967.26 hPa,967.12 hPa,-0.02 m/s*09
$GNRMC,171145.40,A,4816.48105,N,01139.86678,E,0.05,,080522,,,A,V*21
$GNGNS,171145.40,4816.48105,N,01139.86678,E,AAAN,25,0.53,478.6,46.2,,,V*1C
$GNGSA,A,3,01,14,08,10,32,21,22,03,27,,,,0.91,0.53,0.73,1*02
$GNGSA,A,3,81,65,88,66,82,72,87,73,,,,,0.91,0.53,0.73,2*06
$GNGSA,A,3,15,34,05,03,09,27,21,36,,,,,0.91,0.53,0.73,3*06
$GNVTG,,T,,M,0.025,N,0.047,K,A*39
$SMGPS,-0.0 m,-0.02 m/s,7.22 VRx,0.003 km,4 m,146.4 °,1:-- (  0.0 km/h),473.5 m*B9
$SMGPS2,+0.06 X,+0.22 Y,+0.98 Z,0 ENL,0 us,0.0 kmh,967.26 hPa,967.12 hPa,-0.02 m/s*0B
$GNRMC,171145.50,A,4816.48105,N,01139.86679,E,0.22,,080522,,,A,V*24
$GNGNS,171145.50,4816.48105,N,01139.86679,E,AAAN,25,0.53,478.6,46.2,,,V*1C
$GNGSA,A,3,01,14,08,10,32,21,22,03,27,,,,0.91,0.53,0.73,1*02
$GNGSA,A,3,81,65,88,66,82,72,87,73,,,,,0.91,0.53,0.73,2*06
$GNGSA,A,3,15,34,05,03,09,27,21,36,,,,,0.91,0.53,0.73,3*06
$GNVTG,,T,,M,0.216,N,0.399,K,A*3B
$SMGPS,0.0 m,-0.02 m/s,7.25 VRx,0.003 km,4 m,146.4 °,1:-- (  0.0 km/h),473.5 m*93
$SMGPS2,+0.06 X,+0.21 Y,+0.93 Z,1 ENL,0 us,0.0 kmh,967.25 hPa,967.12 hPa,-0.02 m/s*01
$GNRMC,171145.60,A,4816.48104,N,01139.86680,E,0.14,,080522,,,A,V*25
$GNGNS,171145.60,4816.48104,N,01139.86680,E,AAAN,25,0.53,478.6,46.2,,,V*18
$GNGSA,A,3,01,14,08,10,32,21,22,03,27,,,,0.91,0.53,0.73,1*02
$GNGSA,A,3,81,65,88,66,82,72,87,73,,,,,0.91,0.53,0.73,2*06
$GNGSA,A,3,15,34,05,03,09,27,21,36,,,,,0.91,0.53,0.73,3*06
$GNVTG,,T,,M,0.136,N,0.251,K,A*3F
$SMGPS,-0.0 m,-0.02 m/s,7.21 VRx,0.003 km,4 m,146.4 °,1:-- (  0.0 km/h),473.5 m*BA
$SMGPS2,+0.08 X,+0.19 Y,+0.94 Z,1 ENL,0 us,0.0 kmh,967.26 hPa,967.11 hPa,-0.02 m/s*03
$GNRMC,171145.70,A,4816.48104,N,01139.86681,E,0.05,,080522,,,A,V*25
$GNGNS,171145.70,4816.48104,N,01139.86681,E,AAAN,25,0.53,478.6,46.2,,,V*18
$GNGSA,A,3,01,14,08,10,32,21,22,03,27,,,,0.91,0.53,0.73,1*02
$GNGSA,A,3,81,65,88,66,82,72,87,73,,,,,0.91,0.53,0.73,2*06
$GNGSA,A,3,15,34,05,03,09,27,21,36,,,,,0.91,0.53,0.73,3*06
$GNVTG,,T,,M,0.034,N,0.063,K,A*3F
$SMGPS,0.0 m,-0.02 m/s,7.25 VRx,0.003 km,4 m,146.4 °,1:-- (  0.0 km/h),473.6 m*90
$SMGPS2,+0.04 X,+0.17 Y,+0.94 Z,1 ENL,0 us,0.0 kmh,967.25 hPa,967.12 hPa,-0.02 m/s*01
$GNRMC,171145.80,A,4816.48104,N,01139.86683,E,0.14,,080522,,,A,V*28
$GNGNS,171145.80,4816.48104,N,01139.86683,E,AAAN,25,0.53,478.6,46.2,,,V*15
$GNGSA,A,3,01,14,08,10,32,21,22,03,27,,,,0.91,0.53,0.73,1*02
$GNGSA,A,3,81,65,88,66,82,72,87,73,,,,,0.91,0.53,0.73,2*06
$GNGSA,A,3,15,34,05,03,09,27,21,36,,,,,0.91,0.53,0.73,3*06
$GNVTG,,T,,M,0.138,N,0.255,K,A*35
$SMGPS,-0.0 m,-0.02 m/s,7.21 VRx,0.003 km,4 m,146.4 °,1:-- (  0.0 km/h),473.6 m*B9
$SMGPS2,+0.06 X,+0.19 Y,+0.96 Z,0 ENL,0 us,0.0 kmh,967.26 hPa,967.12 hPa,-0.02 m/s*0D
$GNRMC,171145.90,A,4816.48104,N,01139.86684,E,0.05,,080522,,,A,V*2E
$GNGNS,171145.90,4816.48104,N,01139.86684,E,AAAN,25,0.53,478.6,46.2,,,V*13
$GNGSA,A,3,01,14,08,10,32,21,22,03,27,,,,0.91,0.53,0.73,1*02
$GNGSA,A,3,81,65,88,66,82,72,87,73,,,,,0.91,0.53,0.73,2*06
$GNGSA,A,3,15,34,05,03,09,27,21,36,,,,,0.91,0.53,0.73,3*06
$GNVTG,,T,,M,0.044,N,0.081,K,A*34
$SMGPS,-0.0 m,-0.01 m/s,7.25 VRx,0.003 km,4 m,146.4 °,1:-- (  0.0 km/h),473.6 m*BE
$SMGPS2,+0.07 X,+0.18 Y,+0.95 Z,0 ENL,0 us,0.0 kmh,967.26 hPa,967.12 hPa,-0.02 m/s*0E
$GNRMC,171146.00,A,4816.48104,N,01139.86685,E,0.02,,080522,,,A,V*22
$GNGNS,171146.00,4816.48104,N,01139.86685,E,AAAN,25,0.53,478.6,46.2,,,V*18
$GNGSA,A,3,01,14,08,10,32,21,22,03,27,,,,0.91,0.53,0.73,1*02
$GNGSA,A,3,81,65,88,66,82,72,87,73,,,,,0.91,0.53,0.73,2*06
$GNGSA,A,3,15,34,05,03,09,27,21,36,,,,,0.91,0.53,0.73,3*06
$GNVTG,,T,,M,0.020,N,0.038,K,A*34
$SMGPS,0.0 m,-0.01 m/s,7.24 VRx,0.003 km,4 m,146.4 °,1:-- (  0.0 km/h),473.6 m*92
$SMGPS2,+0.06 X,+0.20 Y,+0.95 Z,0 ENL,0 us,0.0 kmh,967.25 hPa,967.12 hPa,-0.02 m/s*07
$GNRMC,171146.10,A,4816.48104,N,01139.86686,E,0.06,,080522,,,A,V*24
$GNGNS,171146.10,4816.48104,N,01139.86686,E,AAAN,25,0.53,478.6,46.2,,,V*1A
$GNGSA,A,3,01,14,08,10,32,21,22,03,27,,,,0.91,0.53,0.73,1*02
$GNGSA,A,3,81,65,88,66,82,72,87,73,,,,,0.91,0.53,0.73,2*06
$GNGSA,A,3,15,34,05,03,09,27,21,36,,,,,0.91,0.53,0.73,3*06
$GNVTG,,T,,M,0.064,N,0.119,K,A*36
$SMGPS,0.0 m,-0.00 m/s,7.25 VRx,0.003 km,4 m,146.4 °,1:-- (  0.0 km/h),473.6 m*92
$SMGPS2,+0.07 X,+0.19 Y,+0.94 Z,0 ENL,0 us,0.0 kmh,967.25 hPa,967.11 hPa,-0.01 m/s*0D
$GNRMC,171146.20,A,4816.48103,N,01139.86687,E,0.05,,080522,,,A,V*22
$GNGNS,171146.20,4816.48103,N,01139.86687,E,AAAN,25,0.53,478.6,46.2,,,V*1F
$GNGSA,A,3,01,14,08,10,32,21,22,03,27,,,,0.91,0.53,0.73,1*02
$GNGSA,A,3,81,65,88,66,82,72,87,73,,,,,0.91,0.53,0.73,2*06
$GNGSA,A,3,15,34,05,03,09,27,21,36,,,,,0.91,0.53,0.73,3*06
$GNVTG,,T,,M,0.047,N,0.087,K,A*31
$SMGPS,-0.0 m,-0.01 m/s,7.24 VRx,0.003 km,4 m,146.4 °,1:-- (  0.0 km/h),473.6 m*BF
$SMGPS2,+0.05 X,+0.21 Y,+0.95 Z,0 ENL,0 us,0.0 kmh,967.26 hPa,967.12 hPa,-0.01 m/s*05
$GNRMC,171146.30,A,4816.48103,N,01139.86688,E,0.07,,080522,,,A,V*2E
$GNGNS,171146.30,4816.48103,N,01139.86688,E,AAAN,25,0.53,478.6,46.2,,,V*11
$GNGSA,A,3,01,14,08,10,32,21,22,03,27,,,,0.91,0.53,0.73,1*02
$GNGSA,A,3,81,65,88,66,82,72,87,73,,,,,0.91,0.53,0.73,2*06
$GNGSA,A,3,15,34,05,03,09,27,21,36,,,,,0.91,0.53,0.73,3*06
$GNVTG,,T,,M,0.066,N,0.122,K,A*3C
$SMGPS,0.0 m,-0.00 m/s,7.26 VRx,0.003 km,4 m,146.4 °,1:-- (  0.0 km/h),473.6 m*91
$SMGPS2,+0.05 X,+0.22 Y,+0.94 Z,0 ENL,0 us,0.0 kmh,967.25 hPa,967.12 hPa,-0.01 m/s*04
$GNRMC,171146.40,A,4816.48103,N,01139.86689,E,0.02,,080522,,,A,V*2D
$GNGNS,171146.40,4816.48103,N,01139.86689,E,AAAN,25,0.53,478.6,46.2,,,V*17
$GNGSA,A,3,01,14,08,10,32,21,22,03,27,,,,0.91,0.53,0.73,1*02
$GNGSA,A,3,81,65,88,66,82,72,87,73,,,,,0.91,0.53,0.73,2*06
$GNGSA,A,3,15,34,05,03,09,27,21,36,,,,,0.91,0.53,0.73,3*06
$GNVTG,,T,,M,0.023,N,0.044,K,A*3C
$SMGPS,0.0 m,-0.00 m/s,7.26 VRx,0.003 km,4 m,146.4 °,1:-- (  0.0 km/h),473.7 m*90
$SMGPS2,+0.05 X,+0.23 Y,+0.94 Z,0 ENL,0 us,0.0 kmh,967.25 hPa,967.12 hPa,-0.00 m/s*04
$GNRMC,171146.50,A,4816.48103,N,01139.86690,E,0.08,,080522,,,A,V*2E
