$GPSSETUP,8AE8,0,1,1,0,0,1,0,0,0,1,3,0,0,0,0,6,0,C8,C8,1F4,1C2,32,64,7C,64,7D0,5,1,1,1E,0,0,0,0,0,0,1003,4,10,5,6,10,10,10,10,10,10,10,10,10,BC10,0,80,0,108,302,604,0,20F,0,0,0,0,0,0,0,0,0,0,0,0,0,0,0,0,0,0,0,0,0,0,0,0,0,0,0,0,0,0,0,0,0,20,12C,1EC6*46
$GNRMC,165256.30,A,4816.48653,N,01139.86712,E,0.54,,080522,,,A,V*2F
$GNGNS,165256.30,4816.48653,N,01139.86712,E,AANN,12,1.13,471.7,46.2,,,V*10
$GNGSA,A,3,21,01,08,32,10,14,,,,,,,1.69,1.13,1.25,1*05
$GNGSA,A,3,79,81,65,88,72,82,,,,,,,1.69,1.13,1.25,2*02
$GNGSA,A,3,,,,,,,,,,,,,1.69,1.13,1.25,3*08
$GNVTG,,T,,M,0.538,N,0.996,K,A*35
$SMGPS,-0.0 m,-0.01 m/s,7.59 VRx,0.000 km,0 m,270.0 °,1:-- (  0.0 km/h),471.7 m*B3
$SMGPS2,-0.16 X,+0.55 Y,+0.83 Z,13 ENL,0 us,0.0 kmh,967.21 hPa,967.15 hPa,-0.02 m/s*34
$GNRMC,165256.40,A,4816.48594,N,01139.86696,E,1.08,,080522,,,A,V*25
$GNGNS,165256.40,4816.48594,N,01139.86696,E,AANN,13,0.92,471.7,46.2,,,V*1B
$GNGSA,A,3,21,01,08,32,10,14,,,,,,,1.36,0.92,1.00,1*00
$GNGSA,A,3,79,81,65,88,72,82,,,,,,,1.69,1.13,1.25,2*02
$GNGSA,A,3,,,,,,,,,,,,,1.69,1.13,1.25,3*08
$GNVTG,,T,,M,1.078,N,1.996,K,A*34
$SMGPS,0.0 m,-0.01 m/s,7.61 VRx,0.000 km,3 m,194.0 °,1:-- (  0.0 km/h),472.4 m*9F
$SMGPS2,-0.20 X,+0.51 Y,+0.83 Z,1 ENL,0 us,0.0 kmh,967.20 hPa,967.15 hPa,-0.02 m/s*07
$GNRMC,165256.50,A,4816.48555,N,01139.86714,E,0.66,,080522,,,A,V*2B
$GNGNS,165256.50,4816.48555,N,01139.86714,E,AANN,13,0.92,471.7,46.2,,,V*1C
$GNGSA,A,3,21,01,08,32,10,14,,,,,,,1.36,0.92,1.00,1*00
$GNGSA,A,3,79,81,65,88,72,87,82,,,,,,1.36,0.92,1.00,2*08
$GNGSA,A,3,,,,,,,,,,,,,1.36,0.92,1.00,3*0D
$GNVTG,,T,,M,0.659,N,1.220,K,A*36
$SMGPS,0.0 m,-0.00 m/s,7.57 VRx,0.000 km,3 m,192.9 °,1:-- (  0.0 km/h),472.8 m*98
$SMGPS2,-0.13 X,+0.53 Y,+0.76 Z,1 ENL,0 us,0.0 kmh,967.21 hPa,967.15 hPa,-0.01 m/s*0D
$GNRMC,165256.60,A,4816.48468,N,01139.86728,E,0.49,,080522,,,A,V*25
$GNGNS,165256.60,4816.48468,N,01139.86728,E,AANN,13,0.92,471.7,46.2,,,V*1F
$GNGSA,A,3,21,01,08,32,10,14,,,,,,,1.36,0.92,1.00,1*00
$GNGSA,A,3,79,81,65,88,72,87,82,,,,,,1.36,0.92,1.00,2*08
$GNGSA,A,3,,,,,,,,,,,,,1.36,0.92,1.00,3*0D
$GNVTG,,T,,M,0.494,N,0.916,K,A*3A
$SMGPS,-0.0 m,-0.01 m/s,7.59 VRx,0.000 km,4 m,185.7 °,1:-- (  0.0 km/h),472.8 m*B5
$SMGPS2,-0.16 X,+0.53 Y,+0.84 Z,1 ENL,0 us,0.0 kmh,967.21 hPa,967.16 hPa,-0.01 m/s*06
$GNRMC,165256.70,A,4816.48402,N,01139.86739,E,0.60,,080522,,,A,V*23
$GNGNS,165256.70,4816.48402,N,01139.86739,E,AANN,15,0.77,471.7,46.2,,,V*1F
$GNGSA,A,3,21,01,08,32,22,27,10,14,,,,,1.23,0.77,0.97,1*05
$GNGSA,A,3,79,81,65,88,72,87,82,,,,,,1.36,0.92,1.00,2*08
$GNGSA,A,3,,,,,,,,,,,,,1.36,0.92,1.00,3*0D
$GNVTG,,T,,M,0.597,N,1.105,K,A*33
$SMGPS,-0.0 m,-0.00 m/s,7.58 VRx,0.000 km,6 m,182.9 °,1:-- (  0.0 km/h),473.0 m*B7
$SMGPS2,-0.08 X,+0.50 Y,+0.78 Z,3 ENL,0 us,0.0 kmh,967.21 hPa,967.16 hPa,-0.01 m/s*0B
$GNRMC,165256.80,A,4816.48389,N,01139.86765,E,0.14,,080522,,,A,V*22
$GNGNS,165256.80,4816.48389,N,01139.86765,E,AANN,14,0.88,471.7,46.2,,,V*1C
$GNGSA,A,3,21,01,08,32,22,27,10,14,,,,,1.33,0.88,1.00,1*0B
$GNGSA,A,3,79,81,65,88,72,87,82,,,,,,1.23,0.77,0.97,2*08
$GNGSA,A,3,,,,,,,,,,,,,1.23,0.77,0.97,3*0D
$GNVTG,,T,,M,0.140,N,0.259,K,A*36
$SMGPS,0.0 m,-0.00 m/s,7.58 VRx,0.000 km,7 m,181.1 °,1:-- (  0.0 km/h),473.2 m*92
$SMGPS2,-0.10 X,+0.57 Y,+0.81 Z,15 ENL,0 us,0.0 kmh,967.21 hPa,967.15 hPa,-0.00 m/s*36
$GNRMC,165256.90,A,4816.48385,N,01139.86771,E,0.29,,080522,,,A,V*24
$GNGNS,165256.90,4816.48385,N,01139.86771,E,AANN,13,0.91,471.8,46.2,,,V*14
$GNGSA,A,3,21,01,08,32,22,27,10,14,,,,,1.42,0.91,1.10,1*04
$GNGSA,A,3,79,81,65,88,87,82,,,,,,,1.33,0.88,1.00,2*03
$GNGSA,A,3,,,,,,,,,,,,,1.33,0.88,1.00,3*03
$GNVTG,,T,,M,0.286,N,0.530,K,A*37
$SMGPS,0.1 m,-0.01 m/s,7.64 VRx,0.000 km,7 m,178.9 °,1:-- (  0.0 km/h),473.0 m*91
$SMGPS2,-0.15 X,+0.55 Y,+0.77 Z,60 ENL,0 us,0.0 kmh,967.20 hPa,967.15 hPa,-0.00 m/s*3B
$GNRMC,165257.00,A,4816.48393,N,01139.86782,E,0.13,,080522,,,A,V*2E
$GNGNS,165257.00,4816.48393,N,01139.86782,E,AANN,11,1.02,471.7,46.2,,,V*11
$GNGSA,A,3,21,01,32,22,27,10,14,,,,,,1.59,1.02,1.23,1*0D
$GNGSA,A,3,79,81,65,88,87,,,,,,,,1.42,0.91,1.10,2*06
$GNGSA,A,3,,,,,,,,,,,,,1.42,0.91,1.10,3*0C
$GNVTG,,T,,M,0.127,N,0.235,K,A*3D
$SMGPS,0.0 m,+0.00 m/s,7.60 VRx,0.000 km,7 m,178.9 °,1:-- (  0.0 km/h),473.1 m*92
$SMGPS2,-0.07 X,+0.62 Y,+0.75 Z,237 ENL,0 us,0.0 kmh,967.21 hPa,967.15 hPa,+0.00 m/s*09
$GNRMC,165257.10,A,4816.48402,N,01139.86792,E,0.45,,080522,,,A,V*22
$GNGNS,165257.10,4816.48402,N,01139.86792,E,AANN,10,1.10,471.7,46.2,,,V*1C
$GNGSA,A,3,21,01,32,22,27,10,,,,,,,1.69,1.10,1.29,1*02
$GNGSA,A,3,79,65,88,87,,,,,,,,,1.59,1.02,1.23,2*0E
$GNGSA,A,3,,,,,,,,,,,,,1.59,1.02,1.23,3*0D
$GNVTG,,T,,M,0.445,N,0.825,K,A*37
$SMGPS,-0.0 m,+0.01 m/s,7.57 VRx,0.000 km,7 m,177.8 °,1:-- (  0.0 km/h),473.1 m*B4
$SMGPS2,-0.17 X,+0.63 Y,+0.84 Z,812 ENL,0 us,0.0 kmh,967.21 hPa,967.15 hPa,+0.00 m/s*0A
$GNRMC,165257.20,A,4816.48400,N,01139.86803,E,0.17,,080522,,,A,V*23
$GNGNS,165257.20,4816.48400,N,01139.86803,E,AANN,09,1.75,471.7,46.2,,,V*11
$GNGSA,A,3,21,01,32,22,27,,,,,,,,2.44,1.75,1.71,1*01
$GNGSA,A,3,79,65,88,87,,,,,,,,,1.69,1.10,1.29,2*04
$GNGSA,A,3,,,,,,,,,,,,,1.69,1.10,1.29,3*07
$GNVTG,,T,,M,0.168,N,0.311,K,A*31
$SMGPS,0.0 m,+0.01 m/s,7.59 VRx,0.000 km,7 m,176.6 °,1:-- (  0.0 km/h),473.1 m*98
$SMGPS2,-0.11 X,+0.61 Y,+0.70 Z,358 ENL,0 us,0.0 kmh,967.20 hPa,967.14 hPa,+0.01 m/s*01
$GNRMC,165257.30,A,4816.48402,N,01139.86818,E,0.90,,080522,,,A,V*25
$GNGNS,165257.30,4816.48402,N,01139.86818,E,AANN,10,1.10,471.7,46.2,,,V*13
$GNGSA,A,3,21,01,32,22,27,10,,,,,,,1.69,1.10,1.29,1*02
$GNGSA,A,3,79,65,88,87,,,,,,,,,2.44,1.75,1.71,2*06
$GNGSA,A,3,,,,,,,,,,,,,2.44,1.75,1.71,3*05
$GNVTG,,T,,M,0.896,N,1.659,K,A*31
$SMGPS,-0.0 m,+0.02 m/s,7.59 VRx,0.000 km,7 m,175.0 °,1:-- (  0.0 km/h),473.0 m*B2
$SMGPS2,-0.16 X,+0.63 Y,+0.76 Z,13 ENL,0 us,0.0 kmh,967.21 hPa,967.15 hPa,+0.01 m/s*3E
$GNRMC,165257.40,A,4816.48399,N,01139.86829,E,0.52,,080522,,,A,V*2B
$GNGNS,165257.40,4816.48399,N,01139.86829,E,AANN,11,1.06,471.7,46.2,,,V*15
$GNGSA,A,3,21,01,32,22,27,10,,,,,,,1.66,1.06,1.28,1*0B
$GNGSA,A,3,79,65,88,87,,,,,,,,,1.69,1.10,1.29,2*04
$GNGSA,A,3,,,,,,,,,,,,,1.69,1.10,1.29,3*07
$GNVTG,,T,,M,0.520,N,0.963,K,A*36
$SMGPS,0.0 m,+0.02 m/s,7.60 VRx,0.000 km,7 m,173.9 °,1:-- (  0.0 km/h),472.9 m*92
$SMGPS2,-0.11 X,+0.62 Y,+0.74 Z,8 ENL,0 us,0.0 kmh,967.20 hPa,967.15 hPa,+0.02 m/s*02
$GNRMC,165257.50,A,4816.48391,N,01139.86847,E,1.15,,080522,,,A,V*28
$GNGNS,165257.50,4816.48391,N,01139.86847,E,AANN,11,1.06,471.7,46.2,,,V*14
$GNGSA,A,3,21,01,32,22,27,10,,,,,,,1.66,1.06,1.28,1*0B
$GNGSA,A,3,79,81,65,88,87,,,,,,,,1.66,1.06,1.28,2*04
$GNGSA,A,3,,,,,,,,,,,,,1.66,1.06,1.28,3*0E
$GNVTG,,T,,M,1.152,N,2.133,K,A*39
$SMGPS,-0.0 m,+0.02 m/s,7.56 VRx,0.000 km,7 m,172.7 °,1:-- (  0.0 km/h),472.8 m*B4
$SMGPS2,-0.17 X,+0.64 Y,+0.78 Z,0 ENL,0 us,0.0 kmh,967.21 hPa,967.15 hPa,+0.01 m/s*04
$GNRMC,165257.60,A,4816.48378,N,01139.86865,E,1.07,,080522,,,A,V*2F
$GNGNS,165257.60,4816.48378,N,01139.86865,E,AANN,11,1.06,471.7,46.2,,,V*10
$GNGSA,A,3,21,01,32,22,27,10,,,,,,,1.66,1.06,1.28,1*0B
$GNGSA,A,3,79,81,65,88,87,,,,,,,,1.66,1.06,1.28,2*04
$GNGSA,A,3,,,,,,,,,,,,,1.66,1.06,1.28,3*0E
$GNVTG,,T,,M,1.073,N,1.987,K,A*3F
$SMGPS,-0.0 m,+0.02 m/s,7.60 VRx,0.000 km,7 m,170.6 °,1:-- (  0.0 km/h),472.6 m*BC
$SMGPS2,-0.17 X,+0.59 Y,+0.70 Z,0 ENL,0 us,0.0 kmh,967.21 hPa,967.15 hPa,+0.01 m/s*02
$GNRMC,165257.70,A,4816.48366,N,01139.86882,E,0.65,,080522,,,A,V*2D
$GNGNS,165257.70,4816.48366,N,01139.86882,E,AANN,11,1.06,471.7,46.2,,,V*17
$GNGSA,A,3,21,01,32,22,27,10,,,,,,,1.66,1.06,1.28,1*0B
$GNGSA,A,3,79,81,65,88,87,,,,,,,,1.66,1.06,1.28,2*04
$GNGSA,A,3,,,,,,,,,,,,,1.66,1.06,1.28,3*0E
$GNVTG,,T,,M,0.651,N,1.205,K,A*39
$SMGPS,-0.0 m,+0.02 m/s,7.57 VRx,0.000 km,7 m,169.5 °,1:-- (  0.0 km/h),472.5 m*B0
$SMGPS2,-0.27 X,+0.58 Y,+0.72 Z,15 ENL,0 us,0.0 kmh,967.21 hPa,967.16 hPa,+0.00 m/s*34
$GNRMC,165257.80,A,4816.48363,N,01139.86895,E,0.64,,080522,,,A,V*20
$GNGNS,165257.80,4816.48363,N,01139.86895,E,AANN,11,1.06,471.7,46.2,,,V*1B
$GNGSA,A,3,21,01,32,22,27,10,,,,,,,1.66,1.06,1.28,1*0B
$GNGSA,A,3,79,81,65,88,87,,,,,,,,1.66,1.06,1.28,2*04
$GNGSA,A,3,,,,,,,,,,,,,1.66,1.06,1.28,3*0E
$GNVTG,,T,,M,0.639,N,1.183,K,A*3A
$SMGPS,0.0 m,+0.01 m/s,7.59 VRx,0.000 km,7 m,168.4 °,1:-- (  0.0 km/h),472.4 m*91
$SMGPS2,-0.14 X,+0.71 Y,+0.68 Z,0 ENL,0 us,0.0 kmh,967.20 hPa,967.15 hPa,-0.00 m/s*04
$GNRMC,165257.90,A,4816.48372,N,01139.86906,E,1.29,,080522,,,A,V*22
$GNGNS,165257.90,4816.48372,N,01139.86906,E,AANN,12,0.95,471.7,46.2,,,V*19
$GNGSA,A,3,21,01,32,22,27,10,03,,,,,,1.59,0.95,1.28,1*0F
$GNGSA,A,3,79,81,65,88,87,,,,,,,,1.66,1.06,1.28,2*04
$GNGSA,A,3,,,,,,,,,,,,,1.66,1.06,1.28,3*0E
$GNVTG,,T,,M,1.294,N,2.397,K,A*3C
$SMGPS,-0.0 m,+0.01 m/s,7.57 VRx,0.000 km,8 m,168.6 °,1:-- (  0.0 km/h),472.3 m*B8
$SMGPS2,-0.26 X,+0.63 Y,+0.71 Z,0 ENL,0 us,0.0 kmh,967.21 hPa,967.16 hPa,-0.01 m/s*0D
$GNRMC,165258.00,A,4816.48378,N,01139.86914,E,1.05,,080522,,,A,V*23
$GNGNS,165258.00,4816.48378,N,01139.86914,E,AANN,12,0.95,471.7,46.2,,,V*16
$GNGSA,A,3,21,01,32,22,27,10,03,,,,,,1.59,0.95,1.28,1*0F
$GNGSA,A,3,79,81,65,88,87,,,,,,,,1.59,0.95,1.28,2*03
$GNGSA,A,3,,,,,,,,,,,,,1.59,0.95,1.28,3*09
$GNVTG,,T,,M,1.045,N,1.935,K,A*33
$SMGPS,0.0 m,+0.00 m/s,7.58 VRx,0.001 km,7 m,165.7 °,1:-- (  0.0 km/h),472.2 m*98
$SMGPS2,-0.19 X,+0.62 Y,+0.73 Z,0 ENL,0 us,0.0 kmh,967.20 hPa,967.16 hPa,-0.01 m/s*03
$GNRMC,165258.10,A,4816.48387,N,01139.86917,E,0.08,,080522,,,A,V*2D
$GNGNS,165258.10,4816.48387,N,01139.86917,E,AANN,12,0.95,471.7,46.2,,,V*14
$GNGSA,A,3,21,01,32,22,27,10,03,,,,,,1.59,0.95,1.28,1*0F
$GNGSA,A,3,79,81,65,88,87,,,,,,,,1.59,0.95,1.28,2*03
$GNGSA,A,3,,,,,,,,,,,,,1.59,0.95,1.28,3*09
$GNVTG,,T,,M,0.081,N,0.150,K,A*30
$SMGPS,0.0 m,+0.00 m/s,7.56 VRx,0.001 km,7 m,164.7 °,1:-- (  0.0 km/h),472.1 m*94
$SMGPS2,-0.12 X,+0.76 Y,+1.02 Z,233 ENL,0 us,0.0 kmh,967.20 hPa,967.15 hPa,-0.01 m/s*0B
$GNRMC,165258.20,A,4816.48391,N,01139.86915,E,0.28,,080522,,,A,V*29
$GNGNS,165258.20,4816.48391,N,01139.86915,E,AANN,12,0.95,471.7,46.2,,,V*12
$GNGSA,A,3,21,01,32,22,27,10,03,,,,,,1.59,0.95,1.28,1*0F
$GNGSA,A,3,79,81,65,88,87,,,,,,,,1.59,0.95,1.28,2*03
$GNGSA,A,3,,,,,,,,,,,,,1.59,0.95,1.28,3*09
$GNVTG,,T,,M,0.279,N,0.516,K,A*33
$SMGPS,0.0 m,+0.00 m/s,7.58 VRx,0.001 km,7 m,164.7 °,1:-- (  0.0 km/h),472.2 m*99
$SMGPS2,-0.18 X,+0.67 Y,+0.82 Z,196 ENL,0 us,0.0 kmh,967.20 hPa,967.15 hPa,-0.01 m/s*04
$GNRMC,165258.30,A,4816.48386,N,01139.86913,E,0.76,,080522,,,A,V*23
$GNGNS,165258.30,4816.48386,N,01139.86913,E,AANN,12,0.95,471.7,46.2,,,V*13
$GNGSA,A,3,21,01,32,22,27,10,03,,,,,,1.59,0.95,1.28,1*0F
$GNGSA,A,3,79,81,65,88,87,,,,,,,,1.59,0.95,1.28,2*03
$GNGSA,A,3,,,,,,,,,,,,,1.59,0.95,1.28,3*09
$GNVTG,,T,,M,0.764,N,1.415,K,A*39
$SMGPS,0.0 m,+0.01 m/s,7.57 VRx,0.001 km,7 m,164.7 °,1:-- (  0.0 km/h),472.2 m*97
$SMGPS2,-0.21 X,+0.58 Y,+0.76 Z,717 ENL,0 us,0.0 kmh,967.20 hPa,967.15 hPa,-0.01 m/s*06
$GNRMC,165258.40,A,4816.48383,N,01139.86917,E,0.23,,080522,,,A,V*25
$GNGNS,165258.40,4816.48383,N,01139.86917,E,AANN,15,0.77,471.7,46.2,,,V*1E
$GNGSA,A,3,21,01,08,32,22,27,10,14,03,,,,1.26,0.77,0.99,1*0D
$GNGSA,A,3,79,81,65,88,87,,,,,,,,1.59,0.95,1.28,2*03
$GNGSA,A,3,,,,,,,,,,,,,1.59,0.95,1.28,3*09
$GNVTG,,T,,M,0.233,N,0.431,K,A*39
$SMGPS,0.0 m,+0.01 m/s,7.59 VRx,0.001 km,7 m,164.7 °,1:-- (  0.0 km/h),472.3 m*98
$SMGPS2,-0.11 X,+0.65 Y,+0.74 Z,283 ENL,0 us,0.0 kmh,967.20 hPa,967.15 hPa,-0.01 m/s*01
$GNRMC,165258.50,A,4816.48383,N,01139.86924,E,0.73,,080522,,,A,V*21
$GNGNS,165258.50,4816.48383,N,01139.86924,E,AANN,15,0.77,471.7,46.2,,,V*1F
$GNGSA,A,3,21,01,08,32,22,27,10,14,03,,,,1.26,0.77,0.99,1*0D
$GNGSA,A,3,79,81,65,88,87,82,,,,,,,1.26,0.77,0.99,2*06
$GNGSA,A,3,,,,,,,,,,,,,1.26,0.77,0.99,3*06
$GNVTG,,T,,M,0.725,N,1.343,K,A*38
$SMGPS,0.0 m,+0.01 m/s,7.56 VRx,0.001 km,7 m,164.7 °,1:-- (  0.0 km/h),472.3 m*97
$SMGPS2,-0.16 X,+0.56 Y,+0.78 Z,323 ENL,0 us,0.0 kmh,967.20 hPa,967.15 hPa,-0.01 m/s*01
$GNRMC,165258.60,A,4816.48376,N,01139.86919,E,0.63,,080522,,,A,V*27
$GNGNS,165258.60,4816.48376,N,01139.86919,E,AANN,15,0.76,471.7,46.2,,,V*19
$GNGSA,A,3,21,01,08,32,22,27,10,14,03,,,,1.31,0.76,1.07,1*0C
$GNGSA,A,3,79,81,65,88,87,82,,,,,,,1.26,0.77,0.99,2*06
$GNGSA,A,3,,,,,,,,,,,,,1.26,0.77,0.99,3*06
$GNVTG,,T,,M,0.630,N,1.167,K,A*39
$SMGPS,-0.0 m,+0.01 m/s,7.58 VRx,0.001 km,8 m,163.6 °,1:-- (  0.0 km/h),472.5 m*BB
$SMGPS2,-0.15 X,+0.58 Y,+0.78 Z,10 ENL,0 us,0.0 kmh,967.21 hPa,967.15 hPa,-0.00 m/s*3F
$GNRMC,165258.70,A,4816.48375,N,01139.86918,E,0.56,,080522,,,A,V*22
$GNGNS,165258.70,4816.48375,N,01139.86918,E,AANN,15,0.76,471.7,46.2,,,V*1A
$GNGSA,A,3,21,01,08,32,22,27,10,14,03,,,,1.31,0.76,1.07,1*0C
$GNGSA,A,3,79,81,65,88,66,87,,,,,,,1.31,0.76,1.07,2*0D
$GNGSA,A,3,,,,,,,,,,,,,1.31,0.76,1.07,3*07
$GNVTG,,T,,M,0.560,N,1.037,K,A*3B
$SMGPS,-0.0 m,+0.00 m/s,7.55 VRx,0.001 km,7 m,164.7 °,1:-- (  0.0 km/h),472.6 m*BD
$SMGPS2,-0.16 X,+0.58 Y,+0.82 Z,0 ENL,0 us,0.0 kmh,967.21 hPa,967.15 hPa,-0.00 m/s*08
$GNRMC,165258.80,A,4816.48384,N,01139.86908,E,0.73,,080522,,,A,V*25
$GNGNS,165258.80,4816.48384,N,01139.86908,E,AANN,15,0.76,471.7,46.2,,,V*1A
$GNGSA,A,3,21,01,08,32,22,27,10,14,03,,,,1.31,0.76,1.07,1*0C
$GNGSA,A,3,79,81,65,88,66,87,,,,,,,1.31,0.76,1.07,2*0D
$GNGSA,A,3,,,,,,,,,,,,,1.31,0.76,1.07,3*07
$GNVTG,,T,,M,0.733,N,1.357,K,A*3A
$SMGPS,-0.0 m,-0.00 m/s,7.58 VRx,0.001 km,7 m,164.7 °,1:-- (  0.0 km/h),472.6 m*B6
$SMGPS2,-0.17 X,+0.57 Y,+0.78 Z,0 ENL,0 us,0.0 kmh,967.21 hPa,967.15 hPa,-0.00 m/s*03
$GNRMC,165258.90,A,4816.48376,N,01139.86896,E,0.29,,080522,,,A,V*20
$GNGNS,165258.90,4816.48376,N,01139.86896,E,AANN,14,0.81,471.7,46.2,,,V*19
$GNGSA,A,3,21,01,08,32,22,27,10,14,03,,,,1.36,0.81,1.09,1*0D
$GNGSA,A,3,79,81,65,88,66,87,,,,,,,1.31,0.76,1.07,2*0D
$GNGSA,A,3,,,,,,,,,,,,,1.31,0.76,1.07,3*07
$GNVTG,,T,,M,0.285,N,0.528,K,A*3D
$SMGPS,-0.0 m,-0.01 m/s,7.56 VRx,0.001 km,7 m,164.7 °,1:-- (  0.0 km/h),472.8 m*B7
$SMGPS2,-0.16 X,+0.58 Y,+0.78 Z,0 ENL,0 us,0.0 kmh,967.21 hPa,967.15 hPa,-0.00 m/s*0D
$GNRMC,165259.00,A,4816.48356,N,01139.86880,E,0.13,,080522,,,A,V*24
$GNGNS,165259.00,4816.48356,N,01139.86880,E,AANN,15,0.77,471.7,46.2,,,V*1C
$GNGSA,A,3,21,01,08,32,22,27,10,14,03,,,,1.26,0.77,0.99,1*0D
$GNGSA,A,3,79,81,65,88,87,,,,,,,,1.36,0.81,1.09,2*0C
$GNGSA,A,3,,,,,,,,,,,,,1.36,0.81,1.09,3*06
$GNVTG,,T,,M,0.121,N,0.225,K,A*3A
$SMGPS,-0.0 m,-0.02 m/s,7.59 VRx,0.001 km,7 m,165.7 °,1:-- (  0.0 km/h),473.1 m*B2
$SMGPS2,-0.17 X,+0.59 Y,+0.77 Z,0 ENL,0 us,0.0 kmh,967.21 hPa,967.16 hPa,-0.01 m/s*00
$GNRMC,165259.10,A,4816.48355,N,01139.86862,E,0.29,,080522,,,A,V*23
$GNGNS,165259.10,4816.48355,N,01139.86862,E,AANN,16,0.72,471.7,46.2,,,V*14
$GNGSA,A,3,21,01,08,32,22,27,10,14,03,,,,1.22,0.72,0.98,1*0D
$GNGSA,A,3,79,81,65,88,87,82,,,,,,,1.26,0.77,0.99,2*06
$GNGSA,A,3,,,,,,,,,,,,,1.26,0.77,0.99,3*06
$GNVTG,,T,,M,0.282,N,0.523,K,A*31
$SMGPS,-0.0 m,-0.02 m/s,7.57 VRx,0.001 km,8 m,169.6 °,1:-- (  0.0 km/h),473.5 m*BA
$SMGPS2,-0.17 X,+0.60 Y,+0.75 Z,0 ENL,0 us,0.0 kmh,967.21 hPa,967.16 hPa,-0.01 m/s*08
$GNRMC,165259.20,A,4816.48366,N,01139.86852,E,0.23,,080522,,,A,V*29
$GNGNS,165259.20,4816.48366,N,01139.86852,E,AANN,16,0.72,471.7,46.2,,,V*14
$GNGSA,A,3,21,01,08,32,22,27,10,14,03,,,,1.22,0.72,0.98,1*0D
$GNGSA,A,3,79,81,65,88,66,87,82,,,,,,1.22,0.72,0.98,2*06
$GNGSA,A,3,,,,,,,,,,,,,1.22,0.72,0.98,3*06
$GNVTG,,T,,M,0.223,N,0.412,K,A*39
$SMGPS,-0.0 m,-0.03 m/s,7.58 VRx,0.001 km,8 m,170.6 °,1:-- (  0.0 km/h),473.8 m*B1
$SMGPS2,-0.17 X,+0.62 Y,+0.75 Z,0 ENL,0 us,0.0 kmh,967.21 hPa,967.15 hPa,-0.00 m/s*08
$GNRMC,165259.30,A,4816.48369,N,01139.86834,E,0.13,,080522,,,A,V*24
$GNGNS,165259.30,4816.48369,N,01139.86834,E,AANN,15,0.77,471.7,46.2,,,V*1C
$GNGSA,A,3,21,01,08,32,22,27,10,14,03,,,,1.26,0.77,0.99,1*0D
$GNGSA,A,3,79,81,65,88,66,87,82,,,,,,1.22,0.72,0.98,2*06
$GNGSA,A,3,,,,,,,,,,,,,1.22,0.72,0.98,3*06
$GNVTG,,T,,M,0.120,N,0.223,K,A*3D
$SMGPS,0.0 m,-0.03 m/s,7.57 VRx,0.001 km,7 m,170.6 °,1:-- (  0.0 km/h),474.0 m*93
$SMGPS2,-0.17 X,+0.63 Y,+0.70 Z,3 ENL,0 us,0.0 kmh,967.21 hPa,967.16 hPa,-0.01 m/s*0D
$GNRMC,165259.40,A,4816.48376,N,01139.86818,E,0.10,,080522,,,A,V*20
$GNGNS,165259.40,4816.48376,N,01139.86818,E,AANN,16,0.72,471.7,46.2,,,V*1D
$GNGSA,A,3,21,01,08,32,22,27,10,14,03,,,,1.22,0.72,0.98,1*0D
$GNGSA,A,3,79,81,65,88,87,82,,,,,,,1.26,0.77,0.99,2*06
$GNGSA,A,3,,,,,,,,,,,,,1.26,0.77,0.99,3*06
$GNVTG,,T,,M,0.085,N,0.158,K,A*3C
$SMGPS,0.0 m,-0.02 m/s,7.59 VRx,0.001 km,7 m,172.7 °,1:-- (  0.0 km/h),474.3 m*9C
$SMGPS2,-0.17 X,+0.61 Y,+0.73 Z,0 ENL,0 us,0.0 kmh,967.21 hPa,967.16 hPa,-0.01 m/s*0F
$GNRMC,165259.50,A,4816.48384,N,01139.86804,E,0.15,,080522,,,A,V*24
$GNGNS,165259.50,4816.48384,N,01139.86804,E,AANN,16,0.72,471.7,46.2,,,V*1C
$GNGSA,A,3,21,01,08,32,22,27,10,14,03,,,,1.22,0.72,0.98,1*0D
$GNGSA,A,3,79,81,65,88,66,87,82,,,,,,1.22,0.72,0.98,2*06
$GNGSA,A,3,,,,,,,,,,,,,1.22,0.72,0.98,3*06
$GNVTG,,T,,M,0.141,N,0.261,K,A*3C
$SMGPS,-0.0 m,-0.02 m/s,7.58 VRx,0.001 km,7 m,173.9 °,1:-- (  0.0 km/h),474.6 m*BA
$SMGPS2,-0.17 X,+0.62 Y,+0.73 Z,2 ENL,0 us,0.0 kmh,967.21 hPa,967.16 hPa,-0.01 m/s*0E
$GNRMC,165259.60,A,4816.48384,N,01139.86794,E,0.09,,080522,,,A,V*2C
$GNGNS,165259.60,4816.48384,N,01139.86794,E,AANN,16,0.72,471.7,46.2,,,V*19
$GNGSA,A,3,21,01,08,32,22,27,10,14,03,,,,1.22,0.72,0.98,1*0D
$GNGSA,A,3,79,81,65,88,66,87,82,,,,,,1.22,0.72,0.98,2*06
$GNGSA,A,3,,,,,,,,,,,,,1.22,0.72,0.98,3*06
$GNVTG,,T,,M,0.082,N,0.153,K,A*30
$SMGPS,-0.0 m,-0.02 m/s,7.60 VRx,0.001 km,7 m,175.0 °,1:-- (  0.0 km/h),474.8 m*B0
$SMGPS2,-0.17 X,+0.63 Y,+0.73 Z,1 ENL,0 us,0.0 kmh,967.21 hPa,967.15 hPa,-0.01 m/s*0F
$GNRMC,165259.70,A,4816.48381,N,01139.86784,E,0.12,,080522,,,A,V*23
$GNGNS,165259.70,4816.48381,N,01139.86784,E,AANN,16,0.72,471.7,46.2,,,V*1C
$GNGSA,A,3,21,01,08,32,22,27,10,14,03,,,,1.22,0.72,0.98,1*0D
$GNGSA,A,3,79,81,65,88,66,87,82,,,,,,1.22,0.72,0.98,2*06
$GNGSA,A,3,,,,,,,,,,,,,1.22,0.72,0.98,3*06
$GNVTG,,T,,M,0.120,N,0.223,K,A*3D
$SMGPS,0.0 m,-0.01 m/s,7.57 VRx,0.001 km,7 m,176.6 °,1:-- (  0.0 km/h),474.9 m*9E
$SMGPS2,-0.17 X,+0.64 Y,+0.72 Z,1 ENL,0 us,0.0 kmh,967.21 hPa,967.15 hPa,-0.01 m/s*09
$GNRMC,165259.80,A,4816.48378,N,01139.86775,E,0.16,,080522,,,A,V*20
$GNGNS,165259.80,4816.48378,N,01139.86775,E,AANN,16,0.72,471.7,46.2,,,V*1B
$GNGSA,A,3,21,01,08,32,22,27,10,14,03,,,,1.22,0.72,0.98,1*0D
$GNGSA,A,3,79,81,65,88,66,87,82,,,,,,1.22,0.72,0.98,2*06
$GNGSA,A,3,,,,,,,,,,,,,1.22,0.72,0.98,3*06
$GNVTG,,T,,M,0.158,N,0.292,K,A*38
$SMGPS,0.0 m,-0.01 m/s,7.62 VRx,0.001 km,7 m,177.8 °,1:-- (  0.0 km/h),475.0 m*9F
$SMGPS2,-0.17 X,+0.64 Y,+0.73 Z,0 ENL,0 us,0.0 kmh,967.21 hPa,967.16 hPa,-0.01 m/s*0A
$GNRMC,165259.90,A,4816.48372,N,01139.86778,E,0.29,,080522,,,A,V*2A
$GNGNS,165259.90,4816.48372,N,01139.86778,E,AANN,16,0.72,471.7,46.2,,,V*1D
$GNGSA,A,3,21,01,08,32,22,27,10,14,03,,,,1.22,0.72,0.98,1*0D
$GNGSA,A,3,79,81,65,88,66,87,82,,,,,,1.22,0.72,0.98,2*06
$GNGSA,A,3,,,,,,,,,,,,,1.22,0.72,0.98,3*06
$GNVTG,,T,,M,0.288,N,0.534,K,A*3D
$SMGPS,-0.0 m,-0.00 m/s,7.61 VRx,0.001 km,7 m,177.8 °,1:-- (  0.0 km/h),475.2 m*B2
$SMGPS2,-0.17 X,+0.63 Y,+0.74 Z,0 ENL,0 us,0.0 kmh,967.21 hPa,967.16 hPa,-0.01 m/s*0A
$GNRMC,165300.00,A,4816.48369,N,01139.86782,E,0.24,,080522,,,A,V*2C
$GNGNS,165300.00,4816.48369,N,01139.86782,E,AANN,16,0.72,471.7,46.2,,,V*16
$GNGSA,A,3,21,01,08,32,22,27,10,14,03,,,,1.22,0.72,0.98,1*0D
$GNGSA,A,3,79,81,65,88,66,87,82,,,,,,1.22,0.72,0.98,2*06
$GNGSA,A,3,,,,,,,,,,,,,1.22,0.72,0.98,3*06
$GNVTG,,T,,M,0.241,N,0.447,K,A*3D
$SMGPS,-0.0 m,-0.00 m/s,7.60 VRx,0.001 km,7 m,177.8 °,1:-- (  0.0 km/h),475.1 m*B0
$SMGPS2,-0.17 X,+0.63 Y,+0.73 Z,0 ENL,0 us,0.0 kmh,967.21 hPa,967.16 hPa,-0.00 m/s*0C
$GNRMC,165300.10,A,4816.48373,N,01139.86782,E,0.05,,080522,,,A,V*25
$GNGNS,165300.10,4816.48373,N,01139.86782,E,AANN,16,0.72,471.7,46.2,,,V*1C
$GNGSA,A,3,21,01,08,32,22,27,10,14,03,,,,1.22,0.72,0.98,1*0D
$GNGSA,A,3,79,81,65,88,66,87,82,,,,,,1.22,0.72,0.98,2*06
$GNGSA,A,3,,,,,,,,,,,,,1.22,0.72,0.98,3*06
$GNVTG,,T,,M,0.047,N,0.087,K,A*31
$SMGPS,0.0 m,-0.01 m/s,7.56 VRx,0.001 km,7 m,177.8 °,1:-- (  0.0 km/h),475.1 m*99
$SMGPS2,-0.17 X,+0.63 Y,+0.73 Z,0 ENL,0 us,0.0 kmh,967.21 hPa,967.16 hPa,-0.01 m/s*0D
$GNRMC,165300.20,A,4816.48370,N,01139.86783,E,0.10,,080522,,,A,V*20
$GNGNS,165300.20,4816.48370,N,01139.86783,E,AANN,16,0.72,471.7,46.2,,,V*1D
$GNGSA,A,3,21,01,08,32,22,27,10,14,03,,,,1.22,0.72,0.98,1*0D
$GNGSA,A,3,79,81,65,88,66,87,82,,,,,,1.22,0.72,0.98,2*06
$GNGSA,A,3,,,,,,,,,,,,,1.22,0.72,0.98,3*06
$GNVTG,,T,,M,0.094,N,0.173,K,A*35
$SMGPS,-0.0 m,-0.01 m/s,7.58 VRx,0.001 km,7 m,177.8 °,1:-- (  0.0 km/h),475.1 m*BA
$SMGPS2,-0.17 X,+0.63 Y,+0.73 Z,0 ENL,0 us,0.0 kmh,967.21 hPa,967.16 hPa,-0.01 m/s*0D
$GNRMC,165300.30,A,4816.48367,N,01139.86784,E,0.09,,080522,,,A,V*28
$GNGNS,165300.30,4816.48367,N,01139.86784,E,AANN,16,0.72,471.7,46.2,,,V*1D
$GNGSA,A,3,21,01,08,32,22,27,10,14,03,,,,1.22,0.72,0.98,1*0D
$GNGSA,A,3,79,81,65,88,66,87,82,,,,,,1.22,0.72,0.98,2*06
$GNGSA,A,3,,,,,,,,,,,,,1.22,0.72,0.98,3*06
$GNVTG,,T,,M,0.088,N,0.163,K,A*39
$SMGPS,-0.0 m,-0.01 m/s,7.56 VRx,0.001 km,7 m,177.8 °,1:-- (  0.0 km/h),475.1 m*B4
$SMGPS2,-0.17 X,+0.63 Y,+0.73 Z,0 ENL,0 us,0.0 kmh,967.21 hPa,967.16 hPa,-0.01 m/s*0D
$GNRMC,165300.40,A,4816.48364,N,01139.86783,E,0.08,,080522,,,A,V*2A
$GNGNS,165300.40,4816.48364,N,01139.86783,E,AANN,16,0.72,471.7,46.2,,,V*1E
$GNGSA,A,3,21,01,08,32,22,27,10,14,03,,,,1.22,0.72,0.98,1*0D
$GNGSA,A,3,79,81,65,88,66,87,82,,,,,,1.22,0.72,0.98,2*06
$GNGSA,A,3,,,,,,,,,,,,,1.22,0.72,0.98,3*06
$GNVTG,,T,,M,0.072,N,0.133,K,A*39
$SMGPS,-0.0 m,-0.01 m/s,7.59 VRx,0.001 km,7 m,177.8 °,1:-- (  0.0 km/h),475.1 m*BB
$SMGPS2,-0.16 X,+0.63 Y,+0.73 Z,0 ENL,0 us,0.0 kmh,967.21 hPa,967.15 hPa,-0.01 m/s*0F
$GNRMC,165300.50,A,4816.48363,N,01139.86784,E,0.02,,080522,,,A,V*21
$GNGNS,165300.50,4816.48363,N,01139.86784,E,AANN,16,0.72,471.7,46.2,,,V*1F
$GNGSA,A,3,21,01,08,32,22,27,10,14,03,,,,1.22,0.72,0.98,1*0D
$GNGSA,A,3,79,81,65,88,66,87,82,,,,,,1.22,0.72,0.98,2*06
$GNGSA,A,3,,,,,,,,,,,,,1.22,0.72,0.98,3*06
$GNVTG,,T,,M,0.016,N,0.029,K,A*31
$SMGPS,0.0 m,-0.01 m/s,7.57 VRx,0.001 km,8 m,178.0 °,1:-- (  0.0 km/h),475.1 m*90
$SMGPS2,-0.17 X,+0.63 Y,+0.73 Z,0 ENL,0 us,0.0 kmh,967.21 hPa,967.15 hPa,-0.00 m/s*0F
$GNRMC,165300.60,A,4816.48360,N,01139.86786,E,0.04,,080522,,,A,V*25
$GNGNS,165300.60,4816.48360,N,01139.86786,E,AANN,17,0.66,471.7,46.2,,,V*19
$GNGSA,A,3,21,01,08,32,22,27,10,14,03,,,,1.15,0.66,0.95,1*01
$GNGSA,A,3,79,81,65,88,66,87,82,,,,,,1.22,0.72,0.98,2*06
$GNGSA,A,3,,,,,,,,,,,,,1.22,0.72,0.98,3*06
$GNVTG,,T,,M,0.035,N,0.066,K,A*3B
$SMGPS,-0.0 m,-0.01 m/s,7.58 VRx,0.001 km,8 m,178.0 °,1:-- (  0.0 km/h),475.1 m*B2
$SMGPS2,-0.17 X,+0.63 Y,+0.73 Z,0 ENL,0 us,0.0 kmh,967.21 hPa,967.15 hPa,-0.01 m/s*0E
$GNRMC,165300.70,A,4816.48360,N,01139.86788,E,0.14,,080522,,,A,V*2B
$GNGNS,165300.70,4816.48360,N,01139.86788,E,AANN,17,0.66,471.7,46.2,,,V*16
$GNGSA,A,3,21,01,08,32,22,27,10,14,03,,,,1.15,0.66,0.95,1*01
$GNGSA,A,3,79,81,65,88,66,72,87,82,,,,,1.15,0.66,0.95,2*0F
$GNGSA,A,3,,,,,,,,,,,,,1.15,0.66,0.95,3*0A
$GNVTG,,T,,M,0.137,N,0.253,K,A*3C
$SMGPS,-0.0 m,-0.01 m/s,7.57 VRx,0.001 km,8 m,177.0 °,1:-- (  0.0 km/h),475.1 m*B2
$SMGPS2,-0.16 X,+0.63 Y,+0.73 Z,0 ENL,0 us,0.0 kmh,967.21 hPa,967.16 hPa,-0.00 m/s*0D
$GNRMC,165300.80,A,4816.48357,N,01139.86786,E,0.19,,080522,,,A,V*23
$GNGNS,165300.80,4816.48357,N,01139.86786,E,AANN,17,0.66,471.7,46.2,,,V*13
$GNGSA,A,3,21,01,08,32,22,27,10,14,03,,,,1.15,0.66,0.95,1*01
$GNGSA,A,3,79,81,65,88,66,72,87,82,,,,,1.15,0.66,0.95,2*0F
$GNGSA,A,3,,,,,,,,,,,,,1.15,0.66,0.95,3*0A
$GNVTG,,T,,M,0.189,N,0.350,K,A*3B
$SMGPS,0.0 m,-0.01 m/s,7.58 VRx,0.001 km,8 m,177.0 °,1:-- (  0.0 km/h),475.1 m*90
$SMGPS2,-0.17 X,+0.63 Y,+0.73 Z,0 ENL,0 us,0.0 kmh,967.21 hPa,967.16 hPa,-0.00 m/s*0C
$GNRMC,165300.90,A,4816.48350,N,01139.86784,E,0.08,,080522,,,A,V*27
$GNGNS,165300.90,4816.48350,N,01139.86784,E,AANN,17,0.66,471.7,46.2,,,V*17
$GNGSA,A,3,21,01,08,32,22,27,10,14,03,,,,1.15,0.66,0.95,1*01
$GNGSA,A,3,79,81,65,88,66,72,87,82,,,,,1.15,0.66,0.95,2*0F
$GNGSA,A,3,,,,,,,,,,,,,1.15,0.66,0.95,3*0A
$GNVTG,,T,,M,0.077,N,0.143,K,A*3B
$SMGPS,-0.0 m,-0.00 m/s,7.56 VRx,0.001 km,8 m,177.0 °,1:-- (  0.0 km/h),475.2 m*B1
$SMGPS2,-0.17 X,+0.63 Y,+0.73 Z,0 ENL,0 us,0.0 kmh,967.21 hPa,967.16 hPa,-0.00 m/s*0C
$GNRMC,165301.00,A,4816.48342,N,01139.86779,E,0.06,,080522,,,A,V*20
$GNGNS,165301.00,4816.48342,N,01139.86779,E,AANN,17,0.66,471.7,46.2,,,V*1E
$GNGSA,A,3,21,01,08,32,22,27,10,14,03,,,,1.15,0.66,0.95,1*01
$GNGSA,A,3,79,81,65,88,66,72,87,82,,,,,1.15,0.66,0.95,2*0F
$GNGSA,A,3,,,,,,,,,,,,,1.15,0.66,0.95,3*0A
$GNVTG,,T,,M,0.064,N,0.118,K,A*37
$SMGPS,0.0 m,+0.00 m/s,7.58 VRx,0.001 km,8 m,178.0 °,1:-- (  0.0 km/h),475.3 m*9A
$SMGPS2,-0.17 X,+0.63 Y,+0.74 Z,0 ENL,0 us,0.0 kmh,967.21 hPa,967.16 hPa,-0.01 m/s*0A
$GNRMC,165301.10,A,4816.48333,N,01139.86775,E,0.02,,080522,,,A,V*2F
$GNGNS,165301.10,4816.48333,N,01139.86775,E,AANN,17,0.66,471.7,46.2,,,V*15
$GNGSA,A,3,21,01,08,32,22,27,10,14,03,,,,1.15,0.66,0.95,1*01
$GNGSA,A,3,79,81,65,88,66,72,87,82,,,,,1.15,0.66,0.95,2*0F
$GNGSA,A,3,,,,,,,,,,,,,1.15,0.66,0.95,3*0A
$GNVTG,,T,,M,0.022,N,0.041,K,A*38
$SMGPS,-0.0 m,-0.00 m/s,7.56 VRx,0.001 km,8 m,178.0 °,1:-- (  0.0 km/h),475.4 m*B8
$SMGPS2,-0.17 X,+0.63 Y,+0.72 Z,0 ENL,0 us,0.0 kmh,967.21 hPa,967.16 hPa,-0.01 m/s*0C
$GNRMC,165301.20,A,4816.48329,N,01139.86774,E,0.20,,080522,,,A,V*26
$GNGNS,165301.20,4816.48329,N,01139.86774,E,AANN,17,0.66,471.7,46.2,,,V*1C
$GNGSA,A,3,21,01,08,32,22,27,10,14,03,,,,1.15,0.66,0.95,1*01
$GNGSA,A,3,79,81,65,88,66,72,87,82,,,,,1.15,0.66,0.95,2*0F
$GNGSA,A,3,,,,,,,,,,,,,1.15,0.66,0.95,3*0A
$GNVTG,,T,,M,0.200,N,0.370,K,A*3B
$SMGPS,0.0 m,-0.01 m/s,7.59 VRx,0.001 km,8 m,178.0 °,1:-- (  0.0 km/h),475.6 m*99
$SMGPS2,-0.17 X,+0.63 Y,+0.73 Z,0 ENL,0 us,0.0 kmh,967.21 hPa,967.16 hPa,-0.01 m/s*0D
$GNRMC,165301.30,A,4816.48322,N,01139.86768,E,0.06,,080522,,,A,V*25
$GNGNS,165301.30,4816.48322,N,01139.86768,E,AANN,17,0.66,471.7,46.2,,,V*1B
$GNGSA,A,3,21,01,08,32,22,27,10,14,03,,,,1.15,0.66,0.95,1*01
$GNGSA,A,3,79,81,65,88,66,72,87,82,,,,,1.15,0.66,0.95,2*0F
$GNGSA,A,3,,,,,,,,,,,,,1.15,0.66,0.95,3*0A
$GNVTG,,T,,M,0.059,N,0.110,K,A*31
$SMGPS,-0.0 m,-0.00 m/s,7.56 VRx,0.001 km,8 m,178.0 °,1:-- (  0.0 km/h),475.6 m*BA
$SMGPS2,-0.17 X,+0.63 Y,+0.74 Z,0 ENL,0 us,0.0 kmh,967.21 hPa,967.16 hPa,-0.01 m/s*0A
$GNRMC,165301.40,A,4816.48320,N,01139.86768,E,0.17,,080522,,,A,V*20
$GNGNS,165301.40,4816.48320,N,01139.86768,E,AANN,17,0.66,471.7,46.2,,,V*1E
$GNGSA,A,3,21,01,08,32,22,27,10,14,03,,,,1.15,0.66,0.95,1*01
$GNGSA,A,3,79,81,65,88,66,72,87,82,,,,,1.15,0.66,0.95,2*0F
$GNGSA,A,3,,,,,,,,,,,,,1.15,0.66,0.95,3*0A
$GNVTG,,T,,M,0.173,N,0.320,K,A*39
$SMGPS,0.0 m,-0.00 m/s,7.61 VRx,0.001 km,8 m,179.0 °,1:-- (  0.0 km/h),475.7 m*93
$SMGPS2,-0.17 X,+0.64 Y,+0.73 Z,0 ENL,0 us,0.0 kmh,967.21 hPa,967.16 hPa,-0.01 m/s*0A
$GNRMC,165301.50,A,4816.48314,N,01139.86766,E,0.17,,080522,,,A,V*28
$GNGNS,165301.50,4816.48314,N,01139.86766,E,AANN,17,0.66,471.7,46.2,,,V*16
$GNGSA,A,3,21,01,08,32,22,27,10,14,03,,,,1.15,0.66,0.95,1*01
$GNGSA,A,3,79,81,65,88,66,72,87,82,,,,,1.15,0.66,0.95,2*0F
$GNGSA,A,3,,,,,,,,,,,,,1.15,0.66,0.95,3*0A
$GNVTG,,T,,M,0.167,N,0.310,K,A*3F
$SMGPS,0.0 m,-0.00 m/s,7.59 VRx,0.001 km,8 m,179.0 °,1:-- (  0.0 km/h),475.6 m*99
$SMGPS2,-0.17 X,+0.63 Y,+0.73 Z,0 ENL,0 us,0.0 kmh,967.20 hPa,967.16 hPa,-0.01 m/s*0C
$GNRMC,165301.60,A,4816.48310,N,01139.86764,E,0.14,,080522,,,A,V*2E
$GNGNS,165301.60,4816.48310,N,01139.86764,E,AANN,17,0.66,471.7,46.2,,,V*13
$GNGSA,A,3,21,01,08,32,22,27,10,14,03,,,,1.15,0.66,0.95,1*01
$GNGSA,A,3,79,81,65,88,66,72,87,82,,,,,1.15,0.66,0.95,2*0F
$GNGSA,A,3,,,,,,,,,,,,,1.15,0.66,0.95,3*0A
$GNVTG,,T,,M,0.136,N,0.253,K,A*3D
$SMGPS,-0.0 m,-0.00 m/s,7.59 VRx,0.001 km,9 m,179.1 °,1:-- (  0.0 km/h),475.6 m*B4
$SMGPS2,-0.16 X,+0.63 Y,+0.73 Z,0 ENL,0 us,0.0 kmh,967.22 hPa,967.16 hPa,-0.02 m/s*0C
$GNRMC,165301.70,A,4816.48309,N,01139.86764,E,0.04,,080522,,,A,V*26
$GNGNS,165301.70,4816.48309,N,01139.86764,E,AANN,17,0.66,471.7,46.2,,,V*1A
$GNGSA,A,3,21,01,08,32,22,27,10,14,03,,,,1.15,0.66,0.95,1*01
$GNGSA,A,3,79,81,65,88,66,72,87,82,,,,,1.15,0.66,0.95,2*0F
$GNGSA,A,3,,,,,,,,,,,,,1.15,0.66,0.95,3*0A
$GNVTG,,T,,M,0.041,N,0.076,K,A*39
$SMGPS,-0.0 m,-0.01 m/s,7.57 VRx,0.001 km,9 m,179.1 °,1:-- (  0.0 km/h),475.6 m*BB
$SMGPS2,-0.17 X,+0.63 Y,+0.73 Z,0 ENL,0 us,0.0 kmh,967.21 hPa,967.16 hPa,-0.02 m/s*0E
$GNRMC,165301.80,A,4816.48307,N,01139.86765,E,0.06,,080522,,,A,V*24
$GNGNS,165301.80,4816.48307,N,01139.86765,E,AANN,17,0.66,471.7,46.2,,,V*1A
$GNGSA,A,3,21,01,08,32,22,27,10,14,03,,,,1.15,0.66,0.95,1*01
$GNGSA,A,3,79,81,65,88,66,72,87,82,,,,,1.15,0.66,0.95,2*0F
$GNGSA,A,3,,,,,,,,,,,,,1.15,0.66,0.95,3*0A
$GNVTG,,T,,M,0.058,N,0.108,K,A*39
$SMGPS,-0.0 m,-0.01 m/s,7.59 VRx,0.001 km,9 m,179.1 °,1:-- (  0.0 km/h),475.5 m*B6
$SMGPS2,-0.17 X,+0.63 Y,+0.73 Z,0 ENL,0 us,0.0 kmh,967.21 hPa,967.16 hPa,-0.02 m/s*0E
$GNRMC,165301.90,A,4816.48307,N,01139.86765,E,0.05,,080522,,,A,V*26
$GNGNS,165301.90,4816.48307,N,01139.86765,E,AANN,17,0.66,471.7,46.2,,,V*1B
$GNGSA,A,3,21,01,08,32,22,27,10,14,03,,,,1.15,0.66,0.95,1*01
$GNGSA,A,3,79,81,65,88,66,72,87,82,,,,,1.15,0.66,0.95,2*0F
$GNGSA,A,3,,,,,,,,,,,,,1.15,0.66,0.95,3*0A
$GNVTG,,T,,M,0.044,N,0.082,K,A*37
$SMGPS,-0.0 m,-0.01 m/s,7.58 VRx,0.001 km,9 m,179.1 °,1:-- (  0.0 km/h),475.5 m*B7
$SMGPS2,-0.17 X,+0.63 Y,+0.73 Z,0 ENL,0 us,0.0 kmh,967.21 hPa,967.16 hPa,-0.02 m/s*0E
$GNRMC,165302.00,A,4816.48308,N,01139.86764,E,0.09,,080522,,,A,V*2E
$GNGNS,165302.00,4816.48308,N,01139.86764,E,AANN,17,0.66,471.7,46.2,,,V*1F
$GNGSA,A,3,21,01,08,32,22,27,10,14,03,,,,1.15,0.66,0.95,1*01
$GNGSA,A,3,79,81,65,88,66,72,87,82,,,,,1.15,0.66,0.95,2*0F
$GNGSA,A,3,,,,,,,,,,,,,1.15,0.66,0.95,3*0A
$GNVTG,,T,,M,0.082,N,0.151,K,A*32
$SMGPS,-0.0 m,-0.01 m/s,7.59 VRx,0.001 km,9 m,179.1 °,1:-- (  0.0 km/h),475.4 m*B7
$SMGPS2,-0.17 X,+0.63 Y,+0.73 Z,0 ENL,0 us,0.0 kmh,967.22 hPa,967.15 hPa,-0.01 m/s*0D
$GNRMC,165302.10,A,4816.48307,N,01139.86763,E,0.04,,080522,,,A,V*2A
$GNGNS,165302.10,4816.48307,N,01139.86763,E,AANN,17,0.66,471.7,46.2,,,V*16
$GNGSA,A,3,21,01,08,32,22,27,10,14,03,,,,1.15,0.66,0.95,1*01
$GNGSA,A,3,79,81,65,88,66,72,87,82,,,,,1.15,0.66,0.95,2*0F
$GNGSA,A,3,,,,,,,,,,,,,1.15,0.66,0.95,3*0A
$GNVTG,,T,,M,0.028,N,0.053,K,A*31
$SMGPS,-0.0 m,-0.02 m/s,7.58 VRx,0.001 km,9 m,179.1 °,1:-- (  0.0 km/h),475.3 m*B2
$SMGPS2,-0.17 X,+0.63 Y,+0.73 Z,0 ENL,0 us,0.0 kmh,967.21 hPa,967.16 hPa,-0.01 m/s*0D
$GNRMC,165302.20,A,4816.48302,N,01139.86761,E,0.13,,080522,,,A,V*28
$GNGNS,165302.20,4816.48302,N,01139.86761,E,AANN,17,0.66,471.7,46.2,,,V*12
$GNGSA,A,3,21,01,08,32,22,27,10,14,03,,,,1.15,0.66,0.95,1*01
$GNGSA,A,3,79,81,65,88,66,72,87,82,,,,,1.15,0.66,0.95,2*0F
$GNGSA,A,3,,,,,,,,,,,,,1.15,0.66,0.95,3*0A
$GNVTG,,T,,M,0.128,N,0.236,K,A*31
$SMGPS,-0.0 m,-0.02 m/s,7.60 VRx,0.001 km,9 m,179.1 °,1:-- (  0.0 km/h),475.3 m*B9
$SMGPS2,-0.17 X,+0.63 Y,+0.73 Z,0 ENL,0 us,0.0 kmh,967.21 hPa,967.16 hPa,-0.01 m/s*0D
$GNRMC,165302.30,A,4816.48297,N,01139.86760,E,0.07,,080522,,,A,V*20
$GNGNS,165302.30,4816.48297,N,01139.86760,E,AANN,17,0.66,471.7,46.2,,,V*1F
$GNGSA,A,3,21,01,08,32,22,27,10,14,03,,,,1.15,0.66,0.95,1*01
$GNGSA,A,3,79,81,65,88,66,72,87,82,,,,,1.15,0.66,0.95,2*0F
$GNGSA,A,3,,,,,,,,,,,,,1.15,0.66,0.95,3*0A
$GNVTG,,T,,M,0.058,N,0.107,K,A*36
$SMGPS,-0.0 m,-0.02 m/s,7.57 VRx,0.001 km,9 m,180.0 °,1:-- (  0.0 km/h),475.2 m*BB
$SMGPS2,-0.17 X,+0.63 Y,+0.74 Z,0 ENL,0 us,0.0 kmh,967.21 hPa,967.16 hPa,+0.00 m/s*0D
$GNRMC,165302.40,A,4816.48291,N,01139.86759,E,0.16,,080522,,,A,V*2B
$GNGNS,165302.40,4816.48291,N,01139.86759,E,AANN,17,0.66,471.7,46.2,,,V*14
$GNGSA,A,3,21,01,08,32,22,27,10,14,03,,,,1.15,0.66,0.95,1*01
$GNGSA,A,3,79,81,65,88,66,72,87,82,,,,,1.15,0.66,0.95,2*0F
$GNGSA,A,3,,,,,,,,,,,,,1.15,0.66,0.95,3*0A
$GNVTG,,T,,M,0.160,N,0.295,K,A*34
$SMGPS,0.0 m,-0.02 m/s,7.60 VRx,0.001 km,9 m,180.0 °,1:-- (  0.0 km/h),475.1 m*91
$SMGPS2,-0.17 X,+0.63 Y,+0.74 Z,0 ENL,0 us,0.0 kmh,967.21 hPa,967.16 hPa,+0.00 m/s*0D
$GNRMC,165302.50,A,4816.48285,N,01139.86759,E,0.09,,080522,,,A,V*21
$GNGNS,165302.50,4816.48285,N,01139.86759,E,AANN,17,0.66,471.6,46.2,,,V*11
$GNGSA,A,3,21,01,08,32,22,27,10,14,03,,,,1.15,0.66,0.95,1*01
$GNGSA,A,3,79,81,65,88,66,72,87,82,,,,,1.15,0.66,0.95,2*0F
$GNGSA,A,3,,,,,,,,,,,,,1.15,0.66,0.95,3*0A
$GNVTG,,T,,M,0.086,N,0.159,K,A*3E
$SMGPS,-0.1 m,-0.01 m/s,7.57 VRx,0.001 km,9 m,180.0 °,1:-- (  0.0 km/h),475.0 m*BB
$SMGPS2,-0.17 X,+0.62 Y,+0.73 Z,0 ENL,0 us,0.0 kmh,967.22 hPa,967.16 hPa,-0.00 m/s*0E
$GNRMC,165302.60,A,4816.48282,N,01139.86758,E,0.09,,080522,,,A,V*24
$GNGNS,165302.60,4816.48282,N,01139.86758,E,AANN,17,0.66,471.7,46.2,,,V*15
$GNGSA,A,3,21,01,08,32,22,27,10,14,03,,,,1.15,0.66,0.95,1*01
$GNGSA,A,3,79,81,65,88,66,72,87,82,,,,,1.15,0.66,0.95,2*0F
$GNGSA,A,3,,,,,,,,,,,,,1.15,0.66,0.95,3*0A
$GNVTG,,T,,M,0.087,N,0.161,K,A*34
$SMGPS,-0.0 m,-0.01 m/s,7.60 VRx,0.001 km,9 m,180.0 °,1:-- (  0.0 km/h),474.9 m*B6
$SMGPS2,-0.17 X,+0.63 Y,+0.74 Z,0 ENL,0 us,0.0 kmh,967.21 hPa,967.16 hPa,-0.00 m/s*0B
$GNRMC,165302.70,A,4816.48280,N,01139.86758,E,0.10,,080522,,,A,V*2F
$GNGNS,165302.70,4816.48280,N,01139.86758,E,AANN,17,0.66,471.7,46.2,,,V*16
$GNGSA,A,3,21,01,08,32,22,27,10,14,03,,,,1.15,0.66,0.95,1*01
$GNGSA,A,3,79,81,65,88,66,72,87,82,,,,,1.15,0.66,0.95,2*0F
$GNGSA,A,3,,,,,,,,,,,,,1.15,0.66,0.95,3*0A
$GNVTG,,T,,M,0.093,N,0.172,K,A*33
$SMGPS,-0.0 m,-0.02 m/s,7.59 VRx,0.001 km,9 m,180.0 °,1:-- (  0.0 km/h),474.8 m*BE
$SMGPS2,-0.17 X,+0.63 Y,+0.73 Z,0 ENL,0 us,0.0 kmh,967.22 hPa,967.16 hPa,-0.00 m/s*0F
$GNRMC,165302.80,A,4816.48278,N,01139.86759,E,0.06,,080522,,,A,V*21
$GNGNS,165302.80,4816.48278,N,01139.86759,E,AANN,17,0.66,471.7,46.2,,,V*1F
$GNGSA,A,3,21,01,08,32,22,27,10,14,03,,,,1.15,0.66,0.95,1*01
$GNGSA,A,3,79,81,65,88,66,72,87,82,,,,,1.15,0.66,0.95,2*0F
$GNGSA,A,3,,,,,,,,,,,,,1.15,0.66,0.95,3*0A
$GNVTG,,T,,M,0.045,N,0.084,K,A*30
$SMGPS,0.0 m,-0.02 m/s,7.60 VRx,0.001 km,9 m,180.0 °,1:-- (  0.0 km/h),474.8 m*99
$SMGPS2,-0.17 X,+0.63 Y,+0.73 Z,4 ENL,0 us,0.0 kmh,967.21 hPa,967.15 hPa,+0.00 m/s*0D
$GNRMC,165302.90,A,4816.48274,N,01139.86759,E,0.08,,080522,,,A,V*22
$GNGNS,165302.90,4816.48274,N,01139.86759,E,AANN,17,0.66,471.7,46.2,,,V*12
$GNGSA,A,3,21,01,08,32,22,27,10,14,03,,,,1.15,0.66,0.95,1*01
$GNGSA,A,3,79,81,65,88,66,72,87,82,,,,,1.15,0.66,0.95,2*0F
$GNGSA,A,3,,,,,,,,,,,,,1.15,0.66,0.95,3*0A
$GNVTG,,T,,M,0.073,N,0.136,K,A*3D
$SMGPS,0.0 m,-0.02 m/s,7.58 VRx,0.001 km,9 m,180.0 °,1:-- (  0.0 km/h),474.7 m*9D
$SMGPS2,-0.17 X,+0.63 Y,+0.73 Z,0 ENL,0 us,0.0 kmh,967.21 hPa,967.15 hPa,+0.00 m/s*09
$GNRMC,165303.00,A,4816.48270,N,01139.86758,E,0.13,,080522,,,A,V*25
$GNGNS,165303.00,4816.48270,N,01139.86758,E,AANN,17,0.66,471.7,46.2,,,V*1F
$GNGSA,A,3,21,01,08,32,22,27,10,14,03,,,,1.15,0.66,0.95,1*01
$GNGSA,A,3,79,81,65,88,66,72,87,82,,,,,1.15,0.66,0.95,2*0F
$GNGSA,A,3,,,,,,,,,,,,,1.15,0.66,0.95,3*0A
$GNVTG,,T,,M,0.121,N,0.225,K,A*3A
$SMGPS,0.0 m,-0.02 m/s,7.60 VRx,0.001 km,9 m,180.0 °,1:-- (  0.0 km/h),474.6 m*97
$SMGPS2,-0.17 X,+0.63 Y,+0.73 Z,0 ENL,0 us,0.0 kmh,967.21 hPa,967.16 hPa,+0.00 m/s*0A
$GNRMC,165303.10,A,4816.48266,N,01139.86756,E,0.09,,080522,,,A,V*26
$GNGNS,165303.10,4816.48266,N,01139.86756,E,AANN,17,0.66,471.7,46.2,,,V*17
$GNGSA,A,3,21,01,08,32,22,27,10,14,03,,,,1.15,0.66,0.95,1*01
$GNGSA,A,3,79,81,65,88,66,72,87,82,,,,,1.15,0.66,0.95,2*0F
$GNGSA,A,3,,,,,,,,,,,,,1.15,0.66,0.95,3*0A
$GNVTG,,T,,M,0.087,N,0.162,K,A*37
$SMGPS,-0.0 m,-0.02 m/s,7.59 VRx,0.001 km,9 m,180.0 °,1:-- (  0.0 km/h),474.5 m*B3
$SMGPS2,-0.17 X,+0.63 Y,+0.73 Z,0 ENL,0 us,0.0 kmh,967.21 hPa,967.16 hPa,+0.00 m/s*0A
$GNRMC,165303.20,A,4816.48262,N,01139.86754,E,0.07,,080522,,,A,V*2D
$GNGNS,165303.20,4816.48262,N,01139.86754,E,AANN,17,0.66,471.7,46.2,,,V*12
$GNGSA,A,3,21,01,08,32,22,27,10,14,03,,,,1.15,0.66,0.95,1*01
$GNGSA,A,3,79,81,65,88,66,72,87,82,,,,,1.15,0.66,0.95,2*0F
$GNGSA,A,3,,,,,,,,,,,,,1.15,0.66,0.95,3*0A
$GNVTG,,T,,M,0.064,N,0.118,K,A*37
$SMGPS,0.0 m,-0.01 m/s,7.61 VRx,0.001 km,10 m,180.0 °,1:-- (  0.0 km/h),474.5 m*AE
$SMGPS2,-0.17 X,+0.63 Y,+0.73 Z,0 ENL,0 us,0.0 kmh,967.21 hPa,967.16 hPa,+0.01 m/s*0B
$GNRMC,165303.30,A,4816.48257,N,01139.86751,E,0.18,,080522,,,A,V*21
$GNGNS,165303.30,4816.48257,N,01139.86751,E,AANN,17,0.66,471.7,46.2,,,V*10
$GNGSA,A,3,21,01,08,32,22,27,10,14,03,,,,1.15,0.66,0.95,1*01
$GNGSA,A,3,79,81,65,88,66,72,87,82,,,,,1.15,0.66,0.95,2*0F
$GNGSA,A,3,,,,,,,,,,,,,1.15,0.66,0.95,3*0A
$GNVTG,,T,,M,0.178,N,0.330,K,A*33
$SMGPS,0.0 m,-0.01 m/s,7.59 VRx,0.001 km,10 m,180.0 °,1:-- (  0.0 km/h),474.5 m*A5
$SMGPS2,-0.17 X,+0.63 Y,+0.73 Z,0 ENL,0 us,0.0 kmh,967.21 hPa,967.15 hPa,+0.01 m/s*08
$GNRMC,165303.40,A,4816.48252,N,01139.86749,E,0.03,,080522,,,A,V*20
$GNGNS,165303.40,4816.48252,N,01139.86749,E,AANN,17,0.66,471.7,46.2,,,V*1B
$GNGSA,A,3,21,01,08,32,22,27,10,14,03,,,,1.15,0.66,0.95,1*01
$GNGSA,A,3,79,81,65,88,66,72,87,82,,,,,1.15,0.66,0.95,2*0F
$GNGSA,A,3,,,,,,,,,,,,,1.15,0.66,0.95,3*0A
$GNVTG,,T,,M,0.026,N,0.049,K,A*34
$SMGPS,0.0 m,-0.00 m/s,7.61 VRx,0.001 km,10 m,180.0 °,1:-- (  0.0 km/h),474.4 m*AE
$SMGPS2,-0.17 X,+0.63 Y,+0.73 Z,0 ENL,0 us,0.0 kmh,967.21 hPa,967.15 hPa,+0.02 m/s*0B
$GNRMC,165303.50,A,4816.48248,N,01139.86747,E,0.10,,080522,,,A,V*26
$GNGNS,165303.50,4816.48248,N,01139.86747,E,AANN,17,0.66,471.7,46.2,,,V*1F
$GNGSA,A,3,21,01,08,32,22,27,10,14,03,,,,1.15,0.66,0.95,1*01
$GNGSA,A,3,79,81,65,88,66,72,87,82,,,,,1.15,0.66,0.95,2*0F
$GNGSA,A,3,,,,,,,,,,,,,1.15,0.66,0.95,3*0A
$GNVTG,,T,,M,0.098,N,0.182,K,A*37
$SMGPS,0.0 m,+0.00 m/s,7.58 VRx,0.001 km,10 m,180.8 °,1:-- (  0.0 km/h),474.3 m*AD
$SMGPS2,-0.16 X,+0.63 Y,+0.74 Z,0 ENL,0 us,0.0 kmh,967.21 hPa,967.16 hPa,+0.01 m/s*0D
$GNRMC,165303.60,A,4816.48244,N,01139.86745,E,0.09,,080522,,,A,V*23
$GNGNS,165303.60,4816.48244,N,01139.86745,E,AANN,17,0.66,471.7,46.2,,,V*12
$GNGSA,A,3,21,01,08,32,22,27,10,14,03,,,,1.15,0.66,0.95,1*01
$GNGSA,A,3,79,81,65,88,66,72,87,82,,,,,1.15,0.66,0.95,2*0F
$GNGSA,A,3,,,,,,,,,,,,,1.15,0.66,0.95,3*0A
$GNVTG,,T,,M,0.086,N,0.159,K,A*3E
$SMGPS,-0.0 m,+0.00 m/s,7.60 VRx,0.001 km,10 m,180.8 °,1:-- (  0.0 km/h),474.3 m*8B
$SMGPS2,-0.17 X,+0.63 Y,+0.73 Z,0 ENL,0 us,0.0 kmh,967.21 hPa,967.16 hPa,+0.00 m/s*0A
$GNRMC,165303.70,A,4816.48240,N,01139.86744,E,0.14,,080522,,,A,V*2B
$GNGNS,165303.70,4816.48240,N,01139.86744,E,AANN,17,0.66,471.7,46.2,,,V*16
$GNGSA,A,3,21,01,08,32,22,27,10,14,03,,,,1.15,0.66,0.95,1*01
$GNGSA,A,3,79,81,65,88,66,72,87,82,,,,,1.15,0.66,0.95,2*0F
$GNGSA,A,3,,,,,,,,,,,,,1.15,0.66,0.95,3*0A
$GNVTG,,T,,M,0.138,N,0.256,K,A*36
$SMGPS,-0.0 m,+0.00 m/s,7.57 VRx,0.001 km,10 m,180.8 °,1:-- (  0.0 km/h),474.3 m*8F
$SMGPS2,-0.17 X,+0.64 Y,+0.73 Z,0 ENL,0 us,0.0 kmh,967.22 hPa,967.16 hPa,+0.00 m/s*0E
$GNRMC,165303.80,A,4816.48237,N,01139.86742,E,0.19,,080522,,,A,V*2F
$GNGNS,165303.80,4816.48237,N,01139.86742,E,AANN,17,0.66,471.7,46.2,,,V*1F
$GNGSA,A,3,21,01,08,32,22,27,10,14,03,,,,1.15,0.66,0.95,1*01
$GNGSA,A,3,79,81,65,88,66,72,87,82,,,,,1.15,0.66,0.95,2*0F
$GNGSA,A,3,,,,,,,,,,,,,1.15,0.66,0.95,3*0A
$GNVTG,,T,,M,0.192,N,0.355,K,A*34
$SMGPS,-0.0 m,-0.00 m/s,7.59 VRx,0.001 km,10 m,180.8 °,1:-- (  0.0 km/h),474.4 m*80
$SMGPS2,-0.16 X,+0.62 Y,+0.74 Z,0 ENL,0 us,0.0 kmh,967.22 hPa,967.15 hPa,+0.01 m/s*0C
$GNRMC,165303.90,A,4816.48235,N,01139.86741,E,0.06,,080522,,,A,V*21
$GNGNS,165303.90,4816.48235,N,01139.86741,E,AANN,17,0.66,471.7,46.2,,,V*1F
$GNGSA,A,3,21,01,08,32,22,27,10,14,03,,,,1.15,0.66,0.95,1*01
$GNGSA,A,3,79,81,65,88,66,72,87,82,,,,,1.15,0.66,0.95,2*0F
$GNGSA,A,3,,,,,,,,,,,,,1.15,0.66,0.95,3*0A
$GNVTG,,T,,M,0.061,N,0.113,K,A*39
$SMGPS,-0.0 m,-0.01 m/s,7.57 VRx,0.001 km,10 m,180.8 °,1:-- (  0.0 km/h),474.4 m*8F
$SMGPS2,-0.17 X,+0.63 Y,+0.74 Z,0 ENL,0 us,0.0 kmh,967.22 hPa,967.16 hPa,+0.00 m/s*0E
$GNRMC,165304.00,A,4816.48233,N,01139.86737,E,0.16,,080522,,,A,V*29
$GNGNS,165304.00,4816.48233,N,01139.86737,E,AANN,17,0.66,471.7,46.2,,,V*16
$GNGSA,A,3,21,01,08,32,22,27,10,14,03,,,,1.15,0.66,0.95,1*01
$GNGSA,A,3,79,81,65,88,66,72,87,82,,,,,1.15,0.66,0.95,2*0F
$GNGSA,A,3,,,,,,,,,,,,,1.15,0.66,0.95,3*0A
$GNVTG,,T,,M,0.161,N,0.298,K,A*38
$SMGPS,0.0 m,-0.02 m/s,7.61 VRx,0.001 km,10 m,180.8 °,1:-- (  0.0 km/h),474.4 m*A4
$SMGPS2,-0.17 X,+0.62 Y,+0.73 Z,0 ENL,0 us,0.0 kmh,967.21 hPa,967.16 hPa,-0.00 m/s*0D
$GNRMC,165304.10,A,4816.48231,N,01139.86735,E,0.26,,080522,,,A,V*2B
$GNGNS,165304.10,4816.48231,N,01139.86735,E,AANN,17,0.66,471.7,46.2,,,V*17
$GNGSA,A,3,21,01,08,32,22,27,10,14,03,,,,1.15,0.66,0.94,1*00
$GNGSA,A,3,79,81,65,88,66,72,87,82,,,,,1.15,0.66,0.95,2*0F
$GNGSA,A,3,,,,,,,,,,,,,1.15,0.66,0.95,3*0A
$GNVTG,,T,,M,0.256,N,0.474,K,A*3B
$SMGPS,0.0 m,-0.02 m/s,7.60 VRx,0.001 km,10 m,181.7 °,1:-- (  0.0 km/h),474.4 m*AB
$SMGPS2,-0.17 X,+0.63 Y,+0.73 Z,0 ENL,0 us,0.0 kmh,967.21 hPa,967.15 hPa,-0.00 m/s*0F
$GNRMC,165304.20,A,4816.48229,N,01139.86732,E,0.30,,080522,,,A,V*21
$GNGNS,165304.20,4816.48229,N,01139.86732,E,AANN,17,0.66,471.7,46.2,,,V*1A
$GNGSA,A,3,21,01,08,32,22,27,10,14,03,,,,1.15,0.66,0.94,1*00
$GNGSA,A,3,79,81,65,88,66,72,87,82,,,,,1.15,0.66,0.94,2*0E
$GNGSA,A,3,,,,,,,,,,,,,1.15,0.66,0.94,3*0B
$GNVTG,,T,,M,0.295,N,0.547,K,A*35
$SMGPS,-0.0 m,-0.02 m/s,7.58 VRx,0.001 km,10 m,181.7 °,1:-- (  0.0 km/h),474.5 m*8C
$SMGPS2,-0.17 X,+0.63 Y,+0.77 Z,0 ENL,0 us,0.0 kmh,967.22 hPa,967.16 hPa,-0.00 m/s*0B
$GNRMC,165304.30,A,4816.48227,N,01139.86730,E,0.15,,080522,,,A,V*2B
$GNGNS,165304.30,4816.48227,N,01139.86730,E,AANN,17,0.66,471.7,46.2,,,V*17
$GNGSA,A,3,21,01,08,32,22,27,10,14,03,,,,1.15,0.66,0.94,1*00
$GNGSA,A,3,79,81,65,88,66,72,87,82,,,,,1.15,0.66,0.94,2*0E
$GNGSA,A,3,,,,,,,,,,,,,1.15,0.66,0.94,3*0B
$GNVTG,,T,,M,0.144,N,0.267,K,A*3F
$SMGPS,-0.0 m,-0.02 m/s,7.57 VRx,0.001 km,10 m,181.7 °,1:-- (  0.0 km/h),474.4 m*82
$SMGPS2,-0.16 X,+0.63 Y,+0.73 Z,0 ENL,0 us,0.0 kmh,967.22 hPa,967.15 hPa,+0.00 m/s*0B
$GNRMC,165304.40,A,4816.48227,N,01139.86728,E,0.09,,080522,,,A,V*28
$GNGNS,165304.40,4816.48227,N,01139.86728,E,AANN,17,0.66,471.7,46.2,,,V*19
$GNGSA,A,3,21,01,08,32,22,27,10,14,03,,,,1.15,0.66,0.94,1*00
$GNGSA,A,3,79,81,65,88,66,72,87,82,,,,,1.15,0.66,0.94,2*0E
$GNGSA,A,3,,,,,,,,,,,,,1.15,0.66,0.94,3*0B
$GNVTG,,T,,M,0.080,N,0.149,K,A*39
$SMGPS,0.0 m,-0.02 m/s,7.58 VRx,0.001 km,10 m,181.7 °,1:-- (  0.0 km/h),474.4 m*A0
$SMGPS2,-0.17 X,+0.63 Y,+0.74 Z,0 ENL,0 us,0.0 kmh,967.21 hPa,967.16 hPa,+0.00 m/s*0D
$GNRMC,165304.50,A,4816.48227,N,01139.86727,E,0.07,,080522,,,A,V*28
$GNGNS,165304.50,4816.48227,N,01139.86727,E,AANN,17,0.66,471.7,46.2,,,V*17
$GNGSA,A,3,21,01,08,32,22,27,10,14,03,,,,1.15,0.66,0.94,1*00
$GNGSA,A,3,79,81,65,88,66,72,87,82,,,,,1.15,0.66,0.94,2*0E
$GNGSA,A,3,,,,,,,,,,,,,1.15,0.66,0.94,3*0B
$GNVTG,,T,,M,0.063,N,0.117,K,A*3F
$SMGPS,-0.0 m,-0.01 m/s,7.57 VRx,0.001 km,10 m,181.7 °,1:-- (  0.0 km/h),474.4 m*81
$SMGPS2,-0.17 X,+0.63 Y,+0.74 Z,0 ENL,0 us,0.0 kmh,967.22 hPa,967.15 hPa,+0.00 m/s*0D
$GNRMC,165304.60,A,4816.48227,N,01139.86727,E,0.15,,080522,,,A,V*28
$GNGNS,165304.60,4816.48227,N,01139.86727,E,AANN,17,0.66,471.7,46.2,,,V*14
$GNGSA,A,3,21,01,08,32,22,27,10,14,03,,,,1.15,0.66,0.94,1*00
$GNGSA,A,3,79,81,65,88,66,72,87,82,,,,,1.15,0.66,0.94,2*0E
$GNGSA,A,3,,,,,,,,,,,,,1.15,0.66,0.94,3*0B
$GNVTG,,T,,M,0.147,N,0.273,K,A*39
$SMGPS,-0.0 m,-0.01 m/s,7.58 VRx,0.001 km,10 m,181.7 °,1:-- (  0.0 km/h),474.4 m*8E
$SMGPS2,-0.16 X,+0.63 Y,+0.73 Z,0 ENL,0 us,0.0 kmh,967.21 hPa,967.16 hPa,-0.00 m/s*0D
$GNRMC,165304.70,A,4816.48228,N,01139.86726,E,0.07,,080522,,,A,V*24
$GNGNS,165304.70,4816.48228,N,01139.86726,E,AANN,17,0.66,471.7,46.2,,,V*1B
$GNGSA,A,3,21,01,08,32,22,27,10,14,03,,,,1.15,0.66,0.94,1*00
$GNGSA,A,3,79,81,65,88,66,72,87,82,,,,,1.15,0.66,0.94,2*0E
$GNGSA,A,3,,,,,,,,,,,,,1.15,0.66,0.94,3*0B
$GNVTG,,T,,M,0.073,N,0.135,K,A*3E
$SMGPS,0.0 m,-0.01 m/s,7.57 VRx,0.001 km,10 m,181.7 °,1:-- (  0.0 km/h),474.3 m*AB
$SMGPS2,-0.17 X,+0.63 Y,+0.73 Z,0 ENL,0 us,0.0 kmh,967.21 hPa,967.15 hPa,+0.00 m/s*09
$GNRMC,165304.80,A,4816.48228,N,01139.86725,E,0.10,,080522,,,A,V*2E
$GNGNS,165304.80,4816.48228,N,01139.86725,E,AANN,17,0.66,471.7,46.2,,,V*17
$GNGSA,A,3,21,01,08,32,22,27,10,14,03,,,,1.15,0.66,0.94,1*00
$GNGSA,A,3,79,81,65,88,66,72,87,82,,,,,1.15,0.66,0.94,2*0E
$GNGSA,A,3,,,,,,,,,,,,,1.15,0.66,0.94,3*0B
$GNVTG,,T,,M,0.103,N,0.190,K,A*37
$SMGPS,0.0 m,-0.01 m/s,7.59 VRx,0.001 km,10 m,181.7 °,1:-- (  0.0 km/h),474.3 m*A5
$SMGPS2,-0.17 X,+0.63 Y,+0.74 Z,0 ENL,0 us,0.0 kmh,967.21 hPa,967.15 hPa,+0.00 m/s*0E
$GNRMC,165304.90,A,4816.48228,N,01139.86724,E,0.05,,080522,,,A,V*2A
$GNGNS,165304.90,4816.48228,N,01139.86724,E,AANN,17,0.66,471.7,46.2,,,V*17
$GNGSA,A,3,21,01,08,32,22,27,10,14,03,,,,1.15,0.66,0.94,1*00
$GNGSA,A,3,79,81,65,88,66,72,87,82,,,,,1.15,0.66,0.94,2*0E
$GNGSA,A,3,,,,,,,,,,,,,1.15,0.66,0.94,3*0B
$GNVTG,,T,,M,0.045,N,0.083,K,A*37
$SMGPS,0.0 m,-0.00 m/s,7.56 VRx,0.001 km,10 m,181.7 °,1:-- (  0.0 km/h),474.4 m*AC
$SMGPS2,-0.17 X,+0.64 Y,+0.74 Z,0 ENL,0 us,0.0 kmh,967.21 hPa,967.15 hPa,+0.00 m/s*09
$GNRMC,165305.00,A,4816.48228,N,01139.86722,E,0.08,,080522,,,A,V*29
$GNGNS,165305.00,4816.48228,N,01139.86722,E,AANN,17,0.66,471.7,46.2,,,V*19
$GNGSA,A,3,21,01,08,32,22,27,10,14,03,,,,1.15,0.66,0.94,1*00
$GNGSA,A,3,79,81,65,88,66,72,87,82,,,,,1.15,0.66,0.94,2*0E
$GNGSA,A,3,,,,,,,,,,,,,1.15,0.66,0.94,3*0B
$GNVTG,,T,,M,0.075,N,0.140,K,A*3A
$SMGPS,-0.0 m,-0.00 m/s,7.59 VRx,0.001 km,10 m,182.5 °,1:-- (  0.0 km/h),474.4 m*8F
$SMGPS2,-0.16 X,+0.63 Y,+0.73 Z,0 ENL,0 us,0.0 kmh,967.22 hPa,967.16 hPa,-0.00 m/s*0E
$GNRMC,165305.10,A,4816.48229,N,01139.86721,E,0.05,,080522,,,A,V*27
$GNGNS,165305.10,4816.48229,N,01139.86721,E,AANN,17,0.66,471.7,46.2,,,V*1A
$GNGSA,A,3,21,01,08,32,22,27,10,14,03,,,,1.15,0.66,0.94,1*00
$GNGSA,A,3,79,81,65,88,66,72,87,82,,,,,1.15,0.66,0.94,2*0E
$GNGSA,A,3,,,,,,,,,,,,,1.15,0.66,0.94,3*0B
$GNVTG,,T,,M,0.046,N,0.085,K,A*32
$SMGPS,0.0 m,-0.00 m/s,7.56 VRx,0.001 km,10 m,182.5 °,1:-- (  0.0 km/h),474.4 m*AD
$SMGPS2,-0.17 X,+0.63 Y,+0.74 Z,0 ENL,0 us,0.0 kmh,967.21 hPa,967.15 hPa,-0.00 m/s*08
$GNRMC,165305.20,A,4816.48230,N,01139.86720,E,0.20,,080522,,,A,V*2A
$GNGNS,165305.20,4816.48230,N,01139.86720,E,AANN,17,0.66,471.7,46.2,,,V*10
$GNGSA,A,3,21,01,08,32,22,27,10,14,03,,,,1.15,0.66,0.94,1*00
$GNGSA,A,3,79,81,65,88,66,72,87,82,,,,,1.15,0.66,0.94,2*0E
$GNGSA,A,3,,,,,,,,,,,,,1.15,0.66,0.94,3*0B
$GNVTG,,T,,M,0.204,N,0.378,K,A*37
$SMGPS,-0.0 m,-0.00 m/s,7.60 VRx,0.001 km,10 m,182.5 °,1:-- (  0.0 km/h),474.4 m*85
$SMGPS2,-0.17 X,+0.63 Y,+0.73 Z,0 ENL,0 us,0.0 kmh,967.22 hPa,967.15 hPa,+0.00 m/s*0A
$GNRMC,165305.30,A,4816.48232,N,01139.86719,E,0.03,,080522,,,A,V*22
$GNGNS,165305.30,4816.48232,N,01139.86719,E,AANN,17,0.66,471.7,46.2,,,V*19
$GNGSA,A,3,21,01,08,32,22,27,10,14,03,,,,1.15,0.66,0.94,1*00
$GNGSA,A,3,79,81,65,88,66,72,87,82,,,,,1.15,0.66,0.94,2*0E
$GNGSA,A,3,,,,,,,,,,,,,1.15,0.66,0.94,3*0B
$GNVTG,,T,,M,0.030,N,0.055,K,A*3E
$SMGPS,0.0 m,-0.00 m/s,7.57 VRx,0.001 km,10 m,182.5 °,1:-- (  0.0 km/h),474.3 m*AB
$SMGPS2,-0.17 X,+0.63 Y,+0.73 Z,0 ENL,0 us,0.0 kmh,967.21 hPa,967.16 hPa,+0.01 m/s*0B
$GNRMC,165305.40,A,4816.48232,N,01139.86718,E,0.07,,080522,,,A,V*20
$GNGNS,165305.40,4816.48232,N,01139.86718,E,AANN,17,0.66,471.7,46.2,,,V*1F
$GNGSA,A,3,21,01,08,32,22,27,10,14,03,,,,1.15,0.66,0.94,1*00
$GNGSA,A,3,79,81,65,88,66,72,87,82,,,,,1.15,0.66,0.94,2*0E
$GNGSA,A,3,,,,,,,,,,,,,1.15,0.66,0.94,3*0B
$GNVTG,,T,,M,0.071,N,0.132,K,A*3B
$SMGPS,-0.0 m,-0.00 m/s,7.58 VRx,0.001 km,10 m,182.5 °,1:-- (  0.0 km/h),474.3 m*89
$SMGPS2,-0.17 X,+0.63 Y,+0.74 Z,0 ENL,0 us,0.0 kmh,967.22 hPa,967.16 hPa,+0.00 m/s*0E
$GNRMC,165305.50,A,4816.48233,N,01139.86716,E,0.06,,080522,,,A,V*2F
$GNGNS,165305.50,4816.48233,N,01139.86716,E,AANN,17,0.66,471.7,46.2,,,V*11
$GNGSA,A,3,21,01,08,32,22,27,10,14,03,,,,1.15,0.66,0.94,1*00
$GNGSA,A,3,79,81,65,88,66,72,87,82,,,,,1.15,0.66,0.94,2*0E
$GNGSA,A,3,,,,,,,,,,,,,1.15,0.66,0.94,3*0B
$GNVTG,,T,,M,0.061,N,0.114,K,A*3E
$SMGPS,-0.0 m,-0.01 m/s,7.58 VRx,0.001 km,10 m,182.5 °,1:-- (  0.0 km/h),474.3 m*88
$SMGPS2,-0.17 X,+0.67 Y,+0.77 Z,0 ENL,0 us,0.0 kmh,967.22 hPa,967.16 hPa,-0.00 m/s*0F
$GNRMC,165305.60,A,4816.48233,N,01139.86715,E,0.08,,080522,,,A,V*21
$GNGNS,165305.60,4816.48233,N,01139.86715,E,AANN,17,0.66,471.7,46.2,,,V*11
$GNGSA,A,3,21,01,08,32,22,27,10,14,03,,,,1.15,0.66,0.94,1*00
$GNGSA,A,3,79,81,65,88,66,72,87,82,,,,,1.15,0.66,0.94,2*0E
$GNGSA,A,3,,,,,,,,,,,,,1.15,0.66,0.94,3*0B
$GNVTG,,T,,M,0.082,N,0.151,K,A*32
$SMGPS,0.0 m,-0.01 m/s,7.61 VRx,0.001 km,10 m,182.5 °,1:-- (  0.0 km/h),474.3 m*AF
$SMGPS2,-0.17 X,+0.63 Y,+0.73 Z,0 ENL,0 us,0.0 kmh,967.21 hPa,967.16 hPa,-0.00 m/s*0C
$GNRMC,165305.70,A,4816.48234,N,01139.86714,E,0.14,,080522,,,A,V*2B
$GNGNS,165305.70,4816.48234,N,01139.86714,E,AANN,17,0.66,471.7,46.2,,,V*16
$GNGSA,A,3,21,01,08,32,22,27,10,14,03,,,,1.15,0.66,0.94,1*00
$GNGSA,A,3,79,81,65,88,66,72,87,82,,,,,1.15,0.66,0.94,2*0E
$GNGSA,A,3,,,,,,,,,,,,,1.15,0.66,0.94,3*0B
$GNVTG,,T,,M,0.143,N,0.265,K,A*3A
$SMGPS,0.0 m,-0.01 m/s,7.59 VRx,0.001 km,10 m,182.5 °,1:-- (  0.0 km/h),474.3 m*A4
$SMGPS2,-0.16 X,+0.63 Y,+0.73 Z,0 ENL,0 us,0.0 kmh,967.21 hPa,967.16 hPa,-0.00 m/s*0D
$GNRMC,165305.80,A,4816.48235,N,01139.86713,E,0.21,,080522,,,A,V*24
$GNGNS,165305.80,4816.48235,N,01139.86713,E,AANN,17,0.66,471.7,46.2,,,V*1F
$GNGSA,A,3,21,01,08,32,22,27,10,14,03,,,,1.15,0.66,0.94,1*00
$GNGSA,A,3,79,81,65,88,66,72,87,82,,,,,1.15,0.66,0.94,2*0E
$GNGSA,A,3,,,,,,,,,,,,,1.15,0.66,0.94,3*0B
$GNVTG,,T,,M,0.205,N,0.380,K,A*31
$SMGPS,0.0 m,-0.01 m/s,7.59 VRx,0.001 km,10 m,182.5 °,1:-- (  0.0 km/h),474.3 m*A4
$SMGPS2,-0.17 X,+0.63 Y,+0.73 Z,0 ENL,0 us,0.0 kmh,967.21 hPa,967.16 hPa,-0.01 m/s*0D
$GNRMC,165305.90,A,4816.48236,N,01139.86713,E,0.16,,080522,,,A,V*22
$GNGNS,165305.90,4816.48236,N,01139.86713,E,AANN,17,0.66,471.7,46.2,,,V*1D
$GNGSA,A,3,21,01,08,32,22,27,10,14,03,,,,1.15,0.66,0.94,1*00
$GNGSA,A,3,79,81,65,88,66,72,87,82,,,,,1.15,0.66,0.94,2*0E
$GNGSA,A,3,,,,,,,,,,,,,1.15,0.66,0.94,3*0B
$GNVTG,,T,,M,0.164,N,0.304,K,A*39
$SMGPS,-0.0 m,-0.01 m/s,7.57 VRx,0.001 km,10 m,182.5 °,1:-- (  0.0 km/h),474.3 m*87
$SMGPS2,-0.17 X,+0.63 Y,+0.73 Z,0 ENL,0 us,0.0 kmh,967.22 hPa,967.16 hPa,-0.01 m/s*0E
$GNRMC,165306.00,A,4816.48238,N,01139.86713,E,0.04,,080522,,,A,V*25
$GNGNS,165306.00,4816.48238,N,01139.86713,E,AANN,17,0.66,471.7,46.2,,,V*19
$GNGSA,A,3,21,01,08,32,22,27,10,14,03,,,,1.15,0.66,0.94,1*00
$GNGSA,A,3,79,81,65,88,66,72,87,82,,,,,1.15,0.66,0.94,2*0E
$GNGSA,A,3,,,,,,,,,,,,,1.15,0.66,0.94,3*0B
$GNVTG,,T,,M,0.026,N,0.049,K,A*34
$SMGPS,-0.0 m,-0.01 m/s,7.61 VRx,0.001 km,10 m,182.5 °,1:-- (  0.0 km/h),474.2 m*83
$SMGPS2,-0.16 X,+0.63 Y,+0.73 Z,0 ENL,0 us,0.0 kmh,967.22 hPa,967.16 hPa,-0.01 m/s*0F
$GNRMC,165306.10,A,4816.48239,N,01139.86713,E,0.11,,080522,,,A,V*21
$GNGNS,165306.10,4816.48239,N,01139.86713,E,AANN,17,0.66,471.7,46.2,,,V*19
$GNGSA,A,3,21,01,08,32,22,27,10,14,03,,,,1.15,0.66,0.94,1*00
$GNGSA,A,3,79,81,65,88,66,72,87,82,,,,,1.15,0.66,0.94,2*0E
$GNGSA,A,3,,,,,,,,,,,,,1.15,0.66,0.94,3*0B
$GNVTG,,T,,M,0.109,N,0.201,K,A*36
$SMGPS,-0.0 m,-0.01 m/s,7.58 VRx,0.001 km,10 m,182.5 °,1:-- (  0.0 km/h),474.2 m*89
$SMGPS2,-0.16 X,+0.63 Y,+0.74 Z,0 ENL,0 us,0.0 kmh,967.22 hPa,967.16 hPa,-0.01 m/s*08
$GNRMC,165306.20,A,4816.48240,N,01139.86712,E,0.16,,080522,,,A,V*2A
$GNGNS,165306.20,4816.48240,N,01139.86712,E,AANN,17,0.66,471.7,46.2,,,V*15
$GNGSA,A,3,21,01,08,32,22,27,10,14,03,,,,1.15,0.66,0.94,1*00
$GNGSA,A,3,79,81,65,88,66,72,87,82,,,,,1.15,0.66,0.94,2*0E
$GNGSA,A,3,,,,,,,,,,,,,1.15,0.66,0.94,3*0B
$GNVTG,,T,,M,0.156,N,0.289,K,A*3C
$SMGPS,0.0 m,-0.01 m/s,7.61 VRx,0.001 km,10 m,182.5 °,1:-- (  0.0 km/h),474.2 m*AE
$SMGPS2,-0.16 X,+0.63 Y,+0.73 Z,0 ENL,0 us,0.0 kmh,967.21 hPa,967.16 hPa,-0.00 m/s*0D
$GNRMC,165306.30,A,4816.48242,N,01139.86712,E,0.03,,080522,,,A,V*2D
$GNGNS,165306.30,4816.48242,N,01139.86712,E,AANN,17,0.66,471.7,46.2,,,V*16
$GNGSA,A,3,21,01,08,32,22,27,10,14,03,,,,1.15,0.66,0.94,1*00
$GNGSA,A,3,79,81,65,88,66,72,87,82,,,,,1.15,0.66,0.94,2*0E
$GNGSA,A,3,,,,,,,,,,,,,1.15,0.66,0.94,3*0B
$GNVTG,,T,,M,0.025,N,0.046,K,A*38
$SMGPS,0.0 m,-0.01 m/s,7.58 VRx,0.001 km,10 m,183.7 °,1:-- (  0.0 km/h),474.2 m*A7
$SMGPS2,-0.17 X,+0.63 Y,+0.74 Z,0 ENL,0 us,0.0 kmh,967.21 hPa,967.15 hPa,-0.00 m/s*08
$GNRMC,165306.40,A,4816.48244,N,01139.86711,E,0.05,,080522,,,A,V*29
$GNGNS,165306.40,4816.48244,N,01139.86711,E,AANN,17,0.66,471.7,46.2,,,V*14
$GNGSA,A,3,21,01,08,32,22,27,10,14,03,,,,1.15,0.66,0.94,1*00
$GNGSA,A,3,79,81,65,88,66,72,87,82,,,,,1.15,0.66,0.94,2*0E
$GNGSA,A,3,,,,,,,,,,,,,1.15,0.66,0.94,3*0B
$GNVTG,,T,,M,0.044,N,0.081,K,A*34
$SMGPS,-0.0 m,-0.01 m/s,7.61 VRx,0.001 km,10 m,183.7 °,1:-- (  0.0 km/h),474.2 m*80
$SMGPS2,-0.17 X,+0.63 Y,+0.73 Z,0 ENL,0 us,0.0 kmh,967.22 hPa,967.16 hPa,-0.01 m/s*0E
$GNRMC,165306.50,A,4816.48245,N,01139.86711,E,0.09,,080522,,,A,V*25
$GNGNS,165306.50,4816.48245,N,01139.86711,E,AANN,17,0.66,471.7,46.2,,,V*14
$GNGSA,A,3,21,01,08,32,22,27,10,14,03,,,,1.15,0.66,0.94,1*00
$GNGSA,A,3,79,81,65,88,66,72,87,82,,,,,1.15,0.66,0.94,2*0E
$GNGSA,A,3,,,,,,,,,,,,,1.15,0.66,0.94,3*0B
$GNVTG,,T,,M,0.087,N,0.161,K,A*34
$SMGPS,0.0 m,-0.01 m/s,7.59 VRx,0.001 km,10 m,183.7 °,1:-- (  0.0 km/h),474.2 m*A6
$SMGPS2,-0.17 X,+0.63 Y,+0.74 Z,0 ENL,0 us,0.0 kmh,967.21 hPa,967.16 hPa,-0.00 m/s*0B
$GNRMC,165306.60,A,4816.48247,N,01139.86710,E,0.06,,080522,,,A,V*2A
$GNGNS,165306.60,4816.48247,N,01139.86710,E,AANN,16,0.69,471.7,46.2,,,V*1A
$GNGSA,A,3,21,01,08,32,22,27,10,14,03,,,,1.17,0.69,0.95,1*0C
$GNGSA,A,3,79,81,65,88,66,72,87,82,,,,,1.15,0.66,0.94,2*0E
$GNGSA,A,3,,,,,,,,,,,,,1.15,0.66,0.94,3*0B
$GNVTG,,T,,M,0.059,N,0.109,K,A*39
$SMGPS,-0.0 m,-0.01 m/s,7.62 VRx,0.001 km,10 m,183.7 °,1:-- (  0.0 km/h),474.2 m*83
$SMGPS2,-0.17 X,+0.63 Y,+0.73 Z,0 ENL,0 us,0.0 kmh,967.22 hPa,967.16 hPa,-0.01 m/s*0E
$GNRMC,165306.70,A,4816.48248,N,01139.86710,E,0.07,,080522,,,A,V*25
$GNGNS,165306.70,4816.48248,N,01139.86710,E,AANN,16,0.69,471.7,46.2,,,V*14
$GNGSA,A,3,21,01,08,32,22,27,10,14,03,,,,1.17,0.69,0.95,1*0C
$GNGSA,A,3,79,81,65,88,72,87,82,,,,,,1.17,0.69,0.95,2*02
$GNGSA,A,3,,,,,,,,,,,,,1.17,0.69,0.95,3*07
$GNVTG,,T,,M,0.069,N,0.128,K,A*39
$SMGPS,0.0 m,-0.01 m/s,7.60 VRx,0.001 km,10 m,183.7 °,1:-- (  0.0 km/h),474.2 m*AC
$SMGPS2,-0.17 X,+0.63 Y,+0.73 Z,0 ENL,0 us,0.0 kmh,967.22 hPa,967.16 hPa,-0.01 m/s*0E
$GNRMC,165306.80,A,4816.48250,N,01139.86710,E,0.19,,080522,,,A,V*2C
$GNGNS,165306.80,4816.48250,N,01139.86710,E,AANN,16,0.69,471.7,46.2,,,V*12
$GNGSA,A,3,21,01,08,32,22,27,10,14,03,,,,1.17,0.69,0.95,1*0C
$GNGSA,A,3,79,81,65,88,72,87,82,,,,,,1.17,0.69,0.95,2*02
$GNGSA,A,3,,,,,,,,,,,,,1.17,0.69,0.95,3*07
$GNVTG,,T,,M,0.194,N,0.359,K,A*3E
$SMGPS,0.0 m,-0.00 m/s,7.60 VRx,0.001 km,10 m,183.7 °,1:-- (  0.0 km/h),474.2 m*AD
$SMGPS2,-0.17 X,+0.63 Y,+0.73 Z,0 ENL,0 us,0.0 kmh,967.22 hPa,967.16 hPa,-0.02 m/s*0D
$GNRMC,165306.90,A,4816.48251,N,01139.86710,E,0.03,,080522,,,A,V*27
$GNGNS,165306.90,4816.48251,N,01139.86710,E,AANN,16,0.69,471.7,46.2,,,V*12
$GNGSA,A,3,21,01,08,32,22,27,10,14,03,,,,1.17,0.69,0.95,1*0C
$GNGSA,A,3,79,81,65,88,72,87,82,,,,,,1.17,0.69,0.95,2*02
$GNGSA,A,3,,,,,,,,,,,,,1.17,0.69,0.95,3*07
$GNVTG,,T,,M,0.027,N,0.049,K,A*35
$SMGPS,0.0 m,-0.00 m/s,7.59 VRx,0.001 km,10 m,183.7 °,1:-- (  0.0 km/h),474.2 m*A7
$SMGPS2,-0.16 X,+0.63 Y,+0.73 Z,0 ENL,0 us,0.0 kmh,967.21 hPa,967.16 hPa,-0.02 m/s*0F
$GNRMC,165307.00,A,4816.48252,N,01139.86710,E,0.08,,080522,,,A,V*27
$GNGNS,165307.00,4816.48252,N,01139.86710,E,AANN,16,0.69,471.7,46.2,,,V*19
$GNGSA,A,3,21,01,08,32,22,27,10,14,03,,,,1.17,0.69,0.95,1*0C
$GNGSA,A,3,79,81,65,88,72,87,82,,,,,,1.17,0.69,0.95,2*02
$GNGSA,A,3,,,,,,,,,,,,,1.17,0.69,0.95,3*07
$GNVTG,,T,,M,0.083,N,0.153,K,A*31
$SMGPS,-0.0 m,-0.00 m/s,7.61 VRx,0.001 km,10 m,183.7 °,1:-- (  0.0 km/h),474.2 m*81
$SMGPS2,-0.17 X,+0.64 Y,+0.73 Z,0 ENL,0 us,0.0 kmh,967.22 hPa,967.16 hPa,-0.02 m/s*0A
$GNRMC,165307.10,A,4816.48253,N,01139.86710,E,0.26,,080522,,,A,V*2B
$GNGNS,165307.10,4816.48253,N,01139.86710,E,AANN,16,0.69,471.7,46.2,,,V*19
$GNGSA,A,3,21,01,08,32,22,27,10,14,03,,,,1.17,0.69,0.95,1*0C
$GNGSA,A,3,79,81,65,88,72,87,82,,,,,,1.17,0.69,0.95,2*02
$GNGSA,A,3,,,,,,,,,,,,,1.17,0.69,0.95,3*07
$GNVTG,,T,,M,0.256,N,0.474,K,A*3B
$SMGPS,0.0 m,-0.01 m/s,7.59 VRx,0.001 km,10 m,183.7 °,1:-- (  0.0 km/h),474.3 m*A7
$SMGPS2,-0.16 X,+0.63 Y,+0.74 Z,0 ENL,0 us,0.0 kmh,967.21 hPa,967.16 hPa,-0.02 m/s*08
$GNRMC,165307.20,A,4816.48253,N,01139.86710,E,0.05,,080522,,,A,V*29
$GNGNS,165307.20,4816.48253,N,01139.86710,E,AANN,16,0.69,471.7,46.2,,,V*1A
$GNGSA,A,3,21,01,08,32,22,27,10,14,03,,,,1.17,0.69,0.95,1*0C
$GNGSA,A,3,79,81,65,88,72,87,82,,,,,,1.17,0.69,0.95,2*02
$GNGSA,A,3,,,,,,,,,,,,,1.17,0.69,0.95,3*07
$GNVTG,,T,,M,0.046,N,0.086,K,A*31
$SMGPS,-0.0 m,-0.01 m/s,7.61 VRx,0.001 km,10 m,183.7 °,1:-- (  0.0 km/h),474.3 m*81
$SMGPS2,-0.17 X,+0.62 Y,+0.73 Z,0 ENL,0 us,0.0 kmh,967.22 hPa,967.16 hPa,-0.02 m/s*0C
$GNRMC,165307.30,A,4816.48254,N,01139.86710,E,0.04,,080522,,,A,V*2E
$GNGNS,165307.30,4816.48254,N,01139.86710,E,AANN,16,0.69,471.7,46.2,,,V*1C
$GNGSA,A,3,21,01,08,32,22,27,10,14,03,,,,1.17,0.69,0.95,1*0C
$GNGSA,A,3,79,81,65,88,72,87,82,,,,,,1.17,0.69,0.95,2*02
$GNGSA,A,3,,,,,,,,,,,,,1.17,0.69,0.95,3*07
$GNVTG,,T,,M,0.041,N,0.077,K,A*38
$SMGPS,0.0 m,-0.01 m/s,7.58 VRx,0.001 km,10 m,183.7 °,1:-- (  0.0 km/h),474.2 m*A7
$SMGPS2,-0.17 X,+0.63 Y,+0.73 Z,0 ENL,0 us,0.0 kmh,967.21 hPa,967.16 hPa,-0.02 m/s*0E
$GNRMC,165307.40,A,4816.48254,N,01139.86709,E,0.05,,080522,,,A,V*20
$GNGNS,165307.40,4816.48254,N,01139.86709,E,AANN,16,0.69,471.7,46.2,,,V*13
$GNGSA,A,3,21,01,08,32,22,27,10,14,03,,,,1.17,0.69,0.95,1*0C
$GNGSA,A,3,79,81,65,88,72,87,82,,,,,,1.17,0.69,0.95,2*02
$GNGSA,A,3,,,,,,,,,,,,,1.17,0.69,0.95,3*07
$GNVTG,,T,,M,0.049,N,0.090,K,A*39
$SMGPS,0.0 m,-0.01 m/s,7.62 VRx,0.001 km,10 m,183.7 °,1:-- (  0.0 km/h),474.2 m*AE
$SMGPS2,-0.17 X,+0.63 Y,+0.73 Z,0 ENL,0 us,0.0 kmh,967.21 hPa,967.16 hPa,-0.02 m/s*0E
$GNRMC,165307.50,A,4816.48254,N,01139.86709,E,0.10,,080522,,,A,V*25
$GNGNS,165307.50,4816.48254,N,01139.86709,E,AANN,16,0.69,471.7,46.2,,,V*12
$GNGSA,A,3,21,01,08,32,22,27,10,14,03,,,,1.17,0.69,0.95,1*0C
$GNGSA,A,3,79,81,65,88,72,87,82,,,,,,1.17,0.69,0.95,2*02
$GNGSA,A,3,,,,,,,,,,,,,1.17,0.69,0.95,3*07
$GNVTG,,T,,M,0.097,N,0.180,K,A*3A
$SMGPS,-0.0 m,-0.01 m/s,7.58 VRx,0.001 km,10 m,183.7 °,1:-- (  0.0 km/h),474.2 m*8A
$SMGPS2,-0.17 X,+0.63 Y,+0.73 Z,0 ENL,0 us,0.0 kmh,967.22 hPa,967.16 hPa,-0.02 m/s*0D
$GNRMC,165307.60,A,4816.48255,N,01139.86709,E,0.10,,080522,,,A,V*27
$GNGNS,165307.60,4816.48255,N,01139.86709,E,AANN,16,0.69,471.7,46.2,,,V*10
$GNGSA,A,3,21,01,08,32,22,27,10,14,03,,,,1.17,0.69,0.95,1*0C
$GNGSA,A,3,79,81,65,88,72,87,82,,,,,,1.17,0.69,0.95,2*02
$GNGSA,A,3,,,,,,,,,,,,,1.17,0.69,0.95,3*07
$GNVTG,,T,,M,0.095,N,0.177,K,A*30
$SMGPS,-0.0 m,-0.02 m/s,7.62 VRx,0.001 km,10 m,183.7 °,1:-- (  0.0 km/h),474.2 m*80
$SMGPS2,-0.17 X,+0.63 Y,+0.73 Z,0 ENL,0 us,0.0 kmh,967.22 hPa,967.16 hPa,-0.02 m/s*0D
$GNRMC,165307.70,A,4816.48255,N,01139.86709,E,0.12,,080522,,,A,V*24
$GNGNS,165307.70,4816.48255,N,01139.86709,E,AANN,16,0.69,471.7,46.2,,,V*11
$GNGSA,A,3,21,01,08,32,22,27,10,14,03,,,,1.17,0.69,0.95,1*0C
$GNGSA,A,3,79,81,65,88,72,87,82,,,,,,1.17,0.69,0.95,2*02
$GNGSA,A,3,,,,,,,,,,,,,1.17,0.69,0.95,3*07
$GNVTG,,T,,M,0.121,N,0.224,K,A*3B
$SMGPS,-0.0 m,-0.01 m/s,7.58 VRx,0.001 km,10 m,183.7 °,1:-- (  0.0 km/h),474.2 m*8A
$SMGPS2,-0.16 X,+0.63 Y,+0.74 Z,0 ENL,0 us,0.0 kmh,967.22 hPa,967.16 hPa,-0.02 m/s*0B
$GNRMC,165307.80,A,4816.48256,N,01139.86709,E,0.08,,080522,,,A,V*23
$GNGNS,165307.80,4816.48256,N,01139.86709,E,AANN,16,0.69,471.7,46.2,,,V*1D
$GNGSA,A,3,21,01,08,32,22,27,10,14,03,,,,1.17,0.69,0.95,1*0C
$GNGSA,A,3,79,81,65,88,72,87,82,,,,,,1.17,0.69,0.95,2*02
$GNGSA,A,3,,,,,,,,,,,,,1.17,0.69,0.95,3*07
$GNVTG,,T,,M,0.079,N,0.146,K,A*30
$SMGPS,-0.0 m,-0.01 m/s,7.60 VRx,0.001 km,10 m,183.7 °,1:-- (  0.0 km/h),474.2 m*81
$SMGPS2,-0.17 X,+0.63 Y,+0.73 Z,0 ENL,0 us,0.0 kmh,967.22 hPa,967.16 hPa,-0.02 m/s*0D
$GNRMC,165307.90,A,4816.48256,N,01139.86709,E,0.04,,080522,,,A,V*2E
$GNGNS,165307.90,4816.48256,N,01139.86709,E,AANN,16,0.69,471.7,46.2,,,V*1C
$GNGSA,A,3,21,01,08,32,22,27,10,14,03,,,,1.17,0.69,0.95,1*0C
$GNGSA,A,3,79,81,65,88,72,87,82,,,,,,1.17,0.69,0.95,2*02
$GNGSA,A,3,,,,,,,,,,,,,1.17,0.69,0.95,3*07
$GNVTG,,T,,M,0.039,N,0.073,K,A*33
$SMGPS,0.0 m,-0.01 m/s,7.59 VRx,0.001 km,10 m,183.7 °,1:-- (  0.0 km/h),474.2 m*A6
$SMGPS2,-0.17 X,+0.63 Y,+0.73 Z,0 ENL,0 us,0.0 kmh,967.22 hPa,967.16 hPa,-0.02 m/s*0D
$GNRMC,165308.00,A,4816.48257,N,01139.86708,E,0.08,,080522,,,A,V*24
$GNGNS,165308.00,4816.48257,N,01139.86708,E,AANN,16,0.69,471.7,46.2,,,V*1A
$GNGSA,A,3,21,01,08,32,22,27,10,14,03,,,,1.17,0.69,0.95,1*0C
$GNGSA,A,3,79,81,65,88,72,87,82,,,,,,1.17,0.69,0.95,2*02
$GNGSA,A,3,,,,,,,,,,,,,1.17,0.69,0.95,3*07
$GNVTG,,T,,M,0.080,N,0.149,K,A*39
$SMGPS,-0.0 m,-0.01 m/s,7.62 VRx,0.001 km,10 m,183.7 °,1:-- (  0.0 km/h),474.2 m*83
