$GPSSETUP,8AE8,0,1,1,0,0,1,0,0,0,1,3,0,0,0,0,6,0,C8,C8,1F4,1C2,32,64,7C,64,7D0,5,1,1,1E,0,0,0,0,0,0,1003,4,10,5,6,10,10,10,10,10,10,10,10,10,BC10,0,80,0,108,302,604,0,20F,0,0,0,0,0,0,0,0,0,0,0,0,0,0,0,0,0,0,0,0,0,0,0,0,0,0,0,0,0,0,0,0,0,20,12C,1EC6*46
$GNRMC,173839.70,A,4816.47876,N,01139.88582,E,0.20,,080522,,,A,V*2F
$GNGNS,173839.70,4816.47876,N,01139.88582,E,AAAN,13,0.86,478.6,46.2,,,V*18
$GNGSA,A,3,14,21,01,03,08,22,32,27,,,,,1.49,0.86,1.21,1*09
$GNGSA,A,3,66,81,,,,,,,,,,,1.76,1.09,1.38,2*09
$GNGSA,A,3,05,03,,,,,,,,,,,1.76,1.09,1.38,3*07
$GNVTG,,T,,M,0.194,N,0.359,K,A*3E
$SMGPS,-0.0 m,+0.02 m/s,7.42 VRx,0.000 km,2 m,90.0 °,1:-- (  0.0 km/h),478.6 m*8A
$SMGPS2,-0.37 X,-0.05 Y,+0.89 Z,2 ENL,0 us,0.0 kmh,967.46 hPa,967.32 hPa,+0.01 m/s*0F
$GNRMC,173839.80,A,4816.47883,N,01139.88651,E,0.14,,080522,,,A,V*20
$GNGNS,173839.80,4816.47883,N,01139.88651,E,AAAN,13,0.86,478.6,46.2,,,V*10
$GNGSA,A,3,14,21,01,03,08,22,32,27,,,,,1.49,0.86,1.21,1*09
$GNGSA,A,3,66,81,82,,,,,,,,,,1.49,0.86,1.21,2*01
$GNGSA,A,3,05,03,,,,,,,,,,,1.49,0.86,1.21,3*05
$GNVTG,,T,,M,0.140,N,0.259,K,A*36
$SMGPS,0.0 m,+0.01 m/s,7.44 VRx,0.000 km,2 m,66.8 °,1:-- (  0.0 km/h),474.7 m*AE
$SMGPS2,-0.33 X,-0.03 Y,+0.92 Z,2 ENL,0 us,0.0 kmh,967.46 hPa,967.32 hPa,+0.01 m/s*07
$GNRMC,173839.90,A,4816.47887,N,01139.88672,E,0.24,,080522,,,A,V*27
$GNGNS,173839.90,4816.47887,N,01139.88672,E,AAAN,14,0.78,478.6,46.2,,,V*12
$GNGSA,A,3,14,21,01,03,08,22,32,27,,,,,1.28,0.78,1.02,1*0E
$GNGSA,A,3,66,81,82,,,,,,,,,,1.49,0.86,1.21,2*01
$GNGSA,A,3,05,03,,,,,,,,,,,1.49,0.86,1.21,3*05
$GNVTG,,T,,M,0.239,N,0.443,K,A*36
$SMGPS,0.0 m,+0.02 m/s,7.39 VRx,0.000 km,3 m,72.9 °,1:-- (  0.0 km/h),473.2 m*A0
$SMGPS2,-0.35 X,+0.04 Y,+0.88 Z,80 ENL,0 us,0.0 kmh,967.45 hPa,967.32 hPa,+0.01 m/s*32
$GNRMC,173840.00,A,4816.47885,N,01139.88701,E,0.30,,080522,,,A,V*22
$GNGNS,173840.00,4816.47885,N,01139.88701,E,AAAN,14,0.78,478.6,46.2,,,V*12
$GNGSA,A,3,14,21,01,03,08,22,32,27,,,,,1.28,0.78,1.02,1*0E
$GNGSA,A,3,66,81,82,73,,,,,,,,,1.28,0.78,1.02,2*02
$GNGSA,A,3,05,03,,,,,,,,,,,1.28,0.78,1.02,3*02
$GNVTG,,T,,M,0.295,N,0.546,K,A*34
$SMGPS,-0.0 m,+0.02 m/s,7.36 VRx,0.000 km,3 m,74.4 °,1:-- (  0.0 km/h),472.5 m*8F
$SMGPS2,-0.30 X,+0.03 Y,+0.95 Z,69 ENL,0 us,0.0 kmh,967.46 hPa,967.32 hPa,+0.01 m/s*38
$GNRMC,173840.10,A,4816.47885,N,01139.88726,E,0.18,,080522,,,A,V*2C
$GNGNS,173840.10,4816.47885,N,01139.88726,E,AAAN,15,0.77,478.6,46.2,,,V*18
$GNGSA,A,3,14,21,01,03,08,22,32,27,,,,,1.27,0.77,1.02,1*0E
$GNGSA,A,3,66,81,82,73,,,,,,,,,1.28,0.78,1.02,2*02
$GNGSA,A,3,05,03,,,,,,,,,,,1.28,0.78,1.02,3*02
$GNVTG,,T,,M,0.172,N,0.319,K,A*32
$SMGPS,-0.0 m,+0.02 m/s,7.38 VRx,0.000 km,3 m,75.7 °,1:-- (  0.0 km/h),471.7 m*82
$SMGPS2,-0.36 X,+0.02 Y,+0.89 Z,15 ENL,0 us,0.0 kmh,967.46 hPa,967.32 hPa,+0.02 m/s*3A
$GNRMC,173840.20,A,4816.47892,N,01139.88740,E,0.26,,080522,,,A,V*24
$GNGNS,173840.20,4816.47892,N,01139.88740,E,AAAN,17,0.72,478.6,46.2,,,V*1A
$GNGSA,A,3,14,21,01,03,08,22,32,27,,,,,1.17,0.72,0.93,1*01
$GNGSA,A,3,66,81,82,73,,,,,,,,,1.27,0.77,1.02,2*02
$GNGSA,A,3,34,05,03,,,,,,,,,,1.27,0.77,1.02,3*05
$GNVTG,,T,,M,0.261,N,0.483,K,A*37
$SMGPS,0.0 m,+0.01 m/s,7.37 VRx,0.000 km,4 m,76.7 °,1:-- (  0.0 km/h),471.0 m*A0
$SMGPS2,-0.37 X,-0.01 Y,+0.88 Z,1 ENL,0 us,0.0 kmh,967.46 hPa,967.32 hPa,+0.01 m/s*09
$GNRMC,173840.30,A,4816.47892,N,01139.88760,E,0.15,,080522,,,A,V*27
$GNGNS,173840.30,4816.47892,N,01139.88760,E,AAAN,17,0.72,478.6,46.2,,,V*19
$GNGSA,A,3,14,21,01,03,08,22,32,27,,,,,1.17,0.72,0.93,1*01
$GNGSA,A,3,66,81,82,67,73,,,,,,,,1.17,0.72,0.93,2*0C
$GNGSA,A,3,15,34,05,03,,,,,,,,,1.17,0.72,0.93,3*0E
$GNVTG,,T,,M,0.144,N,0.266,K,A*3E
$SMGPS,-0.0 m,+0.01 m/s,7.37 VRx,0.000 km,4 m,77.9 °,1:-- (  0.0 km/h),470.9 m*8A
$SMGPS2,-0.39 X,+0.01 Y,+0.88 Z,3 ENL,0 us,0.0 kmh,967.46 hPa,967.32 hPa,+0.01 m/s*03
$GNRMC,173840.40,A,4816.47899,N,01139.88774,E,0.18,,080522,,,A,V*23
$GNGNS,173840.40,4816.47899,N,01139.88774,E,AAAN,17,0.72,478.6,46.2,,,V*10
$GNGSA,A,3,14,21,01,03,08,22,32,27,,,,,1.17,0.72,0.93,1*01
$GNGSA,A,3,66,81,82,67,73,,,,,,,,1.17,0.72,0.93,2*0C
$GNGSA,A,3,15,34,05,03,,,,,,,,,1.17,0.72,0.93,3*0E
$GNVTG,,T,,M,0.183,N,0.338,K,A*3F
$SMGPS,0.0 m,+0.01 m/s,7.35 VRx,0.000 km,4 m,78.3 °,1:-- (  0.0 km/h),470.8 m*A1
$SMGPS2,-0.37 X,+0.06 Y,+0.89 Z,1 ENL,0 us,0.0 kmh,967.46 hPa,967.32 hPa,+0.01 m/s*09
$GNRMC,173840.50,A,4816.47903,N,01139.88791,E,0.20,,080522,,,A,V*20
$GNGNS,173840.50,4816.47903,N,01139.88791,E,AAAN,18,0.67,478.6,46.2,,,V*13
$GNGSA,A,3,14,21,01,03,08,22,32,17,27,,,,1.16,0.67,0.95,1*04
$GNGSA,A,3,66,81,82,67,73,,,,,,,,1.17,0.72,0.93,2*0C
$GNGSA,A,3,15,34,05,03,,,,,,,,,1.17,0.72,0.93,3*0E
$GNVTG,,T,,M,0.198,N,0.367,K,A*3F
$SMGPS,-0.0 m,+0.01 m/s,7.38 VRx,0.000 km,4 m,78.7 °,1:-- (  0.0 km/h),470.8 m*85
$SMGPS2,-0.39 X,+0.11 Y,+0.84 Z,2 ENL,0 us,0.0 kmh,967.46 hPa,967.32 hPa,+0.01 m/s*0F
$GNRMC,173840.60,A,4816.47911,N,01139.88803,E,0.34,,080522,,,A,V*21
$GNGNS,173840.60,4816.47911,N,01139.88803,E,AAAN,18,0.67,478.6,46.2,,,V*17
$GNGSA,A,3,14,21,01,03,08,22,32,17,27,,,,1.16,0.67,0.95,1*04
$GNGSA,A,3,66,65,82,67,73,,,,,,,,1.16,0.67,0.95,2*05
$GNGSA,A,3,15,34,05,03,,,,,,,,,1.16,0.67,0.95,3*0D
$GNVTG,,T,,M,0.337,N,0.624,K,A*3A
$SMGPS,-0.0 m,+0.00 m/s,7.36 VRx,0.000 km,5 m,79.4 °,1:-- (  0.0 km/h),471.1 m*81
$SMGPS2,-0.42 X,+0.14 Y,+0.85 Z,1 ENL,0 us,0.0 kmh,967.46 hPa,967.32 hPa,+0.01 m/s*04
$GNRMC,173840.70,A,4816.47916,N,01139.88814,E,0.20,,080522,,,A,V*24
$GNGNS,173840.70,4816.47916,N,01139.88814,E,AAAN,18,0.67,478.6,46.2,,,V*17
$GNGSA,A,3,14,21,01,03,08,22,32,17,27,,,,1.16,0.67,0.95,1*04
$GNGSA,A,3,66,65,82,67,73,,,,,,,,1.16,0.67,0.95,2*05
$GNGSA,A,3,15,34,05,03,,,,,,,,,1.16,0.67,0.95,3*0D
$GNVTG,,T,,M,0.200,N,0.370,K,A*3B
$SMGPS,-0.0 m,-0.00 m/s,7.37 VRx,0.000 km,5 m,79.7 °,1:-- (  0.0 km/h),471.3 m*87
$SMGPS2,-0.43 X,+0.12 Y,+0.83 Z,1 ENL,0 us,0.0 kmh,967.46 hPa,967.32 hPa,+0.01 m/s*05
$GNRMC,173840.80,A,4816.47926,N,01139.88826,E,0.17,,080522,,,A,V*2D
$GNGNS,173840.80,4816.47926,N,01139.88826,E,AAAN,18,0.67,478.6,46.2,,,V*1A
$GNGSA,A,3,14,21,01,03,08,22,32,17,27,,,,1.16,0.67,0.95,1*04
$GNGSA,A,3,66,65,82,67,73,,,,,,,,1.16,0.67,0.95,2*05
$GNGSA,A,3,15,34,05,03,,,,,,,,,1.16,0.67,0.95,3*0D
$GNVTG,,T,,M,0.172,N,0.319,K,A*32
$SMGPS,-0.0 m,-0.00 m/s,7.35 VRx,0.000 km,5 m,80.1 °,1:-- (  0.0 km/h),471.6 m*80
$SMGPS2,-0.38 X,+0.09 Y,+0.87 Z,1 ENL,0 us,0.0 kmh,967.46 hPa,967.32 hPa,+0.01 m/s*07
$GNRMC,173840.90,A,4816.47928,N,01139.88846,E,0.18,,080522,,,A,V*2B
$GNGNS,173840.90,4816.47928,N,01139.88846,E,AAAN,18,0.67,478.6,46.2,,,V*13
$GNGSA,A,3,14,21,01,03,08,22,32,17,27,,,,1.16,0.67,0.95,1*04
$GNGSA,A,3,66,65,82,67,73,,,,,,,,1.16,0.67,0.95,2*05
$GNGSA,A,3,15,34,05,03,,,,,,,,,1.16,0.67,0.95,3*0D
$GNVTG,,T,,M,0.175,N,0.325,K,A*3A
$SMGPS,0.0 m,-0.01 m/s,7.37 VRx,0.000 km,5 m,71.3 °,1:-- (  0.0 km/h),471.9 m*AD
$SMGPS2,-0.39 X,+0.02 Y,+0.93 Z,3 ENL,0 us,0.0 kmh,967.46 hPa,967.32 hPa,+0.01 m/s*0A
$GNRMC,173841.00,A,4816.47928,N,01139.88861,E,0.21,,080522,,,A,V*2C
$GNGNS,173841.00,4816.47928,N,01139.88861,E,AAAN,18,0.67,478.6,46.2,,,V*1E
$GNGSA,A,3,14,21,01,03,08,22,32,17,27,,,,1.16,0.67,0.95,1*04
$GNGSA,A,3,66,65,82,67,73,,,,,,,,1.16,0.67,0.95,2*05
$GNGSA,A,3,15,34,05,03,,,,,,,,,1.16,0.67,0.95,3*0D
$GNVTG,,T,,M,0.206,N,0.382,K,A*30
$SMGPS,0.0 m,-0.01 m/s,7.36 VRx,0.000 km,5 m,71.8 °,1:-- (  0.0 km/h),472.0 m*AD
$SMGPS2,-0.39 X,-0.01 Y,+0.89 Z,5 ENL,0 us,0.0 kmh,967.46 hPa,967.32 hPa,+0.00 m/s*03
$GNRMC,173841.10,A,4816.47938,N,01139.88880,E,0.32,,080522,,,A,V*21
$GNGNS,173841.10,4816.47938,N,01139.88880,E,AAAN,18,0.69,478.6,46.2,,,V*1F
$GNGSA,A,3,14,21,01,03,08,22,32,17,27,,,,1.16,0.69,0.93,1*0C
$GNGSA,A,3,66,65,82,67,73,,,,,,,,1.16,0.67,0.95,2*05
$GNGSA,A,3,15,34,05,03,,,,,,,,,1.16,0.67,0.95,3*0D
$GNVTG,,T,,M,0.319,N,0.592,K,A*38
$SMGPS,0.0 m,-0.00 m/s,7.37 VRx,0.000 km,6 m,72.2 °,1:-- (  0.0 km/h),472.1 m*A6
$SMGPS2,-0.40 X,-0.01 Y,+0.88 Z,3 ENL,0 us,0.0 kmh,967.46 hPa,967.32 hPa,+0.00 m/s*0A
$GNRMC,173841.20,A,4816.47940,N,01139.88888,E,0.63,,080522,,,A,V*21
$GNGNS,173841.20,4816.47940,N,01139.88888,E,AAAN,19,0.67,478.6,46.2,,,V*14
$GNGSA,A,3,14,21,01,03,08,22,32,17,27,,,,1.15,0.67,0.93,1*01
$GNGSA,A,3,66,82,67,73,,,,,,,,,1.16,0.69,0.93,2*0E
$GNGSA,A,3,15,34,05,03,21,,,,,,,,1.16,0.69,0.93,3*06
$GNVTG,,T,,M,0.626,N,1.160,K,A*39
$SMGPS,-0.0 m,-0.00 m/s,7.36 VRx,0.000 km,6 m,73.1 °,1:-- (  0.0 km/h),471.9 m*83
$SMGPS2,-0.35 X,-0.06 Y,+0.89 Z,3 ENL,0 us,0.0 kmh,967.46 hPa,967.32 hPa,-0.00 m/s*08
$GNRMC,173841.30,A,4816.47940,N,01139.88907,E,0.20,,080522,,,A,V*21
$GNGNS,173841.30,4816.47940,N,01139.88907,E,AAAN,19,0.67,478.6,46.2,,,V*13
$GNGSA,A,3,14,21,01,03,08,22,32,17,27,,,,1.15,0.67,0.93,1*01
$GNGSA,A,3,66,88,82,67,73,,,,,,,,1.15,0.67,0.93,2*03
$GNGSA,A,3,15,34,05,03,21,,,,,,,,1.15,0.67,0.93,3*0B
$GNVTG,,T,,M,0.198,N,0.367,K,A*3F
$SMGPS,-0.0 m,-0.00 m/s,7.36 VRx,0.000 km,6 m,73.5 °,1:-- (  0.0 km/h),471.8 m*86
$SMGPS2,-0.24 X,-0.06 Y,+0.91 Z,22 ENL,0 us,0.0 kmh,967.46 hPa,967.32 hPa,-0.00 m/s*32
$GNRMC,173841.40,A,4816.47936,N,01139.88916,E,0.08,,080522,,,A,V*2D
$GNGNS,173841.40,4816.47936,N,01139.88916,E,AAAN,19,0.67,478.6,46.2,,,V*15
$GNGSA,A,3,14,21,01,03,08,22,32,17,27,,,,1.15,0.67,0.93,1*01
$GNGSA,A,3,66,88,82,67,73,,,,,,,,1.15,0.67,0.93,2*03
$GNGSA,A,3,15,34,05,03,21,,,,,,,,1.15,0.67,0.93,3*0B
$GNVTG,,T,,M,0.076,N,0.141,K,A*38
$SMGPS,0.0 m,+0.00 m/s,7.35 VRx,0.000 km,6 m,73.8 °,1:-- (  0.0 km/h),471.6 m*AD
$SMGPS2,-0.23 X,-0.11 Y,+0.98 Z,3 ENL,0 us,0.0 kmh,967.45 hPa,967.32 hPa,-0.00 m/s*0A
$GNRMC,173841.50,A,4816.47936,N,01139.88925,E,0.07,,080522,,,A,V*23
$GNGNS,173841.50,4816.47936,N,01139.88925,E,AAAN,20,0.67,478.6,46.2,,,V*1E
$GNGSA,A,3,14,21,01,03,08,22,32,17,27,,,,1.10,0.67,0.87,1*01
$GNGSA,A,3,66,88,82,67,73,,,,,,,,1.15,0.67,0.93,2*03
$GNGSA,A,3,15,34,05,03,21,,,,,,,,1.15,0.67,0.93,3*0B
$GNVTG,,T,,M,0.072,N,0.134,K,A*3E
$SMGPS,0.0 m,+0.01 m/s,7.38 VRx,0.000 km,6 m,74.4 °,1:-- (  0.0 km/h),471.5 m*A9
$SMGPS2,-0.24 X,-0.08 Y,+0.94 Z,8 ENL,0 us,0.0 kmh,967.46 hPa,967.32 hPa,+0.00 m/s*07
$GNRMC,173841.60,A,4816.47937,N,01139.88933,E,0.20,,080522,,,A,V*23
$GNGNS,173841.60,4816.47937,N,01139.88933,E,AAAN,20,0.67,478.6,46.2,,,V*1B
$GNGSA,A,3,14,21,01,03,08,22,32,17,27,,,,1.10,0.67,0.87,1*01
$GNGSA,A,3,66,81,88,82,67,73,,,,,,,1.10,0.67,0.87,2*0A
$GNGSA,A,3,15,34,05,03,21,,,,,,,,1.10,0.67,0.87,3*0B
$GNVTG,,T,,M,0.197,N,0.365,K,A*32
$SMGPS,0.0 m,+0.01 m/s,7.36 VRx,0.000 km,6 m,74.7 °,1:-- (  0.0 km/h),471.3 m*A2
$SMGPS2,-0.27 X,-0.08 Y,+0.93 Z,86 ENL,0 us,0.0 kmh,967.45 hPa,967.32 hPa,+0.00 m/s*36
$GNRMC,173841.70,A,4816.47931,N,01139.88936,E,0.14,,080522,,,A,V*26
$GNGNS,173841.70,4816.47931,N,01139.88936,E,AAAN,21,0.60,478.6,46.2,,,V*1F
$GNGSA,A,3,14,21,01,03,08,22,32,17,27,10,,,0.99,0.60,0.78,1*07
$GNGSA,A,3,66,81,88,82,67,73,,,,,,,1.10,0.67,0.87,2*0A
$GNGSA,A,3,15,34,05,03,21,,,,,,,,1.10,0.67,0.87,3*0B
$GNVTG,,T,,M,0.139,N,0.258,K,A*39
$SMGPS,-0.0 m,+0.01 m/s,7.39 VRx,0.000 km,6 m,74.7 °,1:-- (  0.0 km/h),471.1 m*82
$SMGPS2,-0.29 X,-0.08 Y,+0.91 Z,17 ENL,0 us,0.0 kmh,967.46 hPa,967.32 hPa,+0.01 m/s*30
$GNRMC,173841.80,A,4816.47920,N,01139.88937,E,0.20,,080522,,,A,V*2F
$GNGNS,173841.80,4816.47920,N,01139.88937,E,AAAN,23,0.57,478.6,46.2,,,V*17
$GNGSA,A,3,14,21,01,03,08,22,32,17,27,10,,,0.95,0.57,0.76,1*01
$GNGSA,A,3,66,81,88,82,67,73,,,,,,,0.99,0.60,0.78,2*0D
$GNGSA,A,3,15,34,05,03,21,,,,,,,,0.99,0.60,0.78,3*0C
$GNVTG,,T,,M,0.196,N,0.363,K,A*35
$SMGPS,-0.0 m,+0.01 m/s,7.35 VRx,0.000 km,7 m,75.0 °,1:-- (  0.0 km/h),471.0 m*88
$SMGPS2,-0.27 X,-0.07 Y,+0.88 Z,57 ENL,0 us,0.0 kmh,967.46 hPa,967.33 hPa,-0.00 m/s*3B
$GNRMC,173841.90,A,4816.47916,N,01139.88937,E,0.06,,080522,,,A,V*2F
$GNGNS,173841.90,4816.47916,N,01139.88937,E,AAAN,23,0.57,478.6,46.2,,,V*13
$GNGSA,A,3,14,21,01,03,08,22,32,17,27,10,,,0.95,0.57,0.76,1*01
$GNGSA,A,3,66,81,65,88,82,67,73,,,,,,0.95,0.57,0.76,2*08
$GNGSA,A,3,15,34,05,03,21,27,,,,,,,0.95,0.57,0.76,3*0F
$GNVTG,,T,,M,0.050,N,0.093,K,A*32
$SMGPS,0.0 m,+0.01 m/s,7.39 VRx,0.000 km,6 m,82.4 °,1:-- (  0.0 km/h),471.0 m*A4
$SMGPS2,-0.30 X,-0.09 Y,+0.94 Z,4 ENL,0 us,0.0 kmh,967.45 hPa,967.32 hPa,+0.00 m/s*0C
$GNRMC,173842.00,A,4816.47913,N,01139.88942,E,0.27,,080522,,,A,V*21
$GNGNS,173842.00,4816.47913,N,01139.88942,E,AAAN,23,0.57,478.6,46.2,,,V*1E
$GNGSA,A,3,14,21,01,03,08,22,32,17,27,10,,,0.95,0.57,0.76,1*01
$GNGSA,A,3,66,81,65,88,82,67,73,,,,,,0.95,0.57,0.76,2*08
$GNGSA,A,3,15,34,05,03,21,27,,,,,,,0.95,0.57,0.76,3*0F
$GNVTG,,T,,M,0.270,N,0.499,K,A*3C
$SMGPS,-0.0 m,+0.01 m/s,7.37 VRx,0.000 km,6 m,82.4 °,1:-- (  0.0 km/h),471.0 m*87
$SMGPS2,-0.27 X,-0.11 Y,+0.90 Z,9 ENL,0 us,0.0 kmh,967.46 hPa,967.32 hPa,-0.00 m/s*0F
$GNRMC,173842.10,A,4816.47911,N,01139.88944,E,0.12,,080522,,,A,V*22
$GNGNS,173842.10,4816.47911,N,01139.88944,E,AAAN,23,0.57,478.6,46.2,,,V*1B
$GNGSA,A,3,14,21,01,03,08,22,32,17,27,10,,,0.95,0.57,0.76,1*01
$GNGSA,A,3,66,81,65,88,82,67,73,,,,,,0.95,0.57,0.76,2*08
$GNGSA,A,3,15,34,05,03,21,27,,,,,,,0.95,0.57,0.76,3*0F
$GNVTG,,T,,M,0.124,N,0.230,K,A*3B
$SMGPS,-0.0 m,+0.01 m/s,7.39 VRx,0.000 km,6 m,82.4 °,1:-- (  0.0 km/h),470.9 m*81
$SMGPS2,-0.28 X,-0.10 Y,+0.92 Z,8 ENL,0 us,0.0 kmh,967.46 hPa,967.32 hPa,-0.00 m/s*02
$GNRMC,173842.20,A,4816.47906,N,01139.88948,E,0.16,,080522,,,A,V*2F
$GNGNS,173842.20,4816.47906,N,01139.88948,E,AAAN,23,0.57,478.6,46.2,,,V*12
$GNGSA,A,3,14,21,01,03,08,22,32,17,27,10,,,0.95,0.57,0.76,1*01
$GNGSA,A,3,66,81,65,88,82,67,73,,,,,,0.95,0.57,0.76,2*08
$GNGSA,A,3,15,34,05,03,21,27,,,,,,,0.95,0.57,0.76,3*0F
$GNVTG,,T,,M,0.156,N,0.290,K,A*34
$SMGPS,0.0 m,+0.00 m/s,7.36 VRx,0.000 km,6 m,82.4 °,1:-- (  0.0 km/h),470.9 m*A2
$SMGPS2,-0.26 X,-0.07 Y,+0.95 Z,8 ENL,0 us,0.0 kmh,967.45 hPa,967.33 hPa,-0.01 m/s*0E
$GNRMC,173842.30,A,4816.47903,N,01139.88952,E,0.64,,080522,,,A,V*25
$GNGNS,173842.30,4816.47903,N,01139.88952,E,AAAN,23,0.57,478.6,46.2,,,V*1D
$GNGSA,A,3,14,21,01,03,08,22,32,17,27,10,,,0.95,0.57,0.76,1*01
$GNGSA,A,3,66,81,65,88,82,67,73,,,,,,0.95,0.57,0.76,2*08
$GNGSA,A,3,15,34,05,03,21,27,,,,,,,0.95,0.57,0.76,3*0F
$GNVTG,,T,,M,0.636,N,1.177,K,A*3E
$SMGPS,-0.0 m,-0.00 m/s,7.37 VRx,0.000 km,7 m,82.6 °,1:-- (  0.0 km/h),471.0 m*83
$SMGPS2,-0.25 X,-0.05 Y,+0.94 Z,2 ENL,0 us,0.0 kmh,967.46 hPa,967.32 hPa,-0.01 m/s*06
$GNRMC,173842.40,A,4816.47902,N,01139.88959,E,0.67,,080522,,,A,V*2B
$GNGNS,173842.40,4816.47902,N,01139.88959,E,AAAN,23,0.57,478.6,46.2,,,V*10
$GNGSA,A,3,14,21,01,03,08,22,32,17,27,10,,,0.95,0.57,0.76,1*01
$GNGSA,A,3,66,81,65,88,82,67,73,,,,,,0.95,0.57,0.76,2*08
$GNGSA,A,3,15,34,05,03,21,27,,,,,,,0.95,0.57,0.76,3*0F
$GNVTG,,T,,M,0.674,N,1.249,K,A*36
$SMGPS,-0.0 m,-0.01 m/s,7.36 VRx,0.000 km,7 m,82.6 °,1:-- (  0.0 km/h),471.1 m*82
$SMGPS2,-0.29 X,-0.08 Y,+0.94 Z,5 ENL,0 us,0.0 kmh,967.46 hPa,967.32 hPa,-0.01 m/s*00
$GNRMC,173842.50,A,4816.47897,N,01139.88961,E,0.53,,080522,,,A,V*2B
$GNGNS,173842.50,4816.47897,N,01139.88961,E,AAAN,23,0.57,478.6,46.2,,,V*17
$GNGSA,A,3,14,21,01,03,08,22,32,17,27,10,,,0.95,0.57,0.76,1*01
$GNGSA,A,3,66,81,65,88,82,67,73,,,,,,0.95,0.57,0.76,2*08
$GNGSA,A,3,15,34,05,03,21,27,,,,,,,0.95,0.57,0.76,3*0F
$GNVTG,,T,,M,0.530,N,0.981,K,A*3B
$SMGPS,0.0 m,-0.00 m/s,7.38 VRx,0.000 km,7 m,82.7 °,1:-- (  0.0 km/h),471.3 m*A3
$SMGPS2,-0.25 X,-0.11 Y,+0.95 Z,71 ENL,0 us,0.0 kmh,967.46 hPa,967.32 hPa,-0.00 m/s*37
$GNRMC,173842.60,A,4816.47893,N,01139.88965,E,0.16,,080522,,,A,V*29
$GNGNS,173842.60,4816.47893,N,01139.88965,E,AAAN,23,0.57,478.6,46.2,,,V*14
$GNGSA,A,3,14,21,01,03,08,22,32,17,27,10,,,0.95,0.57,0.76,1*01
$GNGSA,A,3,66,81,65,88,82,67,73,,,,,,0.95,0.57,0.76,2*08
$GNGSA,A,3,15,34,05,03,21,27,,,,,,,0.95,0.57,0.76,3*0F
$GNVTG,,T,,M,0.164,N,0.304,K,A*39
$SMGPS,-0.0 m,-0.01 m/s,7.36 VRx,0.000 km,7 m,82.7 °,1:-- (  0.0 km/h),471.4 m*86
$SMGPS2,-0.27 X,-0.06 Y,+0.90 Z,2 ENL,0 us,0.0 kmh,967.46 hPa,967.32 hPa,-0.00 m/s*02
$GNRMC,173842.70,A,4816.47890,N,01139.88968,E,0.14,,080522,,,A,V*24
$GNGNS,173842.70,4816.47890,N,01139.88968,E,AAAN,23,0.57,478.6,46.2,,,V*1B
$GNGSA,A,3,14,21,01,03,08,22,32,17,27,10,,,0.95,0.57,0.76,1*01
$GNGSA,A,3,66,81,65,88,82,67,73,,,,,,0.95,0.57,0.76,2*08
$GNGSA,A,3,15,34,05,03,21,27,,,,,,,0.95,0.57,0.76,3*0F
$GNVTG,,T,,M,0.139,N,0.258,K,A*39
$SMGPS,-0.0 m,-0.01 m/s,7.39 VRx,0.000 km,7 m,82.7 °,1:-- (  0.0 km/h),471.7 m*8A
$SMGPS2,-0.31 X,-0.08 Y,+0.93 Z,2 ENL,0 us,0.0 kmh,967.46 hPa,967.32 hPa,-0.00 m/s*08
$GNRMC,173842.80,A,4816.47887,N,01139.88970,E,0.12,,080522,,,A,V*22
$GNGNS,173842.80,4816.47887,N,01139.88970,E,AAAN,23,0.57,478.5,46.2,,,V*18
$GNGSA,A,3,14,21,01,03,08,22,32,17,27,10,,,0.95,0.57,0.76,1*01
$GNGSA,A,3,66,81,65,88,82,67,73,,,,,,0.95,0.57,0.76,2*08
$GNGSA,A,3,15,34,05,03,21,27,,,,,,,0.95,0.57,0.76,3*0F
$GNVTG,,T,,M,0.112,N,0.207,K,A*3A
$SMGPS,-0.1 m,-0.01 m/s,7.39 VRx,0.000 km,7 m,82.7 °,1:-- (  0.0 km/h),471.9 m*85
$SMGPS2,-0.27 X,-0.02 Y,+0.92 Z,2 ENL,0 us,0.0 kmh,967.47 hPa,967.32 hPa,-0.00 m/s*05
$GNRMC,173842.90,A,4816.47884,N,01139.88975,E,0.10,,080522,,,A,V*27
$GNGNS,173842.90,4816.47884,N,01139.88975,E,AAAN,23,0.57,478.6,46.2,,,V*1C
$GNGSA,A,3,14,21,01,03,08,22,32,17,27,10,,,0.95,0.57,0.76,1*01
$GNGSA,A,3,66,81,65,88,82,67,73,,,,,,0.95,0.57,0.76,2*08
$GNGSA,A,3,15,34,05,03,21,27,,,,,,,0.95,0.57,0.76,3*0F
$GNVTG,,T,,M,0.097,N,0.181,K,A*3B
$SMGPS,0.0 m,-0.01 m/s,7.41 VRx,0.000 km,7 m,82.7 °,1:-- (  0.0 km/h),472.0 m*AC
$SMGPS2,-0.30 X,-0.04 Y,+0.96 Z,2 ENL,0 us,0.0 kmh,967.46 hPa,967.32 hPa,-0.00 m/s*00
$GNRMC,173843.00,A,4816.47879,N,01139.88979,E,0.32,,080522,,,A,V*21
$GNGNS,173843.00,4816.47879,N,01139.88979,E,AAAN,23,0.57,478.6,46.2,,,V*1A
$GNGSA,A,3,14,21,01,03,08,22,32,17,27,10,,,0.95,0.57,0.76,1*01
$GNGSA,A,3,66,81,65,88,82,67,73,,,,,,0.95,0.57,0.76,2*08
$GNGSA,A,3,15,34,05,03,21,27,,,,,,,0.95,0.57,0.76,3*0F
$GNVTG,,T,,M,0.320,N,0.593,K,A*33
$SMGPS,-0.0 m,-0.01 m/s,7.37 VRx,0.000 km,7 m,82.9 °,1:-- (  0.0 km/h),472.2 m*8C
$SMGPS2,-0.27 X,-0.06 Y,+0.94 Z,3 ENL,0 us,0.0 kmh,967.46 hPa,967.32 hPa,-0.00 m/s*07
$GNRMC,173843.10,A,4816.47876,N,01139.88984,E,0.26,,080522,,,A,V*28
$GNGNS,173843.10,4816.47876,N,01139.88984,E,AAAN,24,0.54,478.6,46.2,,,V*12
$GNGSA,A,3,14,21,01,03,08,22,32,17,27,10,,,0.91,0.54,0.73,1*03
$GNGSA,A,3,66,81,65,88,82,67,73,,,,,,0.95,0.57,0.76,2*08
$GNGSA,A,3,15,34,05,03,21,27,,,,,,,0.95,0.57,0.76,3*0F
$GNVTG,,T,,M,0.257,N,0.476,K,A*38
$SMGPS,0.0 m,-0.01 m/s,7.41 VRx,0.000 km,7 m,82.9 °,1:-- (  0.0 km/h),472.3 m*A1
$SMGPS2,-0.32 X,-0.08 Y,+0.92 Z,40 ENL,0 us,0.0 kmh,967.46 hPa,967.32 hPa,-0.01 m/s*3D
$GNRMC,173843.20,A,4816.47873,N,01139.88986,E,0.19,,080522,,,A,V*20
$GNGNS,173843.20,4816.47873,N,01139.88986,E,AAAN,24,0.54,478.6,46.2,,,V*16
$GNGSA,A,3,14,21,01,03,08,22,32,17,27,10,,,0.91,0.54,0.73,1*03
$GNGSA,A,3,66,81,65,88,82,67,73,,,,,,0.91,0.54,0.73,2*0A
$GNGSA,A,3,15,34,05,03,21,27,09,,,,,,0.91,0.54,0.73,3*04
$GNVTG,,T,,M,0.191,N,0.354,K,A*36
$SMGPS,0.0 m,-0.01 m/s,7.36 VRx,0.000 km,7 m,83.0 °,1:-- (  0.0 km/h),472.3 m*A9
$SMGPS2,-0.31 X,-0.10 Y,+0.89 Z,15 ENL,0 us,0.0 kmh,967.46 hPa,967.32 hPa,-0.00 m/s*3C
$GNRMC,173843.30,A,4816.47872,N,01139.88988,E,0.04,,080522,,,A,V*22
$GNGNS,173843.30,4816.47872,N,01139.88988,E,AAAN,24,0.54,478.6,46.2,,,V*18
$GNGSA,A,3,14,21,01,03,08,22,32,17,27,10,,,0.91,0.54,0.73,1*03
$GNGSA,A,3,66,81,65,88,82,67,73,,,,,,0.91,0.54,0.73,2*0A
$GNGSA,A,3,15,34,05,03,21,27,09,,,,,,0.91,0.54,0.73,3*04
$GNVTG,,T,,M,0.037,N,0.069,K,A*36
$SMGPS,0.0 m,-0.01 m/s,7.39 VRx,0.000 km,7 m,90.0 °,1:-- (  0.0 km/h),472.3 m*A4
$SMGPS2,-0.29 X,-0.07 Y,+0.90 Z,115 ENL,0 us,0.0 kmh,967.46 hPa,967.32 hPa,-0.00 m/s*0A
$GNRMC,173843.40,A,4816.47869,N,01139.88990,E,0.10,,080522,,,A,V*23
$GNGNS,173843.40,4816.47869,N,01139.88990,E,AAAN,24,0.54,478.6,46.2,,,V*1C
$GNGSA,A,3,14,21,01,03,08,22,32,17,27,10,,,0.91,0.54,0.73,1*03
$GNGSA,A,3,66,81,65,88,82,67,73,,,,,,0.91,0.54,0.73,2*0A
$GNGSA,A,3,15,34,05,03,21,27,09,,,,,,0.91,0.54,0.73,3*04
$GNVTG,,T,,M,0.100,N,0.185,K,A*30
$SMGPS,0.0 m,+0.00 m/s,7.35 VRx,0.000 km,7 m,90.0 °,1:-- (  0.0 km/h),472.3 m*AF
$SMGPS2,-0.31 X,-0.03 Y,+0.94 Z,21 ENL,0 us,0.0 kmh,967.46 hPa,967.32 hPa,-0.00 m/s*35
$GNRMC,173843.50,A,4816.47868,N,01139.88991,E,0.19,,080522,,,A,V*2B
$GNGNS,173843.50,4816.47868,N,01139.88991,E,AAAN,24,0.54,478.6,46.2,,,V*1D
$GNGSA,A,3,14,21,01,03,08,22,32,17,27,10,,,0.91,0.54,0.73,1*03
$GNGSA,A,3,66,81,65,88,82,67,73,,,,,,0.91,0.54,0.73,2*0A
$GNGSA,A,3,15,34,05,03,21,27,09,,,,,,0.91,0.54,0.73,3*04
$GNVTG,,T,,M,0.188,N,0.348,K,A*33
$SMGPS,-0.0 m,+0.01 m/s,7.38 VRx,0.000 km,7 m,90.0 °,1:-- (  0.0 km/h),472.3 m*8E
$SMGPS2,-0.32 X,-0.06 Y,+0.91 Z,25 ENL,0 us,0.0 kmh,967.46 hPa,967.32 hPa,-0.00 m/s*32
$GNRMC,173843.60,A,4816.47867,N,01139.88994,E,0.41,,080522,,,A,V*2F
$GNGNS,173843.60,4816.47867,N,01139.88994,E,AAAN,24,0.54,478.6,46.2,,,V*14
$GNGSA,A,3,14,21,01,03,08,22,32,17,27,10,,,0.91,0.54,0.73,1*03
$GNGSA,A,3,66,81,65,88,82,67,73,,,,,,0.91,0.54,0.73,2*0A
$GNGSA,A,3,15,34,05,03,21,27,09,,,,,,0.91,0.54,0.73,3*04
$GNVTG,,T,,M,0.411,N,0.761,K,A*39
$SMGPS,-0.0 m,+0.00 m/s,7.36 VRx,0.000 km,7 m,90.0 °,1:-- (  0.0 km/h),472.4 m*86
$SMGPS2,-0.30 X,-0.06 Y,+0.93 Z,75 ENL,0 us,0.0 kmh,967.46 hPa,967.32 hPa,+0.01 m/s*30
$GNRMC,173843.70,A,4816.47865,N,01139.88995,E,0.02,,080522,,,A,V*2A
$GNGNS,173843.70,4816.47865,N,01139.88995,E,AAAN,24,0.54,478.6,46.2,,,V*16
$GNGSA,A,3,14,21,01,03,08,22,32,17,27,10,,,0.91,0.54,0.73,1*03
$GNGSA,A,3,66,81,65,88,82,67,73,,,,,,0.91,0.54,0.73,2*0A
$GNGSA,A,3,15,34,05,03,21,27,09,,,,,,0.91,0.54,0.73,3*04
$GNVTG,,T,,M,0.020,N,0.037,K,A*3B
$SMGPS,-0.0 m,+0.00 m/s,7.37 VRx,0.000 km,7 m,90.0 °,1:-- (  0.0 km/h),472.5 m*86
$SMGPS2,-0.31 X,-0.02 Y,+0.91 Z,93 ENL,0 us,0.0 kmh,967.46 hPa,967.32 hPa,+0.01 m/s*3F
$GNRMC,173843.80,A,4816.47864,N,01139.88996,E,0.52,,080522,,,A,V*22
$GNGNS,173843.80,4816.47864,N,01139.88996,E,AAAN,24,0.54,478.6,46.2,,,V*1B
$GNGSA,A,3,14,21,01,03,08,22,32,17,27,10,,,0.91,0.54,0.73,1*03
$GNGSA,A,3,66,81,65,88,82,67,73,,,,,,0.91,0.54,0.73,2*0A
$GNGSA,A,3,15,34,05,03,21,27,09,,,,,,0.91,0.54,0.73,3*04
$GNVTG,,T,,M,0.517,N,0.958,K,A*3A
$SMGPS,0.0 m,+0.00 m/s,7.37 VRx,0.000 km,7 m,90.0 °,1:-- (  0.0 km/h),472.5 m*AB
$SMGPS2,-0.31 X,+0.02 Y,+0.91 Z,1 ENL,0 us,0.0 kmh,967.46 hPa,967.32 hPa,+0.01 m/s*02
$GNRMC,173843.90,A,4816.47864,N,01139.88997,E,0.16,,080522,,,A,V*22
$GNGNS,173843.90,4816.47864,N,01139.88997,E,AAAN,24,0.54,478.6,46.2,,,V*1B
$GNGSA,A,3,14,21,01,03,08,22,32,17,27,10,,,0.91,0.54,0.73,1*03
$GNGSA,A,3,66,81,65,88,82,67,73,,,,,,0.91,0.54,0.73,2*0A
$GNGSA,A,3,15,34,05,03,21,27,09,,,,,,0.91,0.54,0.73,3*04
$GNVTG,,T,,M,0.164,N,0.303,K,A*3E
$SMGPS,0.0 m,+0.00 m/s,7.40 VRx,0.000 km,7 m,90.0 °,1:-- (  0.0 km/h),472.5 m*AB
$SMGPS2,-0.29 X,+0.04 Y,+0.88 Z,243 ENL,0 us,0.0 kmh,967.46 hPa,967.33 hPa,+0.00 m/s*01
$GNRMC,173844.00,A,4816.47864,N,01139.88998,E,0.07,,080522,,,A,V*23
$GNGNS,173844.00,4816.47864,N,01139.88998,E,AAAN,24,0.54,478.6,46.2,,,V*1A
$GNGSA,A,3,14,21,01,03,08,22,32,17,27,10,,,0.91,0.54,0.73,1*03
$GNGSA,A,3,66,81,65,88,82,67,73,,,,,,0.91,0.54,0.73,2*0A
$GNGSA,A,3,15,34,05,03,21,27,09,,,,,,0.91,0.54,0.73,3*04
$GNVTG,,T,,M,0.073,N,0.135,K,A*3E
$SMGPS,0.0 m,-0.00 m/s,7.37 VRx,0.000 km,7 m,90.0 °,1:-- (  0.0 km/h),472.6 m*AE
$SMGPS2,-0.35 X,-0.02 Y,+0.92 Z,274 ENL,0 us,0.0 kmh,967.46 hPa,967.32 hPa,-0.00 m/s*04
$GNRMC,173844.10,A,4816.47865,N,01139.89001,E,0.16,,080522,,,A,V*2B
$GNGNS,173844.10,4816.47865,N,01139.89001,E,AAAN,24,0.54,478.6,46.2,,,V*12
$GNGSA,A,3,14,21,01,03,08,22,32,17,27,10,,,0.91,0.54,0.73,1*03
$GNGSA,A,3,66,81,65,88,82,67,73,,,,,,0.91,0.54,0.73,2*0A
$GNGSA,A,3,15,34,05,03,21,27,09,,,,,,0.91,0.54,0.73,3*04
$GNVTG,,T,,M,0.162,N,0.300,K,A*3B
$SMGPS,-0.0 m,-0.01 m/s,7.40 VRx,0.000 km,7 m,90.0 °,1:-- (  0.0 km/h),472.5 m*81
$SMGPS2,-0.30 X,+0.01 Y,+0.90 Z,2 ENL,0 us,0.0 kmh,967.46 hPa,967.32 hPa,-0.00 m/s*05
$GNRMC,173844.20,A,4816.47867,N,01139.89006,E,0.37,,080522,,,A,V*2E
$GNGNS,173844.20,4816.47867,N,01139.89006,E,AAAN,24,0.54,478.6,46.2,,,V*14
$GNGSA,A,3,14,21,01,03,08,22,32,17,27,10,,,0.91,0.54,0.73,1*03
$GNGSA,A,3,66,81,65,88,82,67,73,,,,,,0.91,0.54,0.73,2*0A
$GNGSA,A,3,15,34,05,03,21,27,09,,,,,,0.91,0.54,0.73,3*04
$GNVTG,,T,,M,0.373,N,0.690,K,A*35
$SMGPS,-0.0 m,-0.01 m/s,7.36 VRx,0.000 km,7 m,90.0 °,1:-- (  0.0 km/h),472.5 m*80
$SMGPS2,-0.35 X,-0.03 Y,+0.91 Z,46 ENL,0 us,0.0 kmh,967.46 hPa,967.32 hPa,-0.00 m/s*35
$GNRMC,173844.30,A,4816.47869,N,01139.89012,E,0.19,,080522,,,A,V*28
$GNGNS,173844.30,4816.47869,N,01139.89012,E,AAAN,24,0.54,478.6,46.2,,,V*1E
$GNGSA,A,3,14,21,01,03,08,22,32,17,27,10,,,0.91,0.54,0.73,1*03
$GNGSA,A,3,66,81,65,88,82,67,73,,,,,,0.91,0.54,0.73,2*0A
$GNGSA,A,3,15,34,05,03,21,27,09,,,,,,0.91,0.54,0.73,3*04
$GNVTG,,T,,M,0.186,N,0.345,K,A*30
$SMGPS,-0.0 m,-0.01 m/s,7.40 VRx,0.000 km,7 m,90.0 °,1:-- (  0.0 km/h),472.5 m*81
$SMGPS2,-0.30 X,-0.01 Y,+0.94 Z,1 ENL,0 us,0.0 kmh,967.46 hPa,967.33 hPa,-0.01 m/s*04
$GNRMC,173844.40,A,4816.47871,N,01139.89017,E,0.13,,080522,,,A,V*29
$GNGNS,173844.40,4816.47871,N,01139.89017,E,AAAN,24,0.54,478.6,46.2,,,V*15
$GNGSA,A,3,14,21,01,03,08,22,32,17,27,10,,,0.91,0.54,0.73,1*03
$GNGSA,A,3,66,81,65,88,82,67,73,,,,,,0.91,0.54,0.73,2*0A
$GNGSA,A,3,15,34,05,03,21,27,09,,,,,,0.91,0.54,0.73,3*04
$GNVTG,,T,,M,0.131,N,0.243,K,A*3B
$SMGPS,-0.0 m,-0.01 m/s,7.37 VRx,0.000 km,7 m,90.0 °,1:-- (  0.0 km/h),472.5 m*81
$SMGPS2,-0.31 X,+0.00 Y,+0.92 Z,2 ENL,0 us,0.0 kmh,967.46 hPa,967.33 hPa,-0.01 m/s*07
$GNRMC,173844.50,A,4816.47874,N,01139.89021,E,0.08,,080522,,,A,V*22
$GNGNS,173844.50,4816.47874,N,01139.89021,E,AAAN,24,0.54,478.6,46.2,,,V*14
$GNGSA,A,3,14,21,01,03,08,22,32,17,27,10,,,0.91,0.54,0.73,1*03
$GNGSA,A,3,66,81,65,88,82,67,73,,,,,,0.91,0.54,0.73,2*0A
$GNGSA,A,3,15,34,05,03,21,27,09,,,,,,0.91,0.54,0.73,3*04
$GNVTG,,T,,M,0.079,N,0.146,K,A*30
$SMGPS,0.0 m,-0.01 m/s,7.40 VRx,0.000 km,7 m,90.0 °,1:-- (  0.0 km/h),472.5 m*AC
$SMGPS2,-0.31 X,-0.02 Y,+0.90 Z,1 ENL,0 us,0.0 kmh,967.45 hPa,967.32 hPa,-0.01 m/s*00
$GNRMC,173844.60,A,4816.47876,N,01139.89023,E,0.15,,080522,,,A,V*2D
$GNGNS,173844.60,4816.47876,N,01139.89023,E,AAAN,24,0.54,478.6,46.2,,,V*17
$GNGSA,A,3,14,21,01,03,08,22,32,17,27,10,,,0.91,0.54,0.73,1*03
$GNGSA,A,3,66,81,65,88,82,67,73,,,,,,0.91,0.54,0.73,2*0A
$GNGSA,A,3,15,34,05,03,21,27,09,,,,,,0.91,0.54,0.73,3*04
$GNVTG,,T,,M,0.154,N,0.286,K,A*31
$SMGPS,0.0 m,-0.01 m/s,7.36 VRx,0.000 km,7 m,90.0 °,1:-- (  0.0 km/h),472.5 m*AD
$SMGPS2,-0.33 X,-0.04 Y,+0.91 Z,3 ENL,0 us,0.0 kmh,967.46 hPa,967.33 hPa,-0.01 m/s*05
$GNRMC,173844.70,A,4816.47879,N,01139.89025,E,0.15,,080522,,,A,V*25
$GNGNS,173844.70,4816.47879,N,01139.89025,E,AAAN,24,0.54,478.6,46.2,,,V*1F
$GNGSA,A,3,14,21,01,03,08,22,32,17,27,10,,,0.91,0.54,0.73,1*03
$GNGSA,A,3,66,81,65,88,82,67,73,,,,,,0.91,0.54,0.73,2*0A
$GNGSA,A,3,15,34,05,03,21,27,09,,,,,,0.91,0.54,0.73,3*04
$GNVTG,,T,,M,0.150,N,0.277,K,A*3B
$SMGPS,0.0 m,-0.01 m/s,7.38 VRx,0.000 km,7 m,83.5 °,1:-- (  0.0 km/h),472.4 m*A5
$SMGPS2,-0.28 X,-0.06 Y,+0.93 Z,2 ENL,0 us,0.0 kmh,967.46 hPa,967.32 hPa,-0.00 m/s*0E
$GNRMC,173844.80,A,4816.47881,N,01139.89027,E,0.18,,080522,,,A,V*22
$GNGNS,173844.80,4816.47881,N,01139.89027,E,AAAN,24,0.54,478.6,46.2,,,V*15
$GNGSA,A,3,14,21,01,03,08,22,32,17,27,10,,,0.91,0.54,0.73,1*03
$GNGSA,A,3,66,81,65,88,82,67,73,,,,,,0.91,0.54,0.73,2*0A
$GNGSA,A,3,15,34,05,03,21,27,09,,,,,,0.91,0.54,0.73,3*04
$GNVTG,,T,,M,0.183,N,0.339,K,A*3E
$SMGPS,0.0 m,-0.00 m/s,7.36 VRx,0.000 km,7 m,83.5 °,1:-- (  0.0 km/h),472.4 m*AA
$SMGPS2,-0.27 X,-0.02 Y,+0.92 Z,2 ENL,0 us,0.0 kmh,967.46 hPa,967.32 hPa,-0.01 m/s*05
$GNRMC,173844.90,A,4816.47884,N,01139.89028,E,0.09,,080522,,,A,V*29
$GNGNS,173844.90,4816.47884,N,01139.89028,E,AAAN,24,0.54,478.6,46.2,,,V*1E
$GNGSA,A,3,14,21,01,03,08,22,32,17,27,10,,,0.91,0.54,0.73,1*03
$GNGSA,A,3,66,81,65,88,82,67,73,,,,,,0.91,0.54,0.73,2*0A
$GNGSA,A,3,15,34,05,03,21,27,09,,,,,,0.91,0.54,0.73,3*04
$GNVTG,,T,,M,0.094,N,0.174,K,A*32
$SMGPS,0.0 m,+0.00 m/s,7.38 VRx,0.000 km,7 m,83.5 °,1:-- (  0.0 km/h),472.3 m*A5
$SMGPS2,-0.30 X,-0.02 Y,+0.93 Z,4 ENL,0 us,0.0 kmh,967.46 hPa,967.32 hPa,-0.01 m/s*04
$GNRMC,173845.00,A,4816.47886,N,01139.89030,E,0.06,,080522,,,A,V*25
$GNGNS,173845.00,4816.47886,N,01139.89030,E,AAAN,24,0.54,478.6,46.2,,,V*1D
$GNGSA,A,3,14,21,01,03,08,22,32,17,27,10,,,0.91,0.54,0.73,1*03
$GNGSA,A,3,66,81,65,88,82,67,73,,,,,,0.91,0.54,0.73,2*0A
$GNGSA,A,3,15,34,05,03,21,27,09,,,,,,0.91,0.54,0.73,3*04
$GNVTG,,T,,M,0.059,N,0.110,K,A*31
$SMGPS,-0.0 m,-0.00 m/s,7.36 VRx,0.000 km,7 m,83.5 °,1:-- (  0.0 km/h),472.3 m*80
$SMGPS2,-0.33 X,+0.00 Y,+0.89 Z,1 ENL,0 us,0.0 kmh,967.46 hPa,967.32 hPa,-0.01 m/s*0D
$GNRMC,173845.10,A,4816.47887,N,01139.89031,E,0.11,,080522,,,A,V*22
$GNGNS,173845.10,4816.47887,N,01139.89031,E,AAAN,24,0.54,478.6,46.2,,,V*1C
$GNGSA,A,3,14,21,01,03,08,22,32,17,27,10,,,0.91,0.54,0.73,1*03
$GNGSA,A,3,66,81,65,88,82,67,73,,,,,,0.91,0.54,0.73,2*0A
$GNGSA,A,3,15,34,05,03,21,27,09,,,,,,0.91,0.54,0.73,3*04
$GNVTG,,T,,M,0.105,N,0.194,K,A*35
$SMGPS,-0.0 m,+0.00 m/s,7.37 VRx,0.000 km,7 m,83.5 °,1:-- (  0.0 km/h),472.3 m*87
$SMGPS2,-0.32 X,+0.04 Y,+0.89 Z,7 ENL,0 us,0.0 kmh,967.46 hPa,967.32 hPa,-0.01 m/s*0E
$GNRMC,173845.20,A,4816.47888,N,01139.89031,E,0.21,,080522,,,A,V*2D
$GNGNS,173845.20,4816.47888,N,01139.89031,E,AAAN,24,0.54,478.6,46.2,,,V*10
$GNGSA,A,3,14,21,01,03,08,22,32,17,27,10,,,0.91,0.54,0.73,1*03
$GNGSA,A,3,66,81,65,88,82,67,73,,,,,,0.91,0.54,0.73,2*0A
$GNGSA,A,3,15,34,05,03,21,27,09,,,,,,0.91,0.54,0.73,3*04
$GNVTG,,T,,M,0.207,N,0.383,K,A*30
$SMGPS,0.0 m,+0.00 m/s,7.36 VRx,0.000 km,7 m,83.5 °,1:-- (  0.0 km/h),472.3 m*AB
$SMGPS2,-0.30 X,+0.03 Y,+0.94 Z,7 ENL,0 us,0.0 kmh,967.45 hPa,967.32 hPa,-0.01 m/s*04
$GNRMC,173845.30,A,4816.47889,N,01139.89031,E,0.12,,080522,,,A,V*2D
$GNGNS,173845.30,4816.47889,N,01139.89031,E,AAAN,24,0.54,478.6,46.2,,,V*10
$GNGSA,A,3,14,21,01,03,08,22,32,17,27,10,,,0.91,0.54,0.73,1*03
$GNGSA,A,3,66,81,65,88,82,67,73,,,,,,0.91,0.54,0.73,2*0A
$GNGSA,A,3,15,34,05,03,21,27,09,,,,,,0.91,0.54,0.73,3*04
$GNVTG,,T,,M,0.116,N,0.215,K,A*3D
$SMGPS,0.0 m,+0.01 m/s,7.38 VRx,0.000 km,7 m,83.5 °,1:-- (  0.0 km/h),472.3 m*A4
$SMGPS2,-0.29 X,-0.00 Y,+0.93 Z,4 ENL,0 us,0.0 kmh,967.46 hPa,967.32 hPa,-0.00 m/s*0F
$GNRMC,173845.40,A,4816.47890,N,01139.89031,E,0.28,,080522,,,A,V*2B
$GNGNS,173845.40,4816.47890,N,01139.89031,E,AAAN,24,0.54,478.6,46.2,,,V*1F
$GNGSA,A,3,14,21,01,03,08,22,32,17,27,10,,,0.91,0.54,0.73,1*03
$GNGSA,A,3,66,81,65,88,82,67,73,,,,,,0.91,0.54,0.73,2*0A
$GNGSA,A,3,15,34,05,03,21,27,09,,,,,,0.91,0.54,0.73,3*04
$GNVTG,,T,,M,0.280,N,0.519,K,A*3A
$SMGPS,0.0 m,+0.01 m/s,7.35 VRx,0.000 km,7 m,83.5 °,1:-- (  0.0 km/h),472.4 m*AE
$SMGPS2,-0.34 X,-0.06 Y,+0.90 Z,4 ENL,0 us,0.0 kmh,967.46 hPa,967.32 hPa,-0.01 m/s*07
$GNRMC,173845.50,A,4816.47892,N,01139.89032,E,0.07,,080522,,,A,V*26
$GNGNS,173845.50,4816.47892,N,01139.89032,E,AAAN,24,0.54,478.6,46.2,,,V*1F
$GNGSA,A,3,14,21,01,03,08,22,32,17,27,10,,,0.91,0.54,0.73,1*03
$GNGSA,A,3,66,81,65,88,82,67,73,,,,,,0.91,0.54,0.73,2*0A
$GNGSA,A,3,15,34,05,03,21,27,09,,,,,,0.91,0.54,0.73,3*04
$GNVTG,,T,,M,0.068,N,0.126,K,A*36
$SMGPS,0.0 m,+0.01 m/s,7.40 VRx,0.000 km,7 m,83.5 °,1:-- (  0.0 km/h),472.4 m*AC
$SMGPS2,-0.30 X,-0.06 Y,+0.90 Z,4 ENL,0 us,0.0 kmh,967.45 hPa,967.32 hPa,-0.00 m/s*01
$GNRMC,173845.60,A,4816.47894,N,01139.89032,E,0.08,,080522,,,A,V*2C
$GNGNS,173845.60,4816.47894,N,01139.89032,E,AAAN,24,0.54,478.6,46.2,,,V*1A
$GNGSA,A,3,14,21,01,03,08,22,32,17,27,10,,,0.91,0.54,0.73,1*03
$GNGSA,A,3,66,81,65,88,82,67,73,,,,,,0.91,0.54,0.73,2*0A
$GNGSA,A,3,15,34,05,03,21,27,09,,,,,,0.91,0.54,0.73,3*04
$GNVTG,,T,,M,0.076,N,0.141,K,A*38
$SMGPS,-0.0 m,+0.00 m/s,7.35 VRx,0.000 km,8 m,83.6 °,1:-- (  0.0 km/h),472.3 m*89
$SMGPS2,-0.30 X,-0.09 Y,+0.95 Z,3 ENL,0 us,0.0 kmh,967.46 hPa,967.32 hPa,-0.00 m/s*0F
$GNRMC,173845.70,A,4816.47895,N,01139.89033,E,0.11,,080522,,,A,V*25
$GNGNS,173845.70,4816.47895,N,01139.89033,E,AAAN,24,0.54,478.6,46.2,,,V*1B
$GNGSA,A,3,14,21,01,03,08,22,32,17,27,10,,,0.91,0.54,0.73,1*03
$GNGSA,A,3,66,81,65,88,82,67,73,,,,,,0.91,0.54,0.73,2*0A
$GNGSA,A,3,15,34,05,03,21,27,09,,,,,,0.91,0.54,0.73,3*04
$GNVTG,,T,,M,0.114,N,0.210,K,A*3A
$SMGPS,-0.0 m,+0.00 m/s,7.38 VRx,0.000 km,8 m,83.6 °,1:-- (  0.0 km/h),472.4 m*83
$SMGPS2,-0.31 X,-0.13 Y,+0.90 Z,2 ENL,0 us,0.0 kmh,967.46 hPa,967.32 hPa,-0.00 m/s*01
$GNRMC,173845.80,A,4816.47895,N,01139.89034,E,0.18,,080522,,,A,V*24
$GNGNS,173845.80,4816.47895,N,01139.89034,E,AAAN,24,0.54,478.6,46.2,,,V*13
$GNGSA,A,3,14,21,01,03,08,22,32,17,27,10,,,0.91,0.54,0.73,1*03
$GNGSA,A,3,66,81,65,88,82,67,73,,,,,,0.91,0.54,0.73,2*0A
$GNGSA,A,3,15,34,05,03,21,27,09,,,,,,0.91,0.54,0.73,3*04
$GNVTG,,T,,M,0.181,N,0.336,K,A*33
$SMGPS,0.0 m,+0.00 m/s,7.37 VRx,0.000 km,8 m,83.6 °,1:-- (  0.0 km/h),472.4 m*A1
$SMGPS2,-0.32 X,-0.13 Y,+0.89 Z,2 ENL,0 us,0.0 kmh,967.46 hPa,967.32 hPa,-0.00 m/s*0A
$GNRMC,173845.90,A,4816.47895,N,01139.89034,E,0.09,,080522,,,A,V*25
$GNGNS,173845.90,4816.47895,N,01139.89034,E,AAAN,24,0.54,478.6,46.2,,,V*12
$GNGSA,A,3,14,21,01,03,08,22,32,17,27,10,,,0.91,0.54,0.73,1*03
$GNGSA,A,3,66,81,65,88,82,67,73,,,,,,0.91,0.54,0.73,2*0A
$GNGSA,A,3,15,34,05,03,21,27,09,,,,,,0.91,0.54,0.73,3*04
$GNVTG,,T,,M,0.088,N,0.162,K,A*38
$SMGPS,0.0 m,-0.00 m/s,7.38 VRx,0.000 km,8 m,83.6 °,1:-- (  0.0 km/h),472.4 m*A8
$SMGPS2,-0.32 X,-0.16 Y,+0.91 Z,2 ENL,0 us,0.0 kmh,967.46 hPa,967.33 hPa,-0.00 m/s*07
$GNRMC,173846.00,A,4816.47895,N,01139.89035,E,0.14,,080522,,,A,V*22
$GNGNS,173846.00,4816.47895,N,01139.89035,E,AAAN,24,0.54,478.6,46.2,,,V*19
$GNGSA,A,3,14,21,01,03,08,22,32,17,27,10,,,0.91,0.54,0.73,1*03
$GNGSA,A,3,66,81,65,88,82,67,73,,,,,,0.91,0.54,0.73,2*0A
$GNGSA,A,3,15,34,05,03,21,27,09,,,,,,0.91,0.54,0.73,3*04
$GNVTG,,T,,M,0.143,N,0.265,K,A*3A
$SMGPS,0.0 m,-0.00 m/s,7.36 VRx,0.000 km,8 m,83.6 °,1:-- (  0.0 km/h),472.5 m*A7
$SMGPS2,-0.30 X,-0.14 Y,+0.95 Z,24 ENL,0 us,0.0 kmh,967.46 hPa,967.32 hPa,-0.01 m/s*37
$GNRMC,173846.10,A,4816.47895,N,01139.89036,E,0.19,,080522,,,A,V*2D
$GNGNS,173846.10,4816.47895,N,01139.89036,E,AAAN,24,0.54,478.6,46.2,,,V*1B
$GNGSA,A,3,14,21,01,03,08,22,32,17,27,10,,,0.91,0.54,0.73,1*03
$GNGSA,A,3,66,81,65,88,82,67,73,,,,,,0.91,0.54,0.73,2*0A
$GNGSA,A,3,15,34,05,03,21,27,09,,,,,,0.91,0.54,0.73,3*04
$GNVTG,,T,,M,0.191,N,0.354,K,A*36
$SMGPS,0.0 m,-0.00 m/s,7.39 VRx,0.000 km,8 m,83.6 °,1:-- (  0.0 km/h),472.5 m*A8
$SMGPS2,-0.32 X,-0.07 Y,+0.91 Z,37 ENL,0 us,0.0 kmh,967.46 hPa,967.32 hPa,-0.00 m/s*30
$GNRMC,173846.20,A,4816.47895,N,01139.89036,E,0.21,,080522,,,A,V*25
$GNGNS,173846.20,4816.47895,N,01139.89036,E,AAAN,24,0.54,478.6,46.2,,,V*18
$GNGSA,A,3,14,21,01,03,08,22,32,17,27,10,,,0.91,0.54,0.73,1*03
$GNGSA,A,3,66,81,65,88,82,67,73,,,,,,0.91,0.54,0.73,2*0A
$GNGSA,A,3,15,34,05,03,21,27,09,,,,,,0.91,0.54,0.73,3*04
$GNVTG,,T,,M,0.211,N,0.390,K,A*35
$SMGPS,-0.0 m,-0.01 m/s,7.37 VRx,0.000 km,8 m,83.6 °,1:-- (  0.0 km/h),472.5 m*8A
$SMGPS2,-0.34 X,-0.07 Y,+0.89 Z,7 ENL,0 us,0.0 kmh,967.46 hPa,967.33 hPa,+0.00 m/s*0B
$GNRMC,173846.30,A,4816.47895,N,01139.89037,E,0.10,,080522,,,A,V*27
$GNGNS,173846.30,4816.47895,N,01139.89037,E,AAAN,24,0.54,478.6,46.2,,,V*18
$GNGSA,A,3,14,21,01,03,08,22,32,17,27,10,,,0.91,0.54,0.73,1*03
$GNGSA,A,3,66,81,65,88,82,67,73,,,,,,0.91,0.54,0.73,2*0A
$GNGSA,A,3,15,34,05,03,21,27,09,,,,,,0.91,0.54,0.73,3*04
$GNVTG,,T,,M,0.096,N,0.179,K,A*3D
$SMGPS,-0.0 m,-0.01 m/s,7.39 VRx,0.000 km,8 m,83.6 °,1:-- (  0.0 km/h),472.6 m*87
$SMGPS2,-0.38 X,-0.10 Y,+0.91 Z,6 ENL,0 us,0.0 kmh,967.46 hPa,967.32 hPa,+0.00 m/s*08
$GNRMC,173846.40,A,4816.47896,N,01139.89037,E,0.26,,080522,,,A,V*26
$GNGNS,173846.40,4816.47896,N,01139.89037,E,AAAN,24,0.54,478.6,46.2,,,V*1C
$GNGSA,A,3,14,21,01,03,08,22,32,17,27,10,,,0.91,0.54,0.73,1*03
$GNGSA,A,3,66,81,65,88,82,67,73,,,,,,0.91,0.54,0.73,2*0A
$GNGSA,A,3,15,34,05,03,21,27,09,,,,,,0.91,0.54,0.73,3*04
$GNVTG,,T,,M,0.258,N,0.479,K,A*38
$SMGPS,0.0 m,-0.01 m/s,7.37 VRx,0.000 km,8 m,83.6 °,1:-- (  0.0 km/h),472.6 m*A4
$SMGPS2,-0.25 X,-0.03 Y,+0.89 Z,5 ENL,0 us,0.0 kmh,967.46 hPa,967.32 hPa,+0.01 m/s*0D
$GNRMC,173846.50,A,4816.47897,N,01139.89037,E,0.16,,080522,,,A,V*25
$GNGNS,173846.50,4816.47897,N,01139.89037,E,AAAN,24,0.54,478.6,46.2,,,V*1C
$GNGSA,A,3,14,21,01,03,08,22,32,17,27,10,,,0.91,0.54,0.73,1*03
$GNGSA,A,3,66,81,65,88,82,67,73,,,,,,0.91,0.54,0.73,2*0A
$GNGSA,A,3,15,34,05,03,21,27,09,,,,,,0.91,0.54,0.73,3*04
$GNVTG,,T,,M,0.161,N,0.297,K,A*37
$SMGPS,-0.0 m,-0.01 m/s,7.39 VRx,0.000 km,8 m,83.6 °,1:-- (  0.0 km/h),472.5 m*84
$SMGPS2,-0.36 X,-0.07 Y,+0.91 Z,96 ENL,0 us,0.0 kmh,967.46 hPa,967.33 hPa,+0.01 m/s*39
$GNRMC,173846.60,A,4816.47898,N,01139.89037,E,0.25,,080522,,,A,V*29
$GNGNS,173846.60,4816.47898,N,01139.89037,E,AAAN,24,0.54,478.6,46.2,,,V*10
$GNGSA,A,3,14,21,01,03,08,22,32,17,27,10,,,0.91,0.54,0.73,1*03
$GNGSA,A,3,66,81,65,88,82,67,73,,,,,,0.91,0.54,0.73,2*0A
$GNGSA,A,3,15,34,05,03,21,27,09,,,,,,0.91,0.54,0.73,3*04
$GNVTG,,T,,M,0.252,N,0.466,K,A*3C
$SMGPS,0.0 m,-0.01 m/s,7.37 VRx,0.000 km,8 m,83.6 °,1:-- (  0.0 km/h),472.5 m*A7
$SMGPS2,-0.32 X,-0.09 Y,+0.91 Z,3 ENL,0 us,0.0 kmh,967.45 hPa,967.32 hPa,+0.01 m/s*0D
$GNRMC,173846.70,A,4816.47899,N,01139.89038,E,0.28,,080522,,,A,V*2B
$GNGNS,173846.70,4816.47899,N,01139.89038,E,AAAN,24,0.54,478.6,46.2,,,V*1F
$GNGSA,A,3,14,21,01,03,08,22,32,17,27,10,,,0.91,0.54,0.73,1*03
$GNGSA,A,3,66,81,65,88,82,67,73,,,,,,0.91,0.54,0.73,2*0A
$GNGSA,A,3,15,34,05,03,21,27,09,,,,,,0.91,0.54,0.73,3*04
$GNVTG,,T,,M,0.279,N,0.517,K,A*32
$SMGPS,-0.0 m,-0.01 m/s,7.40 VRx,0.000 km,8 m,83.6 °,1:-- (  0.0 km/h),472.5 m*8A
$SMGPS2,-0.34 X,-0.06 Y,+0.91 Z,3 ENL,0 us,0.0 kmh,967.46 hPa,967.32 hPa,+0.01 m/s*07
$GNRMC,173846.80,A,4816.47898,N,01139.89036,E,0.62,,080522,,,A,V*25
$GNGNS,173846.80,4816.47898,N,01139.89036,E,AAAN,24,0.54,478.6,46.2,,,V*1F
$GNGSA,A,3,14,21,01,03,08,22,32,17,27,10,,,0.91,0.54,0.73,1*03
$GNGSA,A,3,66,81,65,88,82,67,73,,,,,,0.91,0.54,0.73,2*0A
$GNGSA,A,3,15,34,05,03,21,27,09,,,,,,0.91,0.54,0.73,3*04
$GNVTG,,T,,M,0.619,N,1.146,K,A*31
$SMGPS,-0.0 m,-0.01 m/s,7.37 VRx,0.000 km,8 m,83.6 °,1:-- (  0.0 km/h),472.5 m*8A
$SMGPS2,-0.36 X,-0.07 Y,+0.89 Z,1 ENL,0 us,0.0 kmh,967.46 hPa,967.32 hPa,+0.01 m/s*0F
$GNRMC,173846.90,A,4816.47898,N,01139.89035,E,0.19,,080522,,,A,V*2B
$GNGNS,173846.90,4816.47898,N,01139.89035,E,AAAN,24,0.54,478.6,46.2,,,V*1D
$GNGSA,A,3,14,21,01,03,08,22,32,17,27,10,,,0.91,0.54,0.73,1*03
$GNGSA,A,3,66,81,65,88,82,67,73,,,,,,0.91,0.54,0.73,2*0A
$GNGSA,A,3,15,34,05,03,21,27,09,,,,,,0.91,0.54,0.73,3*04
$GNVTG,,T,,M,0.185,N,0.343,K,A*35
$SMGPS,0.0 m,-0.00 m/s,7.41 VRx,0.000 km,8 m,83.6 °,1:-- (  0.0 km/h),472.5 m*A7
$SMGPS2,-0.36 X,-0.09 Y,+0.87 Z,1 ENL,0 us,0.0 kmh,967.45 hPa,967.32 hPa,+0.01 m/s*0C
$GNRMC,173847.00,A,4816.47900,N,01139.89036,E,0.35,,080522,,,A,V*2E
$GNGNS,173847.00,4816.47900,N,01139.89036,E,AAAN,24,0.54,478.7,46.2,,,V*17
$GNGSA,A,3,14,21,01,03,08,22,32,17,27,10,,,0.91,0.54,0.73,1*03
$GNGSA,A,3,66,81,65,88,82,67,73,,,,,,0.91,0.54,0.73,2*0A
$GNGSA,A,3,15,34,05,03,21,27,09,,,,,,0.91,0.54,0.73,3*04
$GNVTG,,T,,M,0.352,N,0.652,K,A*38
$SMGPS,0.1 m,+0.01 m/s,7.37 VRx,0.000 km,8 m,83.6 °,1:-- (  0.0 km/h),472.5 m*A0
$SMGPS2,-0.31 X,-0.05 Y,+0.87 Z,7 ENL,0 us,0.0 kmh,967.45 hPa,967.32 hPa,+0.01 m/s*01
$GNRMC,173847.10,A,4816.47901,N,01139.89037,E,0.39,,080522,,,A,V*23
$GNGNS,173847.10,4816.47901,N,01139.89037,E,AAAN,24,0.54,478.6,46.2,,,V*17
$GNGSA,A,3,14,21,01,03,08,22,32,17,27,10,,,0.91,0.54,0.73,1*03
$GNGSA,A,3,66,81,65,88,82,67,73,,,,,,0.91,0.54,0.73,2*0A
$GNGSA,A,3,15,34,05,03,21,27,09,,,,,,0.91,0.54,0.73,3*04
$GNVTG,,T,,M,0.390,N,0.722,K,A*30
$SMGPS,-0.0 m,+0.01 m/s,7.40 VRx,0.000 km,8 m,83.6 °,1:-- (  0.0 km/h),472.5 m*8C
$SMGPS2,-0.46 X,-0.11 Y,+0.90 Z,72 ENL,0 us,0.0 kmh,967.46 hPa,967.32 hPa,+0.01 m/s*33
$GNRMC,173847.20,A,4816.47902,N,01139.89039,E,0.23,,080522,,,A,V*26
$GNGNS,173847.20,4816.47902,N,01139.89039,E,AAAN,24,0.54,478.7,46.2,,,V*18
$GNGSA,A,3,14,21,01,03,08,22,32,17,27,10,,,0.91,0.54,0.73,1*03
$GNGSA,A,3,66,81,65,88,82,67,73,,,,,,0.91,0.54,0.73,2*0A
$GNGSA,A,3,15,34,05,03,21,27,09,,,,,,0.91,0.54,0.73,3*04
$GNVTG,,T,,M,0.229,N,0.423,K,A*31
$SMGPS,0.1 m,+0.02 m/s,7.39 VRx,0.000 km,8 m,83.6 °,1:-- (  0.0 km/h),472.4 m*AC
$SMGPS2,-0.35 X,+0.00 Y,+0.92 Z,11 ENL,0 us,0.0 kmh,967.45 hPa,967.33 hPa,+0.01 m/s*34
$GNRMC,173847.30,A,4816.47903,N,01139.89039,E,0.09,,080522,,,A,V*2E
$GNGNS,173847.30,4816.47903,N,01139.89039,E,AAAN,24,0.54,478.6,46.2,,,V*19
$GNGSA,A,3,14,21,01,03,08,22,32,17,27,10,,,0.91,0.54,0.73,1*03
$GNGSA,A,3,66,81,65,88,82,67,73,,,,,,0.91,0.54,0.73,2*0A
$GNGSA,A,3,15,34,05,03,21,27,09,,,,,,0.91,0.54,0.73,3*04
$GNVTG,,T,,M,0.077,N,0.143,K,A*3B
$SMGPS,0.0 m,+0.02 m/s,7.40 VRx,0.000 km,8 m,83.6 °,1:-- (  0.0 km/h),472.4 m*A3
$SMGPS2,-0.40 X,+0.04 Y,+0.79 Z,2 ENL,0 us,0.0 kmh,967.45 hPa,967.33 hPa,+0.00 m/s*04
$GNRMC,173847.40,A,4816.47904,N,01139.89038,E,0.56,,080522,,,A,V*25
$GNGNS,173847.40,4816.47904,N,01139.89038,E,AAAN,24,0.54,478.6,46.2,,,V*18
$GNGSA,A,3,14,21,01,03,08,22,32,17,27,10,,,0.91,0.54,0.73,1*03
$GNGSA,A,3,66,81,65,88,82,67,73,,,,,,0.91,0.54,0.73,2*0A
$GNGSA,A,3,15,34,05,03,21,27,09,,,,,,0.91,0.54,0.73,3*04
$GNVTG,,T,,M,0.560,N,1.037,K,A*3B
$SMGPS,-0.0 m,+0.03 m/s,7.39 VRx,0.000 km,8 m,83.6 °,1:-- (  0.0 km/h),472.4 m*81
$SMGPS2,-0.42 X,-0.04 Y,+0.87 Z,1 ENL,0 us,0.0 kmh,967.46 hPa,967.32 hPa,+0.01 m/s*01
$GNRMC,173847.50,A,4816.47904,N,01139.89036,E,0.29,,080522,,,A,V*22
$GNGNS,173847.50,4816.47904,N,01139.89036,E,AAAN,24,0.54,478.6,46.2,,,V*17
$GNGSA,A,3,14,21,01,03,08,22,32,17,27,10,,,0.91,0.54,0.73,1*03
$GNGSA,A,3,66,81,65,88,82,67,73,,,,,,0.91,0.54,0.73,2*0A
$GNGSA,A,3,15,34,05,03,21,27,09,,,,,,0.91,0.54,0.73,3*04
$GNVTG,,T,,M,0.288,N,0.533,K,A*3A
$SMGPS,-0.0 m,+0.02 m/s,7.40 VRx,0.000 km,8 m,83.6 °,1:-- (  0.0 km/h),472.4 m*8E
$SMGPS2,-0.29 X,-0.06 Y,+0.86 Z,2 ENL,0 us,0.0 kmh,967.46 hPa,967.32 hPa,+0.00 m/s*0D
$GNRMC,173847.60,A,4816.47904,N,01139.89034,E,0.31,,080522,,,A,V*2A
$GNGNS,173847.60,4816.47904,N,01139.89034,E,AAAN,24,0.54,478.6,46.2,,,V*16
$GNGSA,A,3,14,21,01,03,08,22,32,17,27,10,,,0.91,0.54,0.73,1*03
$GNGSA,A,3,66,81,65,88,82,67,73,,,,,,0.91,0.54,0.73,2*0A
$GNGSA,A,3,15,34,05,03,21,27,09,,,,,,0.91,0.54,0.73,3*04
$GNVTG,,T,,M,0.305,N,0.565,K,A*3D
$SMGPS,0.0 m,+0.02 m/s,7.39 VRx,0.000 km,8 m,83.6 °,1:-- (  0.0 km/h),472.4 m*AD
$SMGPS2,-0.34 X,-0.10 Y,+0.94 Z,1 ENL,0 us,0.0 kmh,967.46 hPa,967.33 hPa,+0.00 m/s*07
$GNRMC,173847.70,A,4816.47904,N,01139.89030,E,0.36,,080522,,,A,V*28
$GNGNS,173847.70,4816.47904,N,01139.89030,E,AAAN,24,0.54,478.6,46.2,,,V*13
$GNGSA,A,3,14,21,01,03,08,22,32,17,27,10,,,0.91,0.54,0.73,1*03
$GNGSA,A,3,66,81,65,88,82,67,73,,,,,,0.91,0.54,0.73,2*0A
$GNGSA,A,3,15,34,05,03,21,27,09,,,,,,0.91,0.54,0.73,3*04
$GNVTG,,T,,M,0.357,N,0.662,K,A*3E
$SMGPS,-0.0 m,+0.01 m/s,7.40 VRx,0.000 km,8 m,83.6 °,1:-- (  0.0 km/h),472.3 m*8A
$SMGPS2,-0.41 X,-0.04 Y,+0.92 Z,19 ENL,0 us,0.0 kmh,967.46 hPa,967.32 hPa,-0.00 m/s*38
$GNRMC,173847.80,A,4816.47904,N,01139.89026,E,0.90,245.80,080522,,,A,V*39
$GNGNS,173847.80,4816.47904,N,01139.89026,E,AAAN,24,0.54,478.6,46.2,,,V*1B
$GNGSA,A,3,14,21,01,03,08,22,32,17,27,10,,,0.91,0.54,0.73,1*03
$GNGSA,A,3,66,81,65,88,82,67,73,,,,,,0.91,0.54,0.73,2*0A
$GNGSA,A,3,15,34,05,03,21,27,09,,,,,,0.91,0.54,0.73,3*04
$GNVTG,245.80,T,,M,0.899,N,1.665,K,A*24
$SMGPS,-0.0 m,+0.00 m/s,7.38 VRx,0.000 km,7 m,83.5 °,1:-- (  0.0 km/h),472.3 m*88
$SMGPS2,-0.32 X,-0.00 Y,+1.00 Z,2 ENL,0 us,0.0 kmh,967.46 hPa,967.33 hPa,-0.01 m/s*08
$GNRMC,173847.90,A,4816.47904,N,01139.89018,E,0.92,246.30,080522,,,A,V*3F
$GNGNS,173847.90,4816.47904,N,01139.89018,E,AAAN,24,0.54,478.6,46.2,,,V*17
$GNGSA,A,3,14,21,01,03,08,22,32,17,27,10,,,0.91,0.54,0.73,1*03
$GNGSA,A,3,66,81,65,88,82,67,73,,,,,,0.91,0.54,0.73,2*0A
$GNGSA,A,3,15,34,05,03,21,27,09,,,,,,0.91,0.54,0.73,3*04
$GNVTG,246.30,T,,M,0.918,N,1.700,K,A*26
$SMGPS,0.0 m,-0.00 m/s,7.42 VRx,0.000 km,7 m,83.5 °,1:-- (  0.0 km/h),472.3 m*AE
$SMGPS2,-0.29 X,+0.07 Y,+0.88 Z,5 ENL,0 us,0.0 kmh,967.46 hPa,967.33 hPa,-0.01 m/s*05
$GNRMC,173848.00,A,4816.47903,N,01139.89010,E,1.30,230.77,080522,,,A,V*3D
$GNGNS,173848.00,4816.47903,N,01139.89010,E,AAAN,24,0.54,478.6,46.2,,,V*1E
$GNGSA,A,3,14,21,01,03,08,22,32,17,27,10,,,0.91,0.54,0.73,1*03
$GNGSA,A,3,66,81,65,88,82,67,73,,,,,,0.91,0.54,0.73,2*0A
$GNGSA,A,3,15,34,05,03,21,27,09,,,,,,0.91,0.54,0.73,3*04
$GNVTG,230.77,T,,M,1.302,N,2.411,K,A*24
$SMGPS,-0.0 m,-0.02 m/s,7.41 VRx,0.000 km,7 m,83.3 °,1:-- (  0.0 km/h),472.3 m*84
$SMGPS2,-0.24 X,+0.10 Y,+1.03 Z,3 ENL,0 us,0.0 kmh,967.46 hPa,967.32 hPa,-0.02 m/s*08
$GNRMC,173848.10,A,4816.47901,N,01139.89005,E,1.05,235.54,080522,,,A,V*38
$GNGNS,173848.10,4816.47901,N,01139.89005,E,AAAN,24,0.54,478.6,46.2,,,V*19
$GNGSA,A,3,14,21,01,03,08,22,32,17,27,10,,,0.91,0.54,0.73,1*03
$GNGSA,A,3,66,81,65,88,82,67,73,,,,,,0.91,0.54,0.73,2*0A
$GNGSA,A,3,15,34,05,03,21,27,09,,,,,,0.91,0.54,0.73,3*04
$GNVTG,235.54,T,,M,1.045,N,1.936,K,A*2B
$SMGPS,0.0 m,-0.02 m/s,7.41 VRx,0.000 km,7 m,83.3 °,1:-- (  0.0 km/h),472.2 m*A8
$SMGPS2,-0.19 X,+0.13 Y,+1.08 Z,1 ENL,0 us,0.0 kmh,967.46 hPa,967.33 hPa,-0.02 m/s*0D
$GNRMC,173848.20,A,4816.47901,N,01139.89002,E,0.97,230.08,080522,,,A,V*3A
$GNGNS,173848.20,4816.47901,N,01139.89002,E,AAAN,24,0.54,478.6,46.2,,,V*1D
$GNGSA,A,3,14,21,01,03,08,22,32,17,27,10,,,0.91,0.54,0.73,1*03
$GNGSA,A,3,66,81,65,88,82,67,73,,,,,,0.91,0.54,0.73,2*0A
$GNGSA,A,3,15,34,05,03,21,27,09,,,,,,0.91,0.54,0.73,3*04
$GNVTG,230.08,T,,M,0.967,N,1.791,K,A*2C
$SMGPS,0.0 m,-0.01 m/s,7.40 VRx,0.000 km,7 m,83.2 °,1:-- (  0.0 km/h),472.3 m*AA
$SMGPS2,-0.20 X,+0.17 Y,+1.02 Z,5 ENL,0 us,0.0 kmh,967.46 hPa,967.32 hPa,-0.02 m/s*0C
$GNRMC,173848.30,A,4816.47899,N,01139.88997,E,1.23,220.94,080522,,,A,V*35
$GNGNS,173848.30,4816.47899,N,01139.88997,E,AAAN,24,0.54,478.6,46.2,,,V*18
$GNGSA,A,3,14,21,01,03,08,22,32,17,27,10,,,0.91,0.54,0.73,1*03
$GNGSA,A,3,66,81,65,88,82,67,73,,,,,,0.91,0.54,0.73,2*0A
$GNGSA,A,3,15,34,05,03,21,27,09,,,,,,0.91,0.54,0.73,3*04
$GNVTG,220.94,T,,M,1.230,N,2.277,K,A*2E
$SMGPS,0.0 m,-0.01 m/s,7.43 VRx,0.000 km,7 m,83.2 °,1:-- (  0.0 km/h),472.3 m*A9
$SMGPS2,-0.15 X,+0.13 Y,+0.91 Z,2 ENL,0 us,0.0 kmh,967.45 hPa,967.32 hPa,-0.01 m/s*02
$GNRMC,173848.40,A,4816.47897,N,01139.88992,E,0.92,215.99,080522,,,A,V*39
$GNGNS,173848.40,4816.47897,N,01139.88992,E,AAAN,24,0.54,478.6,46.2,,,V*14
$GNGSA,A,3,14,21,01,03,08,22,32,17,27,10,,,0.91,0.54,0.73,1*03
$GNGSA,A,3,66,81,65,88,82,67,73,,,,,,0.91,0.54,0.73,2*0A
$GNGSA,A,3,15,34,05,03,21,27,09,,,,,,0.91,0.54,0.73,3*04
$GNVTG,215.99,T,,M,0.922,N,1.707,K,A*2D
$SMGPS,0.0 m,-0.00 m/s,7.39 VRx,0.000 km,7 m,83.2 °,1:-- (  0.0 km/h),472.3 m*A5
$SMGPS2,-0.16 X,+0.25 Y,+0.99 Z,3 ENL,0 us,0.0 kmh,967.45 hPa,967.32 hPa,-0.00 m/s*0C
$GNRMC,173848.50,A,4816.47895,N,01139.88992,E,1.01,206.86,080522,,,A,V*3D
$GNGNS,173848.50,4816.47895,N,01139.88992,E,AAAN,24,0.54,478.7,46.2,,,V*16
$GNGSA,A,3,14,21,01,03,08,22,32,17,27,10,,,0.91,0.54,0.73,1*03
$GNGSA,A,3,66,81,65,88,82,67,73,,,,,,0.91,0.54,0.73,2*0A
$GNGSA,A,3,15,34,05,03,21,27,09,,,,,,0.91,0.54,0.73,3*04
$GNVTG,206.86,T,,M,1.007,N,1.864,K,A*24
$SMGPS,0.1 m,+0.01 m/s,7.41 VRx,0.000 km,7 m,83.0 °,1:-- (  0.0 km/h),472.3 m*AE
$SMGPS2,-0.20 X,+0.31 Y,+0.99 Z,1 ENL,0 us,0.0 kmh,967.45 hPa,967.32 hPa,+0.00 m/s*08
$GNRMC,173848.60,A,4816.47894,N,01139.88989,E,1.47,218.63,080522,,,A,V*33
$GNGNS,173848.60,4816.47894,N,01139.88989,E,AAAN,24,0.54,478.7,46.2,,,V*1E
$GNGSA,A,3,14,21,01,03,08,22,32,17,27,10,,,0.91,0.54,0.73,1*03
$GNGSA,A,3,66,81,65,88,82,67,73,,,,,,0.91,0.54,0.73,2*0A
$GNGSA,A,3,15,34,05,03,21,27,09,,,,,,0.91,0.54,0.73,3*04
$GNVTG,218.63,T,,M,1.466,N,2.715,K,A*29
$SMGPS,0.1 m,+0.03 m/s,7.39 VRx,0.000 km,7 m,83.0 °,1:-- (  0.0 km/h),472.3 m*A3
$SMGPS2,-0.09 X,+0.17 Y,+0.85 Z,1 ENL,0 us,0.0 kmh,967.44 hPa,967.31 hPa,+0.02 m/s*0A
$GNRMC,173848.70,A,4816.47892,N,01139.88983,E,1.74,226.23,080522,,,A,V*37
$GNGNS,173848.70,4816.47892,N,01139.88983,E,AAAN,24,0.54,478.7,46.2,,,V*13
$GNGSA,A,3,14,21,01,03,08,22,32,17,27,10,,,0.91,0.54,0.73,1*03
$GNGSA,A,3,66,81,65,88,82,67,73,,,,,,0.91,0.54,0.73,2*0A
$GNGSA,A,3,15,34,05,03,21,27,09,,,,,,0.91,0.54,0.73,3*04
$GNVTG,226.23,T,,M,1.741,N,3.225,K,A*21
$SMGPS,0.1 m,+0.05 m/s,7.39 VRx,0.000 km,7 m,83.0 °,1:-- (  0.0 km/h),472.4 m*A2
$SMGPS2,+0.17 X,+0.24 Y,+0.90 Z,1 ENL,0 us,0.0 kmh,967.44 hPa,967.30 hPa,+0.04 m/s*00
$GNRMC,173848.80,A,4816.47889,N,01139.88979,E,1.63,218.35,080522,,,A,V*3B
$GNGNS,173848.80,4816.47889,N,01139.88979,E,AAAN,24,0.54,478.7,46.2,,,V*13
$GNGSA,A,3,14,21,01,03,08,22,32,17,27,10,,,0.91,0.54,0.73,1*03
$GNGSA,A,3,66,81,65,88,82,67,73,,,,,,0.91,0.54,0.73,2*0A
$GNGSA,A,3,15,34,05,03,21,27,09,,,,,,0.91,0.54,0.73,3*04
$GNVTG,218.35,T,,M,1.624,N,3.007,K,A*2B
$SMGPS,0.1 m,+0.06 m/s,7.38 VRx,0.000 km,7 m,82.9 °,1:-- (  0.0 km/h),472.4 m*A8
$SMGPS2,+0.22 X,+0.32 Y,+0.76 Z,1 ENL,0 us,0.0 kmh,967.44 hPa,967.30 hPa,+0.06 m/s*0B
$GNRMC,173848.90,A,4816.47884,N,01139.88976,E,1.95,209.72,080522,,,A,V*32
$GNGNS,173848.90,4816.47884,N,01139.88976,E,AAAN,24,0.54,478.6,46.2,,,V*11
$GNGSA,A,3,14,21,01,03,08,22,32,17,27,10,,,0.91,0.54,0.73,1*03
$GNGSA,A,3,66,81,65,88,82,67,73,,,,,,0.91,0.54,0.73,2*0A
$GNGSA,A,3,15,34,05,03,21,27,09,,,,,,0.91,0.54,0.73,3*04
$GNVTG,209.72,T,,M,1.943,N,3.599,K,A*24
$SMGPS,0.0 m,+0.07 m/s,7.39 VRx,0.000 km,7 m,82.9 °,1:-- (  0.0 km/h),472.5 m*A8
$SMGPS2,+0.04 X,+0.44 Y,+0.64 Z,1 ENL,0 us,0.0 kmh,967.44 hPa,967.30 hPa,+0.08 m/s*03
$GNRMC,173849.00,A,4816.47880,N,01139.88974,E,1.40,205.18,080522,,,A,V*34
$GNGNS,173849.00,4816.47880,N,01139.88974,E,AAAN,24,0.54,478.6,46.2,,,V*1F
$GNGSA,A,3,14,21,01,03,08,22,32,17,27,10,,,0.91,0.54,0.73,1*03
$GNGSA,A,3,66,81,65,88,82,67,73,,,,,,0.91,0.54,0.73,2*0A
$GNGSA,A,3,15,34,05,03,21,27,09,,,,,,0.91,0.54,0.73,3*04
$GNVTG,205.18,T,,M,1.387,N,2.569,K,A*28
$SMGPS,0.0 m,+0.08 m/s,7.37 VRx,0.000 km,7 m,82.9 °,1:-- (  0.0 km/h),472.5 m*A9
$SMGPS2,-0.12 X,+0.64 Y,+0.78 Z,1 ENL,0 us,0.0 kmh,967.44 hPa,967.31 hPa,+0.08 m/s*0C
$GNRMC,173849.10,A,4816.47876,N,01139.88974,E,0.85,,080522,,,A,V*24
$GNGNS,173849.10,4816.47876,N,01139.88974,E,AAAN,24,0.54,478.6,46.2,,,V*17
$GNGSA,A,3,14,21,01,03,08,22,32,17,27,10,,,0.91,0.54,0.73,1*03
$GNGSA,A,3,66,81,65,88,82,67,73,,,,,,0.91,0.54,0.73,2*0A
$GNGSA,A,3,15,34,05,03,21,27,09,,,,,,0.91,0.54,0.73,3*04
$GNVTG,,T,,M,0.833,N,1.542,K,A*37
$SMGPS,-0.0 m,+0.08 m/s,7.40 VRx,0.000 km,7 m,82.9 °,1:-- (  0.0 km/h),472.5 m*84
$SMGPS2,-0.14 X,+0.52 Y,+0.77 Z,1 ENL,0 us,0.0 kmh,967.45 hPa,967.31 hPa,+0.08 m/s*01
$GNRMC,173849.20,A,4816.47874,N,01139.88974,E,0.70,,080522,,,A,V*2F
$GNGNS,173849.20,4816.47874,N,01139.88974,E,AAAN,24,0.54,478.6,46.2,,,V*16
$GNGSA,A,3,14,21,01,03,08,22,32,17,27,10,,,0.91,0.54,0.73,1*03
$GNGSA,A,3,66,81,65,88,82,67,73,,,,,,0.91,0.54,0.73,2*0A
$GNGSA,A,3,15,34,05,03,21,27,09,,,,,,0.91,0.54,0.73,3*04
$GNVTG,,T,,M,0.679,N,1.258,K,A*3B
$SMGPS,0.0 m,+0.08 m/s,7.36 VRx,0.000 km,7 m,82.9 °,1:-- (  0.0 km/h),472.6 m*AB
$SMGPS2,-0.14 X,+0.45 Y,+0.88 Z,1 ENL,0 us,0.0 kmh,967.44 hPa,967.31 hPa,+0.09 m/s*07
$GNRMC,173849.30,A,4816.47872,N,01139.88976,E,0.37,,080522,,,A,V*29
$GNGNS,173849.30,4816.47872,N,01139.88976,E,AAAN,24,0.54,478.6,46.2,,,V*13
$GNGSA,A,3,14,21,01,03,08,22,32,17,27,10,,,0.91,0.54,0.73,1*03
$GNGSA,A,3,66,81,65,88,82,67,73,,,,,,0.91,0.54,0.73,2*0A
$GNGSA,A,3,15,34,05,03,21,27,09,,,,,,0.91,0.54,0.73,3*04
$GNVTG,,T,,M,0.337,N,0.624,K,A*3A
$SMGPS,-0.0 m,+0.07 m/s,7.42 VRx,0.000 km,7 m,90.0 °,1:-- (  0.0 km/h),472.6 m*80
$SMGPS2,-0.08 X,+0.45 Y,+0.90 Z,1 ENL,0 us,0.0 kmh,967.45 hPa,967.31 hPa,+0.09 m/s*02
$GNRMC,173849.40,A,4816.47871,N,01139.88977,E,0.36,,080522,,,A,V*2D
$GNGNS,173849.40,4816.47871,N,01139.88977,E,AAAN,24,0.54,478.6,46.2,,,V*16
$GNGSA,A,3,14,21,01,03,08,22,32,17,27,10,,,0.91,0.54,0.73,1*03
$GNGSA,A,3,66,81,65,88,82,67,73,,,,,,0.91,0.54,0.73,2*0A
$GNGSA,A,3,15,34,05,03,21,27,09,,,,,,0.91,0.54,0.73,3*04
$GNVTG,,T,,M,0.340,N,0.629,K,A*37
$SMGPS,0.0 m,+0.07 m/s,7.38 VRx,0.000 km,7 m,90.0 °,1:-- (  0.0 km/h),472.6 m*A0
$SMGPS2,-0.12 X,+0.45 Y,+0.88 Z,1 ENL,0 us,0.0 kmh,967.44 hPa,967.31 hPa,+0.08 m/s*00
$GNRMC,173849.50,A,4816.47870,N,01139.88980,E,0.29,,080522,,,A,V*2B
$GNGNS,173849.50,4816.47870,N,01139.88980,E,AAAN,24,0.54,478.6,46.2,,,V*1E
$GNGSA,A,3,14,21,01,03,08,22,32,17,27,10,,,0.91,0.54,0.73,1*03
$GNGSA,A,3,66,81,65,88,82,67,73,,,,,,0.91,0.54,0.73,2*0A
$GNGSA,A,3,15,34,05,03,21,27,09,,,,,,0.91,0.54,0.73,3*04
$GNVTG,,T,,M,0.271,N,0.501,K,A*3D
$SMGPS,-0.0 m,+0.06 m/s,7.41 VRx,0.000 km,7 m,90.0 °,1:-- (  0.0 km/h),472.6 m*82
$SMGPS2,-0.16 X,+0.37 Y,+0.86 Z,1 ENL,0 us,0.0 kmh,967.44 hPa,967.31 hPa,+0.05 m/s*02
$GNRMC,173849.60,A,4816.47870,N,01139.88981,E,0.18,,080522,,,A,V*2B
$GNGNS,173849.60,4816.47870,N,01139.88981,E,AAAN,24,0.54,478.6,46.2,,,V*1C
$GNGSA,A,3,14,21,01,03,08,22,32,17,27,10,,,0.91,0.54,0.73,1*03
$GNGSA,A,3,66,81,65,88,82,67,73,,,,,,0.91,0.54,0.73,2*0A
$GNGSA,A,3,15,34,05,03,21,27,09,,,,,,0.91,0.54,0.73,3*04
$GNVTG,,T,,M,0.146,N,0.270,K,A*3B
$SMGPS,-0.0 m,+0.05 m/s,7.40 VRx,0.000 km,7 m,90.0 °,1:-- (  0.0 km/h),472.6 m*80
$SMGPS2,-0.17 X,+0.38 Y,+0.86 Z,1 ENL,0 us,0.0 kmh,967.45 hPa,967.31 hPa,+0.04 m/s*0C
$GNRMC,173849.70,A,4816.47869,N,01139.88981,E,0.09,,080522,,,A,V*22
$GNGNS,173849.70,4816.47869,N,01139.88981,E,AAAN,24,0.54,478.6,46.2,,,V*15
$GNGSA,A,3,14,21,01,03,08,22,32,17,27,10,,,0.91,0.54,0.73,1*03
$GNGSA,A,3,66,81,65,88,82,67,73,,,,,,0.91,0.54,0.73,2*0A
$GNGSA,A,3,15,34,05,03,21,27,09,,,,,,0.91,0.54,0.73,3*04
$GNVTG,,T,,M,0.031,N,0.057,K,A*3D
$SMGPS,0.0 m,+0.04 m/s,7.41 VRx,0.000 km,7 m,90.0 °,1:-- (  0.0 km/h),472.6 m*AD
$SMGPS2,-0.14 X,+0.37 Y,+0.87 Z,1 ENL,0 us,0.0 kmh,967.44 hPa,967.31 hPa,+0.03 m/s*07
$GNRMC,173849.80,A,4816.47869,N,01139.88981,E,0.09,,080522,,,A,V*2D
$GNGNS,173849.80,4816.47869,N,01139.88981,E,AAAN,24,0.54,478.6,46.2,,,V*1A
$GNGSA,A,3,14,21,01,03,08,22,32,17,27,10,,,0.91,0.54,0.73,1*03
$GNGSA,A,3,66,81,65,88,82,67,73,,,,,,0.91,0.54,0.73,2*0A
$GNGSA,A,3,15,34,05,03,21,27,09,,,,,,0.91,0.54,0.73,3*04
$GNVTG,,T,,M,0.056,N,0.103,K,A*3C
$SMGPS,0.0 m,+0.04 m/s,7.39 VRx,0.000 km,7 m,90.0 °,1:-- (  0.0 km/h),472.6 m*A2
$SMGPS2,-0.17 X,+0.40 Y,+0.88 Z,1 ENL,0 us,0.0 kmh,967.44 hPa,967.31 hPa,+0.03 m/s*0B
$GNRMC,173849.90,A,4816.47868,N,01139.88981,E,0.12,,080522,,,A,V*27
$GNGNS,173849.90,4816.47868,N,01139.88981,E,AAAN,24,0.54,478.6,46.2,,,V*1A
$GNGSA,A,3,14,21,01,03,08,22,32,17,27,10,,,0.91,0.54,0.73,1*03
$GNGSA,A,3,66,81,65,88,82,67,73,,,,,,0.91,0.54,0.73,2*0A
$GNGSA,A,3,15,34,05,03,21,27,09,,,,,,0.91,0.54,0.73,3*04
$GNVTG,,T,,M,0.096,N,0.179,K,A*3D
$SMGPS,0.0 m,+0.03 m/s,7.40 VRx,0.000 km,7 m,90.0 °,1:-- (  0.0 km/h),472.6 m*AB
$SMGPS2,-0.14 X,+0.42 Y,+0.86 Z,2 ENL,0 us,0.0 kmh,967.44 hPa,967.31 hPa,+0.01 m/s*05
$GNRMC,173850.00,A,4816.47868,N,01139.88983,E,0.07,,080522,,,A,V*20
$GNGNS,173850.00,4816.47868,N,01139.88983,E,AAAN,24,0.54,478.6,46.2,,,V*19
$GNGSA,A,3,14,21,01,03,08,22,32,17,27,10,,,0.91,0.54,0.73,1*03
$GNGSA,A,3,66,81,65,88,82,67,73,,,,,,0.91,0.54,0.73,2*0A
$GNGSA,A,3,15,34,05,03,21,27,09,,,,,,0.91,0.54,0.73,3*04
$GNVTG,,T,,M,0.033,N,0.062,K,A*39
$SMGPS,-0.0 m,+0.03 m/s,7.39 VRx,0.000 km,7 m,90.0 °,1:-- (  0.0 km/h),472.6 m*88
$SMGPS2,-0.11 X,+0.42 Y,+0.87 Z,1 ENL,0 us,0.0 kmh,967.45 hPa,967.32 hPa,+0.01 m/s*00
$GNRMC,173850.10,A,4816.47867,N,01139.88979,E,0.10,,080522,,,A,V*2D
$GNGNS,173850.10,4816.47867,N,01139.88979,E,AAAN,24,0.54,478.6,46.2,,,V*12
$GNGSA,A,3,14,21,01,03,08,22,32,17,27,10,,,0.91,0.54,0.73,1*03
$GNGSA,A,3,66,81,65,88,82,67,73,,,,,,0.91,0.54,0.73,2*0A
$GNGSA,A,3,15,34,05,03,21,27,09,,,,,,0.91,0.54,0.73,3*04
$GNVTG,,T,,M,0.093,N,0.172,K,A*33
$SMGPS,-0.0 m,+0.02 m/s,7.40 VRx,0.000 km,7 m,90.0 °,1:-- (  0.0 km/h),472.6 m*87
$SMGPS2,-0.12 X,+0.44 Y,+0.87 Z,1 ENL,0 us,0.0 kmh,967.45 hPa,967.32 hPa,+0.00 m/s*04
$GNRMC,173850.20,A,4816.47867,N,01139.88981,E,0.05,,080522,,,A,V*2D
$GNGNS,173850.20,4816.47867,N,01139.88981,E,AAAN,24,0.54,478.6,46.2,,,V*16
$GNGSA,A,3,14,21,01,03,08,22,32,17,27,10,,,0.91,0.54,0.73,1*03
$GNGSA,A,3,66,81,65,88,82,67,73,,,,,,0.91,0.54,0.73,2*0A
$GNGSA,A,3,15,34,05,03,21,27,09,,,,,,0.91,0.54,0.73,3*04
$GNVTG,,T,,M,0.042,N,0.079,K,A*35
$SMGPS,-0.0 m,+0.01 m/s,7.39 VRx,0.000 km,7 m,90.0 °,1:-- (  0.0 km/h),472.6 m*8A
$SMGPS2,-0.12 X,+0.47 Y,+0.86 Z,1 ENL,0 us,0.0 kmh,967.45 hPa,967.31 hPa,+0.00 m/s*05
$GNRMC,173850.30,A,4816.47867,N,01139.88982,E,0.15,,080522,,,A,V*2E
$GNGNS,173850.30,4816.47867,N,01139.88982,E,AAAN,24,0.54,478.5,46.2,,,V*17
$GNGSA,A,3,14,21,01,03,08,22,32,17,27,10,,,0.91,0.54,0.73,1*03
$GNGSA,A,3,66,81,65,88,82,67,73,,,,,,0.91,0.54,0.73,2*0A
$GNGSA,A,3,15,34,05,03,21,27,09,,,,,,0.91,0.54,0.73,3*04
$GNVTG,,T,,M,0.147,N,0.272,K,A*38
$SMGPS,-0.1 m,+0.00 m/s,7.41 VRx,0.000 km,7 m,90.0 °,1:-- (  0.0 km/h),472.6 m*85
$SMGPS2,-0.11 X,+0.44 Y,+0.82 Z,1 ENL,0 us,0.0 kmh,967.46 hPa,967.31 hPa,-0.00 m/s*04
$GNRMC,173850.40,A,4816.47867,N,01139.88982,E,0.08,,080522,,,A,V*25
$GNGNS,173850.40,4816.47867,N,01139.88982,E,AAAN,24,0.54,478.6,46.2,,,V*13
$GNGSA,A,3,14,21,01,03,08,22,32,17,27,10,,,0.91,0.54,0.73,1*03
$GNGSA,A,3,66,81,65,88,82,67,73,,,,,,0.91,0.54,0.73,2*0A
$GNGSA,A,3,15,34,05,03,21,27,09,,,,,,0.91,0.54,0.73,3*04
$GNVTG,,T,,M,0.081,N,0.151,K,A*31
$SMGPS,-0.0 m,-0.00 m/s,7.38 VRx,0.000 km,7 m,90.0 °,1:-- (  0.0 km/h),472.6 m*8C
$SMGPS2,-0.10 X,+0.43 Y,+0.83 Z,1 ENL,0 us,0.0 kmh,967.45 hPa,967.32 hPa,-0.01 m/s*02
$GNRMC,173850.50,A,4816.47867,N,01139.88982,E,0.13,,080522,,,A,V*2E
$GNGNS,173850.50,4816.47867,N,01139.88982,E,AAAN,24,0.54,478.6,46.2,,,V*12
$GNGSA,A,3,14,21,01,03,08,22,32,17,27,10,,,0.91,0.54,0.73,1*03
$GNGSA,A,3,66,81,65,88,82,67,73,,,,,,0.91,0.54,0.73,2*0A
$GNGSA,A,3,15,34,05,03,21,27,09,,,,,,0.91,0.54,0.73,3*04
$GNVTG,,T,,M,0.130,N,0.242,K,A*3B
$SMGPS,0.0 m,-0.01 m/s,7.41 VRx,0.000 km,7 m,90.0 °,1:-- (  0.0 km/h),472.6 m*AE
$SMGPS2,-0.10 X,+0.42 Y,+0.89 Z,1 ENL,0 us,0.0 kmh,967.45 hPa,967.32 hPa,-0.01 m/s*09
$GNRMC,173850.60,A,4816.47866,N,01139.88978,E,0.05,,080522,,,A,V*2E
$GNGNS,173850.60,4816.47866,N,01139.88978,E,AAAN,24,0.54,478.6,46.2,,,V*15
$GNGSA,A,3,14,21,01,03,08,22,32,17,27,10,,,0.91,0.54,0.73,1*03
$GNGSA,A,3,66,81,65,88,82,67,73,,,,,,0.91,0.54,0.73,2*0A
$GNGSA,A,3,15,34,05,03,21,27,09,,,,,,0.91,0.54,0.73,3*04
$GNVTG,,T,,M,0.036,N,0.066,K,A*38
$SMGPS,-0.0 m,-0.02 m/s,7.38 VRx,0.000 km,7 m,90.0 °,1:-- (  0.0 km/h),472.6 m*8E
$SMGPS2,-0.15 X,+0.42 Y,+0.90 Z,1 ENL,0 us,0.0 kmh,967.45 hPa,967.32 hPa,-0.02 m/s*07
$GNRMC,173850.70,A,4816.47865,N,01139.88977,E,0.06,,080522,,,A,V*20
$GNGNS,173850.70,4816.47865,N,01139.88977,E,AAAN,24,0.54,478.6,46.2,,,V*18
$GNGSA,A,3,14,21,01,03,08,22,32,17,27,10,,,0.91,0.54,0.73,1*03
$GNGSA,A,3,66,81,65,88,82,67,73,,,,,,0.91,0.54,0.73,2*0A
$GNGSA,A,3,15,34,05,03,21,27,09,,,,,,0.91,0.54,0.73,3*04
$GNVTG,,T,,M,0.047,N,0.086,K,A*30
$SMGPS,0.0 m,-0.02 m/s,7.42 VRx,0.000 km,7 m,90.0 °,1:-- (  0.0 km/h),472.7 m*AF
$SMGPS2,-0.12 X,+0.42 Y,+0.87 Z,1 ENL,0 us,0.0 kmh,967.45 hPa,967.32 hPa,-0.02 m/s*06
$GNRMC,173850.80,A,4816.47864,N,01139.88973,E,0.07,,080522,,,A,V*2B
$GNGNS,173850.80,4816.47864,N,01139.88973,E,AAAN,24,0.54,478.6,46.2,,,V*12
$GNGSA,A,3,14,21,01,03,08,22,32,17,27,10,,,0.91,0.54,0.73,1*03
$GNGSA,A,3,66,81,65,88,82,67,73,,,,,,0.91,0.54,0.73,2*0A
$GNGSA,A,3,15,34,05,03,21,27,09,,,,,,0.91,0.54,0.73,3*04
$GNVTG,,T,,M,0.060,N,0.111,K,A*3A
$SMGPS,-0.0 m,-0.02 m/s,7.37 VRx,0.000 km,7 m,90.0 °,1:-- (  0.0 km/h),472.7 m*80
$SMGPS2,-0.18 X,+0.44 Y,+0.85 Z,1 ENL,0 us,0.0 kmh,967.45 hPa,967.32 hPa,-0.02 m/s*08
$GNRMC,173850.90,A,4816.47862,N,01139.88970,E,0.04,,080522,,,A,V*2C
$GNGNS,173850.90,4816.47862,N,01139.88970,E,AAAN,24,0.54,478.6,46.2,,,V*16
$GNGSA,A,3,14,21,01,03,08,22,32,17,27,10,,,0.91,0.54,0.73,1*03
$GNGSA,A,3,66,81,65,88,82,67,73,,,,,,0.91,0.54,0.73,2*0A
$GNGSA,A,3,15,34,05,03,21,27,09,,,,,,0.91,0.54,0.73,3*04
$GNVTG,,T,,M,0.012,N,0.023,K,A*3F
$SMGPS,0.0 m,-0.02 m/s,7.41 VRx,0.000 km,7 m,90.0 °,1:-- (  0.0 km/h),472.7 m*AC
$SMGPS2,-0.19 X,+0.40 Y,+0.86 Z,1 ENL,0 us,0.0 kmh,967.45 hPa,967.32 hPa,-0.03 m/s*0F
$GNRMC,173851.00,A,4816.47861,N,01139.88967,E,0.16,,080522,,,A,V*22
$GNGNS,173851.00,4816.47861,N,01139.88967,E,AAAN,24,0.54,478.6,46.2,,,V*1B
$GNGSA,A,3,14,21,01,03,08,22,32,17,27,10,,,0.91,0.54,0.73,1*03
$GNGSA,A,3,66,81,65,88,82,67,73,,,,,,0.91,0.54,0.73,2*0A
$GNGSA,A,3,15,34,05,03,21,27,09,,,,,,0.91,0.54,0.73,3*04
$GNVTG,,T,,M,0.161,N,0.299,K,A*39
$SMGPS,0.0 m,-0.02 m/s,7.39 VRx,0.000 km,7 m,90.0 °,1:-- (  0.0 km/h),472.8 m*AC
$SMGPS2,-0.15 X,+0.41 Y,+0.87 Z,1 ENL,0 us,0.0 kmh,967.45 hPa,967.32 hPa,-0.04 m/s*04
$GNRMC,173851.10,A,4816.47862,N,01139.88968,E,0.14,,080522,,,A,V*2D
$GNGNS,173851.10,4816.47862,N,01139.88968,E,AAAN,24,0.54,478.6,46.2,,,V*16
$GNGSA,A,3,14,21,01,03,08,22,32,17,27,10,,,0.91,0.54,0.73,1*03
$GNGSA,A,3,66,81,65,88,82,67,73,,,,,,0.91,0.54,0.73,2*0A
$GNGSA,A,3,15,34,05,03,21,27,09,,,,,,0.91,0.54,0.73,3*04
$GNVTG,,T,,M,0.138,N,0.256,K,A*36
$SMGPS,-0.0 m,-0.02 m/s,7.40 VRx,0.000 km,7 m,90.0 °,1:-- (  0.0 km/h),472.8 m*8F
