$GPSSETUP,8AE8,0,1,1,0,0,1,0,0,0,1,3,0,0,0,0,6,0,C8,C8,1F4,1C2,32,64,7C,64,7D0,5,1,1,1E,0,0,0,0,0,0,1003,4,10,5,6,10,10,10,10,10,10,10,10,10,BC10,0,80,0,108,302,604,0,20F,0,0,0,0,0,0,0,0,0,0,0,0,0,0,0,0,0,0,0,0,0,0,0,0,0,0,0,0,0,0,0,0,0,20,12C,1EC6*46
$GNRMC,165844.50,A,4816.48281,N,01139.86688,E,0.13,,080522,,,A,V*2A
$GNGNS,165844.50,4816.48281,N,01139.86688,E,AAAN,16,0.75,453.5,46.2,,,V*1E
$GNGSA,A,3,01,22,27,32,21,08,10,03,,,,,1.38,0.75,1.16,1*03
$GNGSA,A,3,65,88,81,66,82,,,,,,,,1.38,0.75,1.16,2*0C
$GNGSA,A,3,34,05,03,,,,,,,,,,1.38,0.75,1.16,3*0C
$GNVTG,,T,,M,0.126,N,0.233,K,A*3A
$SMGPS,-0.0 m,+0.01 m/s,7.27 VRx,0.000 km,3 m,166.6 °,1:-- (  0.0 km/h),453.5 m*BF
$SMGPS2,-0.30 X,-0.10 Y,+0.92 Z,0 ENL,0 us,0.0 kmh,967.22 hPa,967.09 hPa,+0.02 m/s*0D
$GNRMC,165844.60,A,4816.48240,N,01139.86666,E,0.22,,080522,,,A,V*26
$GNGNS,165844.60,4816.48240,N,01139.86666,E,AAAN,16,0.75,453.5,46.2,,,V*10
$GNGSA,A,3,01,22,27,32,21,08,10,03,,,,,1.38,0.75,1.16,1*03
$GNGSA,A,3,65,88,81,66,82,,,,,,,,1.38,0.75,1.16,2*0C
$GNGSA,A,3,34,05,03,,,,,,,,,,1.38,0.75,1.16,3*0C
$GNVTG,,T,,M,0.224,N,0.415,K,A*39
$SMGPS,-0.0 m,+0.01 m/s,7.27 VRx,0.000 km,3 m,180.0 °,1:-- (  0.0 km/h),463.1 m*B6
$SMGPS2,-0.31 X,-0.05 Y,+0.92 Z,0 ENL,0 us,0.0 kmh,967.22 hPa,967.09 hPa,+0.02 m/s*08
$GNRMC,165844.70,A,4816.48207,N,01139.86644,E,0.34,,080522,,,A,V*23
$GNGNS,165844.70,4816.48207,N,01139.86644,E,AAAN,16,0.75,453.5,46.2,,,V*12
$GNGSA,A,3,01,22,27,32,21,08,10,03,,,,,1.38,0.75,1.16,1*03
$GNGSA,A,3,65,88,81,66,82,,,,,,,,1.38,0.75,1.16,2*0C
$GNGSA,A,3,34,05,03,,,,,,,,,,1.38,0.75,1.16,3*0C
$GNVTG,,T,,M,0.339,N,0.629,K,A*39
$SMGPS,-0.0 m,+0.00 m/s,7.24 VRx,0.000 km,3 m,182.4 °,1:-- (  0.0 km/h),466.2 m*B4
$SMGPS2,-0.31 X,-0.06 Y,+0.92 Z,0 ENL,0 us,0.0 kmh,967.22 hPa,967.09 hPa,+0.01 m/s*08
$GNRMC,165844.80,A,4816.48170,N,01139.86623,E,0.36,,080522,,,A,V*2C
$GNGNS,165844.80,4816.48170,N,01139.86623,E,AAAN,17,0.73,453.4,46.2,,,V*19
$GNGSA,A,3,01,22,27,32,21,08,10,03,,,,,1.34,0.73,1.13,1*0C
$GNGSA,A,3,65,88,81,66,82,,,,,,,,1.38,0.75,1.16,2*0C
$GNGSA,A,3,34,05,03,,,,,,,,,,1.38,0.75,1.16,3*0C
$GNVTG,,T,,M,0.357,N,0.662,K,A*3E
$SMGPS,-0.1 m,-0.01 m/s,7.21 VRx,0.000 km,4 m,185.7 °,1:-- (  0.0 km/h),469.1 m*B8
$SMGPS2,-0.31 X,-0.06 Y,+0.92 Z,0 ENL,0 us,0.0 kmh,967.22 hPa,967.08 hPa,+0.00 m/s*08
$GNRMC,165844.90,A,4816.48153,N,01139.86628,E,0.43,,080522,,,A,V*25
$GNGNS,165844.90,4816.48153,N,01139.86628,E,AAAN,16,0.79,453.5,46.2,,,V*18
$GNGSA,A,3,01,22,27,32,21,08,10,,,,,,1.42,0.79,1.18,1*0F
$GNGSA,A,3,65,88,81,66,82,,,,,,,,1.34,0.73,1.13,2*03
$GNGSA,A,3,34,15,05,03,,,,,,,,,1.34,0.73,1.13,3*07
$GNVTG,,T,,M,0.434,N,0.804,K,A*32
$SMGPS,0.0 m,-0.01 m/s,7.22 VRx,0.000 km,4 m,189.4 °,1:-- (  0.0 km/h),470.9 m*98
$SMGPS2,-0.31 X,-0.05 Y,+0.92 Z,0 ENL,0 us,0.0 kmh,967.22 hPa,967.09 hPa,-0.01 m/s*0D
$GNRMC,165845.00,A,4816.48137,N,01139.86634,E,0.43,,080522,,,A,V*22
$GNGNS,165845.00,4816.48137,N,01139.86634,E,AAAN,16,0.79,453.5,46.2,,,V*1F
$GNGSA,A,3,01,22,27,32,21,08,10,,,,,,1.42,0.79,1.18,1*0F
$GNGSA,A,3,65,88,81,66,82,,,,,,,,1.42,0.79,1.18,2*03
$GNGSA,A,3,34,15,05,03,,,,,,,,,1.42,0.79,1.18,3*07
$GNVTG,,T,,M,0.433,N,0.801,K,A*30
$SMGPS,0.0 m,-0.01 m/s,7.20 VRx,0.000 km,5 m,186.3 °,1:-- (  0.0 km/h),471.7 m*9C
$SMGPS2,-0.32 X,-0.03 Y,+0.93 Z,0 ENL,0 us,0.0 kmh,967.22 hPa,967.09 hPa,-0.01 m/s*09
$GNRMC,165845.10,A,4816.48109,N,01139.86635,E,0.12,,080522,,,A,V*2B
$GNGNS,165845.10,4816.48109,N,01139.86635,E,AAAN,17,0.77,453.5,46.2,,,V*1D
$GNGSA,A,3,01,22,27,32,21,08,10,,,,,,1.31,0.77,1.06,1*0A
$GNGSA,A,3,65,88,81,66,82,,,,,,,,1.42,0.79,1.18,2*03
$GNGSA,A,3,34,15,05,03,,,,,,,,,1.42,0.79,1.18,3*07
$GNVTG,,T,,M,0.122,N,0.226,K,A*3A
$SMGPS,-0.0 m,-0.01 m/s,7.22 VRx,0.000 km,5 m,186.3 °,1:-- (  0.0 km/h),472.8 m*BF
$SMGPS2,-0.34 X,-0.06 Y,+0.94 Z,3 ENL,0 us,0.0 kmh,967.22 hPa,967.09 hPa,-0.02 m/s*0D
$GNRMC,165845.20,A,4816.48100,N,01139.86637,E,0.33,,080522,,,A,V*20
$GNGNS,165845.20,4816.48100,N,01139.86637,E,AAAN,17,0.77,453.5,46.2,,,V*15
$GNGSA,A,3,01,22,27,32,21,08,10,,,,,,1.31,0.77,1.06,1*0A
$GNGSA,A,3,65,88,81,66,87,82,,,,,,,1.31,0.77,1.06,2*09
$GNGSA,A,3,34,15,05,03,,,,,,,,,1.31,0.77,1.06,3*02
$GNVTG,,T,,M,0.326,N,0.603,K,A*3F
$SMGPS,0.0 m,-0.01 m/s,7.20 VRx,0.000 km,6 m,185.1 °,1:-- (  0.0 km/h),474.7 m*9B
$SMGPS2,-0.29 X,-0.09 Y,+0.93 Z,0 ENL,0 us,0.0 kmh,967.21 hPa,967.09 hPa,-0.01 m/s*0A
$GNRMC,165845.30,A,4816.48107,N,01139.86645,E,0.16,,080522,,,A,V*24
$GNGNS,165845.30,4816.48107,N,01139.86645,E,AAAN,18,0.76,453.5,46.2,,,V*18
$GNGSA,A,3,01,22,27,32,21,08,10,,,,,,1.24,0.76,0.98,1*09
$GNGSA,A,3,65,88,81,66,87,82,,,,,,,1.31,0.77,1.06,2*09
$GNGSA,A,3,34,15,05,03,,,,,,,,,1.31,0.77,1.06,3*02
$GNVTG,,T,,M,0.158,N,0.293,K,A*39
$SMGPS,0.0 m,-0.01 m/s,7.22 VRx,0.000 km,6 m,185.1 °,1:-- (  0.0 km/h),476.1 m*9D
$SMGPS2,-0.31 X,-0.11 Y,+0.89 Z,1 ENL,0 us,0.0 kmh,967.22 hPa,967.09 hPa,-0.02 m/s*00
$GNRMC,165845.40,A,4816.48100,N,01139.86640,E,0.23,,080522,,,A,V*27
$GNGNS,165845.40,4816.48100,N,01139.86640,E,AAAN,19,0.69,453.5,46.2,,,V*12
$GNGSA,A,3,01,22,27,32,21,08,10,03,,,,,1.17,0.69,0.94,1*08
$GNGSA,A,3,65,88,81,66,87,82,,,,,,,1.24,0.76,0.98,2*0A
$GNGSA,A,3,34,15,05,03,36,,,,,,,,1.24,0.76,0.98,3*04
$GNVTG,,T,,M,0.233,N,0.432,K,A*3A
$SMGPS,-0.0 m,-0.00 m/s,7.19 VRx,0.000 km,6 m,183.8 °,1:-- (  0.0 km/h),476.8 m*BF
$SMGPS2,-0.37 X,-0.11 Y,+0.95 Z,0 ENL,0 us,0.0 kmh,967.22 hPa,967.10 hPa,-0.02 m/s*02
$GNRMC,165845.50,A,4816.48094,N,01139.86653,E,0.36,,080522,,,A,V*2C
$GNGNS,165845.50,4816.48094,N,01139.86653,E,AAAN,19,0.69,453.5,46.2,,,V*1D
$GNGSA,A,3,01,22,27,32,21,08,10,03,,,,,1.17,0.69,0.94,1*08
$GNGSA,A,3,65,88,81,66,87,82,,,,,,,1.17,0.69,0.94,2*08
$GNGSA,A,3,34,15,05,03,36,,,,,,,,1.17,0.69,0.94,3*06
$GNVTG,,T,,M,0.360,N,0.667,K,A*3F
$SMGPS,-0.0 m,-0.00 m/s,7.23 VRx,0.000 km,6 m,183.8 °,1:-- (  0.0 km/h),477.8 m*B7
$SMGPS2,-0.30 X,+0.15 Y,+0.89 Z,2 ENL,0 us,0.0 kmh,967.22 hPa,967.09 hPa,-0.02 m/s*00
$GNRMC,165845.60,A,4816.48087,N,01139.86640,E,0.19,,080522,,,A,V*22
$GNGNS,165845.60,4816.48087,N,01139.86640,E,AAAN,18,0.70,453.5,46.2,,,V*17
$GNGSA,A,3,01,22,27,32,21,08,10,03,,,,,1.18,0.70,0.95,1*0E
$GNGSA,A,3,65,88,81,66,87,82,,,,,,,1.17,0.69,0.94,2*08
$GNGSA,A,3,34,15,05,03,36,,,,,,,,1.17,0.69,0.94,3*06
$GNVTG,,T,,M,0.191,N,0.353,K,A*31
$SMGPS,0.0 m,-0.00 m/s,7.20 VRx,0.000 km,6 m,182.5 °,1:-- (  0.0 km/h),478.2 m*90
$SMGPS2,-0.25 X,+0.24 Y,+0.91 Z,9 ENL,0 us,0.0 kmh,967.22 hPa,967.09 hPa,-0.02 m/s*04
$GNRMC,165845.70,A,4816.48085,N,01139.86632,E,0.09,,080522,,,A,V*25
$GNGNS,165845.70,4816.48085,N,01139.86632,E,AAAN,19,0.65,453.5,46.2,,,V*14
$GNGSA,A,3,01,22,27,32,21,08,10,03,,,,,1.12,0.65,0.92,1*07
$GNGSA,A,3,65,88,81,66,87,82,,,,,,,1.18,0.70,0.95,2*0E
$GNGSA,A,3,34,15,03,36,,,,,,,,,1.18,0.70,0.95,3*05
$GNVTG,,T,,M,0.087,N,0.161,K,A*34
$SMGPS,-0.0 m,-0.00 m/s,7.22 VRx,0.000 km,6 m,183.8 °,1:-- (  0.0 km/h),478.7 m*B6
$SMGPS2,-0.23 X,+0.21 Y,+0.91 Z,1 ENL,0 us,0.0 kmh,967.22 hPa,967.09 hPa,-0.01 m/s*0C
$GNRMC,165845.80,A,4816.48082,N,01139.86619,E,0.09,,080522,,,A,V*24
$GNGNS,165845.80,4816.48082,N,01139.86619,E,AAAN,21,0.62,453.5,46.2,,,V*19
$GNGSA,A,3,01,22,27,32,21,08,10,03,14,,,,1.07,0.62,0.87,1*05
$GNGSA,A,3,65,88,81,66,87,82,,,,,,,1.12,0.65,0.92,2*07
$GNGSA,A,3,34,15,03,09,36,,,,,,,,1.12,0.65,0.92,3*05
$GNVTG,,T,,M,0.089,N,0.165,K,A*3E
$SMGPS,-0.0 m,-0.00 m/s,7.19 VRx,0.000 km,6 m,185.1 °,1:-- (  0.0 km/h),479.1 m*B6
$SMGPS2,-0.26 X,+0.20 Y,+0.85 Z,5 ENL,0 us,0.0 kmh,967.22 hPa,967.09 hPa,-0.01 m/s*09
$GNRMC,165845.90,A,4816.48059,N,01139.86604,E,0.24,,080522,,,A,V*20
$GNGNS,165845.90,4816.48059,N,01139.86604,E,AAAN,21,0.62,453.5,46.2,,,V*12
$GNGSA,A,3,01,22,27,32,21,08,10,03,14,,,,1.07,0.62,0.87,1*05
$GNGSA,A,3,65,88,81,66,87,82,,,,,,,1.07,0.62,0.87,2*00
$GNGSA,A,3,34,15,05,03,09,36,,,,,,,1.07,0.62,0.87,3*07
$GNVTG,,T,,M,0.234,N,0.434,K,A*3B
$SMGPS,-0.0 m,-0.01 m/s,7.22 VRx,0.000 km,6 m,186.3 °,1:-- (  0.0 km/h),479.6 m*B9
$SMGPS2,-0.28 X,+0.24 Y,+0.92 Z,1 ENL,0 us,0.0 kmh,967.22 hPa,967.09 hPa,-0.01 m/s*01
$GNRMC,165846.00,A,4816.48050,N,01139.86600,E,0.19,,080522,,,A,V*29
$GNGNS,165846.00,4816.48050,N,01139.86600,E,AAAN,21,0.62,453.5,46.2,,,V*15
$GNGSA,A,3,01,22,27,32,21,08,10,03,14,,,,1.07,0.62,0.87,1*05
$GNGSA,A,3,65,88,81,66,87,82,,,,,,,1.07,0.62,0.87,2*00
$GNGSA,A,3,34,15,05,03,09,36,,,,,,,1.07,0.62,0.87,3*07
$GNVTG,,T,,M,0.185,N,0.342,K,A*34
$SMGPS,0.0 m,-0.02 m/s,7.20 VRx,0.000 km,7 m,187.3 °,1:-- (  0.0 km/h),480.7 m*92
$SMGPS2,-0.27 X,+0.24 Y,+0.95 Z,129 ENL,0 us,0.0 kmh,967.22 hPa,967.09 hPa,-0.01 m/s*02
$GNRMC,165846.10,A,4816.48039,N,01139.86585,E,0.11,,080522,,,A,V*21
$GNGNS,165846.10,4816.48039,N,01139.86585,E,AAAN,21,0.62,453.5,46.2,,,V*15
$GNGSA,A,3,01,22,27,32,21,08,10,03,14,,,,1.07,0.62,0.87,1*05
$GNGSA,A,3,65,88,81,66,87,82,,,,,,,1.07,0.62,0.87,2*00
$GNGSA,A,3,34,15,05,03,09,36,,,,,,,1.07,0.62,0.87,3*07
$GNVTG,,T,,M,0.106,N,0.196,K,A*34
$SMGPS,-0.0 m,-0.02 m/s,7.22 VRx,0.000 km,7 m,188.4 °,1:-- (  0.0 km/h),481.1 m*B2
$SMGPS2,-0.26 X,+0.21 Y,+0.90 Z,9 ENL,0 us,0.0 kmh,967.22 hPa,967.09 hPa,-0.01 m/s*00
$GNRMC,165846.20,A,4816.48037,N,01139.86568,E,0.16,,080522,,,A,V*28
$GNGNS,165846.20,4816.48037,N,01139.86568,E,AAAN,21,0.62,453.5,46.2,,,V*1B
$GNGSA,A,3,01,22,27,32,21,08,10,03,14,,,,1.07,0.62,0.87,1*05
$GNGSA,A,3,65,88,81,66,87,82,,,,,,,1.07,0.62,0.87,2*00
$GNGSA,A,3,34,15,05,03,09,36,,,,,,,1.07,0.62,0.87,3*07
$GNVTG,,T,,M,0.158,N,0.292,K,A*38
$SMGPS,-0.0 m,-0.02 m/s,7.21 VRx,0.000 km,7 m,189.4 °,1:-- (  0.0 km/h),481.4 m*B5
$SMGPS2,-0.33 X,+0.14 Y,+0.92 Z,0 ENL,0 us,0.0 kmh,967.22 hPa,967.08 hPa,-0.00 m/s*09
$GNRMC,165846.30,A,4816.48045,N,01139.86564,E,0.26,,080522,,,A,V*23
$GNGNS,165846.30,4816.48045,N,01139.86564,E,AAAN,21,0.62,453.5,46.2,,,V*13
$GNGSA,A,3,01,22,27,32,21,08,10,03,14,,,,1.07,0.62,0.87,1*05
$GNGSA,A,3,65,88,81,66,87,82,,,,,,,1.07,0.62,0.87,2*00
$GNGSA,A,3,34,15,05,03,09,36,,,,,,,1.07,0.62,0.87,3*07
$GNVTG,,T,,M,0.255,N,0.472,K,A*3E
$SMGPS,-0.0 m,-0.02 m/s,7.24 VRx,0.000 km,7 m,190.5 °,1:-- (  0.0 km/h),481.2 m*BF
$SMGPS2,-0.23 X,+0.17 Y,+0.97 Z,0 ENL,0 us,0.0 kmh,967.22 hPa,967.09 hPa,-0.00 m/s*0F
$GNRMC,165846.40,A,4816.48049,N,01139.86571,E,0.16,,080522,,,A,V*2F
$GNGNS,165846.40,4816.48049,N,01139.86571,E,AAAN,21,0.62,453.5,46.2,,,V*1C
$GNGSA,A,3,01,22,27,32,21,08,10,03,14,,,,1.07,0.62,0.87,1*05
$GNGSA,A,3,65,88,81,66,87,82,,,,,,,1.07,0.62,0.87,2*00
$GNGSA,A,3,34,15,05,03,09,36,,,,,,,1.07,0.62,0.87,3*07
$GNVTG,,T,,M,0.155,N,0.287,K,A*31
$SMGPS,-0.0 m,-0.02 m/s,7.22 VRx,0.000 km,7 m,191.6 °,1:-- (  0.0 km/h),480.8 m*B0
$SMGPS2,-0.25 X,+0.15 Y,+0.87 Z,1 ENL,0 us,0.0 kmh,967.22 hPa,967.09 hPa,-0.01 m/s*0A
$GNRMC,165846.50,A,4816.48059,N,01139.86585,E,0.20,,080522,,,A,V*21
$GNGNS,165846.50,4816.48059,N,01139.86585,E,AAAN,21,0.62,453.5,46.2,,,V*17
$GNGSA,A,3,01,22,27,32,21,08,10,03,14,,,,1.07,0.62,0.87,1*05
$GNGSA,A,3,65,88,81,66,87,82,,,,,,,1.07,0.62,0.87,2*00
$GNGSA,A,3,34,15,05,03,09,36,,,,,,,1.07,0.62,0.87,3*07
$GNVTG,,T,,M,0.192,N,0.356,K,A*37
$SMGPS,-0.0 m,-0.02 m/s,7.22 VRx,0.000 km,7 m,190.5 °,1:-- (  0.0 km/h),480.5 m*BF
$SMGPS2,-0.27 X,+0.21 Y,+0.92 Z,0 ENL,0 us,0.0 kmh,967.22 hPa,967.09 hPa,-0.01 m/s*0A
$GNRMC,165846.60,A,4816.48065,N,01139.86595,E,0.13,,080522,,,A,V*2C
$GNGNS,165846.60,4816.48065,N,01139.86595,E,AAAN,21,0.62,453.5,46.2,,,V*1A
$GNGSA,A,3,01,22,27,32,21,08,10,03,14,,,,1.07,0.62,0.87,1*05
$GNGSA,A,3,65,88,81,66,87,82,,,,,,,1.07,0.62,0.87,2*00
$GNGSA,A,3,34,15,05,03,09,36,,,,,,,1.07,0.62,0.87,3*07
$GNVTG,,T,,M,0.124,N,0.229,K,A*33
$SMGPS,-0.0 m,-0.02 m/s,7.19 VRx,0.000 km,7 m,189.4 °,1:-- (  0.0 km/h),479.9 m*B4
$SMGPS2,-0.27 X,+0.18 Y,+0.95 Z,1 ENL,0 us,0.0 kmh,967.22 hPa,967.09 hPa,-0.00 m/s*07
$GNRMC,165846.70,A,4816.48065,N,01139.86603,E,0.29,,080522,,,A,V*28
$GNGNS,165846.70,4816.48065,N,01139.86603,E,AAAN,21,0.62,453.5,46.2,,,V*17
$GNGSA,A,3,01,22,27,32,21,08,10,03,14,,,,1.07,0.62,0.87,1*05
$GNGSA,A,3,65,88,81,66,87,82,,,,,,,1.07,0.62,0.87,2*00
$GNGSA,A,3,34,15,05,03,09,36,,,,,,,1.07,0.62,0.87,3*07
$GNVTG,,T,,M,0.287,N,0.531,K,A*37
$SMGPS,-0.0 m,-0.02 m/s,7.23 VRx,0.000 km,7 m,188.4 °,1:-- (  0.0 km/h),479.5 m*B0
$SMGPS2,-0.25 X,+0.22 Y,+0.92 Z,0 ENL,0 us,0.0 kmh,967.22 hPa,967.09 hPa,-0.00 m/s*0A
$GNRMC,165846.80,A,4816.48066,N,01139.86610,E,0.10,,080522,,,A,V*2C
$GNGNS,165846.80,4816.48066,N,01139.86610,E,AAAN,21,0.62,453.5,46.2,,,V*19
$GNGSA,A,3,01,22,27,32,21,08,10,03,14,,,,1.07,0.62,0.87,1*05
$GNGSA,A,3,65,88,81,66,87,82,,,,,,,1.07,0.62,0.87,2*00
$GNGSA,A,3,34,15,05,03,09,36,,,,,,,1.07,0.62,0.87,3*07
$GNVTG,,T,,M,0.092,N,0.170,K,A*30
$SMGPS,0.0 m,-0.02 m/s,7.19 VRx,0.000 km,7 m,187.3 °,1:-- (  0.0 km/h),479.2 m*9B
$SMGPS2,-0.24 X,+0.23 Y,+0.91 Z,0 ENL,0 us,0.0 kmh,967.22 hPa,967.09 hPa,-0.00 m/s*09
$GNRMC,165846.90,A,4816.48064,N,01139.86613,E,0.06,,080522,,,A,V*2B
$GNGNS,165846.90,4816.48064,N,01139.86613,E,AAAN,21,0.62,453.5,46.2,,,V*19
$GNGSA,A,3,01,22,27,32,21,08,10,03,14,,,,1.07,0.62,0.87,1*05
$GNGSA,A,3,65,88,81,66,87,82,,,,,,,1.07,0.62,0.87,2*00
$GNGSA,A,3,34,15,05,03,09,36,,,,,,,1.07,0.62,0.87,3*07
$GNVTG,,T,,M,0.041,N,0.075,K,A*3A
$SMGPS,-0.0 m,-0.02 m/s,7.23 VRx,0.000 km,7 m,187.3 °,1:-- (  0.0 km/h),478.8 m*B4
$SMGPS2,-0.28 X,+0.24 Y,+0.93 Z,0 ENL,0 us,0.0 kmh,967.22 hPa,967.09 hPa,-0.01 m/s*01
$GNRMC,165847.00,A,4816.48064,N,01139.86616,E,0.11,,080522,,,A,V*20
$GNGNS,165847.00,4816.48064,N,01139.86616,E,AAAN,21,0.62,453.5,46.2,,,V*14
$GNGSA,A,3,01,22,27,32,21,08,10,03,14,,,,1.07,0.62,0.87,1*05
$GNGSA,A,3,65,88,81,66,87,82,,,,,,,1.07,0.62,0.87,2*00
$GNGSA,A,3,34,15,05,03,09,36,,,,,,,1.07,0.62,0.87,3*07
$GNVTG,,T,,M,0.109,N,0.202,K,A*35
$SMGPS,0.0 m,-0.02 m/s,7.18 VRx,0.000 km,7 m,187.3 °,1:-- (  0.0 km/h),478.3 m*9A
$SMGPS2,-0.24 X,+0.25 Y,+0.89 Z,0 ENL,0 us,0.0 kmh,967.22 hPa,967.09 hPa,-0.00 m/s*06
$GNRMC,165847.10,A,4816.48064,N,01139.86615,E,0.07,,080522,,,A,V*25
$GNGNS,165847.10,4816.48064,N,01139.86615,E,AAAN,21,0.62,453.5,46.2,,,V*16
$GNGSA,A,3,01,22,27,32,21,08,10,03,14,,,,1.07,0.62,0.87,1*05
$GNGSA,A,3,65,88,81,66,87,82,,,,,,,1.07,0.62,0.87,2*00
$GNGSA,A,3,34,15,05,03,09,36,,,,,,,1.07,0.62,0.87,3*07
$GNVTG,,T,,M,0.072,N,0.133,K,A*39
$SMGPS,0.0 m,-0.01 m/s,7.22 VRx,0.000 km,7 m,185.6 °,1:-- (  0.0 km/h),477.8 m*93
$SMGPS2,-0.23 X,+0.24 Y,+0.91 Z,66 ENL,0 us,0.0 kmh,967.21 hPa,967.09 hPa,-0.00 m/s*3A
$GNRMC,165847.20,A,4816.48060,N,01139.86612,E,0.12,,080522,,,A,V*21
$GNGNS,165847.20,4816.48060,N,01139.86612,E,AAAN,21,0.62,453.5,46.2,,,V*16
$GNGSA,A,3,01,22,27,32,21,08,10,03,14,,,,1.07,0.62,0.87,1*05
$GNGSA,A,3,65,88,81,66,87,82,,,,,,,1.07,0.62,0.87,2*00
$GNGSA,A,3,34,15,05,03,09,36,,,,,,,1.07,0.62,0.87,3*07
$GNVTG,,T,,M,0.115,N,0.212,K,A*39
$SMGPS,-0.0 m,-0.00 m/s,7.19 VRx,0.000 km,7 m,185.6 °,1:-- (  0.0 km/h),477.5 m*BA
$SMGPS2,-0.28 X,+0.22 Y,+0.89 Z,0 ENL,0 us,0.0 kmh,967.22 hPa,967.09 hPa,+0.00 m/s*0B
$GNRMC,165847.30,A,4816.48056,N,01139.86609,E,0.22,,080522,,,A,V*2C
$GNGNS,165847.30,4816.48056,N,01139.86609,E,AAAN,21,0.62,453.5,46.2,,,V*18
$GNGSA,A,3,01,22,27,32,21,08,10,03,14,,,,1.07,0.62,0.87,1*05
$GNGSA,A,3,65,88,81,66,87,82,,,,,,,1.07,0.62,0.87,2*00
$GNGSA,A,3,34,15,05,03,09,36,,,,,,,1.07,0.62,0.87,3*07
$GNVTG,,T,,M,0.224,N,0.415,K,A*39
$SMGPS,-0.0 m,-0.00 m/s,7.20 VRx,0.000 km,7 m,187.3 °,1:-- (  0.0 km/h),477.2 m*B0
$SMGPS2,-0.25 X,+0.17 Y,+0.90 Z,0 ENL,0 us,0.0 kmh,967.22 hPa,967.09 hPa,-0.00 m/s*0E
$GNRMC,165847.40,A,4816.48053,N,01139.86608,E,0.05,,080522,,,A,V*2A
$GNGNS,165847.40,4816.48053,N,01139.86608,E,AAAN,21,0.62,453.5,46.2,,,V*1B
$GNGSA,A,3,01,22,27,32,21,08,10,03,14,,,,1.07,0.62,0.87,1*05
$GNGSA,A,3,65,88,81,66,87,82,,,,,,,1.07,0.62,0.87,2*00
$GNGSA,A,3,34,15,05,03,09,36,,,,,,,1.07,0.62,0.87,3*07
$GNVTG,,T,,M,0.052,N,0.097,K,A*34
$SMGPS,0.0 m,+0.00 m/s,7.20 VRx,0.000 km,7 m,187.3 °,1:-- (  0.0 km/h),477.0 m*99
$SMGPS2,-0.27 X,+0.21 Y,+0.91 Z,0 ENL,0 us,0.0 kmh,967.22 hPa,967.09 hPa,+0.00 m/s*0E
$GNRMC,165847.50,A,4816.48052,N,01139.86604,E,0.20,,080522,,,A,V*21
$GNGNS,165847.50,4816.48052,N,01139.86604,E,AAAN,21,0.62,453.5,46.2,,,V*17
$GNGSA,A,3,01,22,27,32,21,08,10,03,14,,,,1.07,0.62,0.87,1*05
$GNGSA,A,3,65,88,81,66,87,82,,,,,,,1.07,0.62,0.87,2*00
$GNGSA,A,3,34,15,05,03,09,36,,,,,,,1.07,0.62,0.87,3*07
$GNVTG,,T,,M,0.200,N,0.370,K,A*3B
$SMGPS,0.0 m,+0.00 m/s,7.24 VRx,0.000 km,7 m,187.3 °,1:-- (  0.0 km/h),476.9 m*95
$SMGPS2,-0.28 X,+0.23 Y,+0.92 Z,0 ENL,0 us,0.0 kmh,967.22 hPa,967.09 hPa,+0.00 m/s*00
$GNRMC,165847.60,A,4816.48049,N,01139.86598,E,0.10,,080522,,,A,V*2D
$GNGNS,165847.60,4816.48049,N,01139.86598,E,AAAN,21,0.62,453.5,46.2,,,V*18
$GNGSA,A,3,01,22,27,32,21,08,10,03,14,,,,1.07,0.62,0.87,1*05
$GNGSA,A,3,65,88,81,66,87,82,,,,,,,1.07,0.62,0.87,2*00
$GNGSA,A,3,34,15,05,03,09,36,,,,,,,1.07,0.62,0.87,3*07
$GNVTG,,T,,M,0.095,N,0.176,K,A*31
$SMGPS,0.0 m,+0.01 m/s,7.23 VRx,0.000 km,7 m,187.3 °,1:-- (  0.0 km/h),476.9 m*93
$SMGPS2,-0.28 X,+0.23 Y,+0.90 Z,0 ENL,0 us,0.0 kmh,967.22 hPa,967.09 hPa,+0.00 m/s*02
$GNRMC,165847.70,A,4816.48046,N,01139.86596,E,0.18,,080522,,,A,V*25
$GNGNS,165847.70,4816.48046,N,01139.86596,E,AAAN,21,0.62,453.5,46.2,,,V*18
$GNGSA,A,3,01,22,27,32,21,08,10,03,14,,,,1.07,0.62,0.87,1*05
$GNGSA,A,3,65,88,81,66,87,82,,,,,,,1.07,0.62,0.87,2*00
$GNGSA,A,3,34,15,05,03,09,36,,,,,,,1.07,0.62,0.87,3*07
$GNVTG,,T,,M,0.182,N,0.336,K,A*30
$SMGPS,-0.0 m,+0.00 m/s,7.22 VRx,0.000 km,7 m,188.4 °,1:-- (  0.0 km/h),476.9 m*B6
$SMGPS2,-0.28 X,+0.21 Y,+0.91 Z,0 ENL,0 us,0.0 kmh,967.22 hPa,967.09 hPa,-0.00 m/s*07
$GNRMC,165847.80,A,4816.48045,N,01139.86596,E,0.03,,080522,,,A,V*23
$GNGNS,165847.80,4816.48045,N,01139.86596,E,AAAN,21,0.62,453.5,46.2,,,V*14
$GNGSA,A,3,01,22,27,32,21,08,10,03,14,,,,1.07,0.62,0.87,1*05
$GNGSA,A,3,65,88,81,66,87,82,,,,,,,1.07,0.62,0.87,2*00
$GNGSA,A,3,34,15,05,03,09,36,,,,,,,1.07,0.62,0.87,3*07
$GNVTG,,T,,M,0.025,N,0.046,K,A*38
$SMGPS,-0.0 m,-0.00 m/s,7.21 VRx,0.000 km,7 m,188.4 °,1:-- (  0.0 km/h),476.9 m*B3
$SMGPS2,-0.26 X,+0.22 Y,+0.89 Z,1 ENL,0 us,0.0 kmh,967.22 hPa,967.09 hPa,-0.00 m/s*02
$GNRMC,165847.90,A,4816.48043,N,01139.86596,E,0.14,,080522,,,A,V*22
$GNGNS,165847.90,4816.48043,N,01139.86596,E,AAAN,21,0.62,453.5,46.2,,,V*13
$GNGSA,A,3,01,22,27,32,21,08,10,03,14,,,,1.07,0.62,0.87,1*05
$GNGSA,A,3,65,88,81,66,87,82,,,,,,,1.07,0.62,0.87,2*00
$GNGSA,A,3,34,15,05,03,09,36,,,,,,,1.07,0.62,0.87,3*07
$GNVTG,,T,,M,0.142,N,0.262,K,A*3C
$SMGPS,-0.0 m,-0.01 m/s,7.25 VRx,0.000 km,7 m,188.4 °,1:-- (  0.0 km/h),476.9 m*B6
$SMGPS2,-0.27 X,+0.22 Y,+0.92 Z,0 ENL,0 us,0.0 kmh,967.22 hPa,967.09 hPa,+0.00 m/s*0E
$GNRMC,165848.00,A,4816.48043,N,01139.86596,E,0.12,,080522,,,A,V*22
$GNGNS,165848.00,4816.48043,N,01139.86596,E,AAAN,21,0.62,453.5,46.2,,,V*15
$GNGSA,A,3,01,22,27,32,21,08,10,03,14,,,,1.07,0.62,0.87,1*05
$GNGSA,A,3,65,88,81,66,87,82,,,,,,,1.07,0.62,0.87,2*00
$GNGSA,A,3,34,15,05,03,09,36,,,,,,,1.07,0.62,0.87,3*07
$GNVTG,,T,,M,0.118,N,0.218,K,A*3E
$SMGPS,-0.0 m,-0.01 m/s,7.21 VRx,0.000 km,7 m,188.4 °,1:-- (  0.0 km/h),476.8 m*B3
$SMGPS2,-0.27 X,+0.22 Y,+0.92 Z,28 ENL,0 us,0.0 kmh,967.22 hPa,967.09 hPa,-0.00 m/s*32
$GNRMC,165848.10,A,4816.48039,N,01139.86596,E,0.07,,080522,,,A,V*2A
$GNGNS,165848.10,4816.48039,N,01139.86596,E,AAAN,21,0.62,453.5,46.2,,,V*19
$GNGSA,A,3,01,22,27,32,21,08,10,03,14,,,,1.07,0.62,0.87,1*05
$GNGSA,A,3,65,88,81,66,87,82,,,,,,,1.07,0.62,0.87,2*00
$GNGSA,A,3,34,15,05,03,09,36,,,,,,,1.07,0.62,0.87,3*07
$GNVTG,,T,,M,0.070,N,0.130,K,A*38
$SMGPS,-0.0 m,-0.01 m/s,7.24 VRx,0.000 km,7 m,188.4 °,1:-- (  0.0 km/h),476.8 m*B6
$SMGPS2,-0.28 X,+0.21 Y,+0.89 Z,1 ENL,0 us,0.0 kmh,967.22 hPa,967.09 hPa,-0.00 m/s*0F
$GNRMC,165848.20,A,4816.48032,N,01139.86594,E,0.17,,080522,,,A,V*21
$GNGNS,165848.20,4816.48032,N,01139.86594,E,AAAN,21,0.62,453.5,46.2,,,V*13
$GNGSA,A,3,01,22,27,32,21,08,10,03,14,,,,1.07,0.62,0.87,1*05
$GNGSA,A,3,65,88,81,66,87,82,,,,,,,1.07,0.62,0.87,2*00
$GNGSA,A,3,34,15,05,03,09,36,,,,,,,1.07,0.62,0.87,3*07
$GNVTG,,T,,M,0.167,N,0.309,K,A*37
$SMGPS,0.0 m,-0.01 m/s,7.21 VRx,0.000 km,7 m,188.4 °,1:-- (  0.0 km/h),476.8 m*9E
$SMGPS2,-0.27 X,+0.21 Y,+0.91 Z,0 ENL,0 us,0.0 kmh,967.22 hPa,967.09 hPa,-0.01 m/s*09
$GNRMC,165848.30,A,4816.48029,N,01139.86593,E,0.08,,080522,,,A,V*23
$GNGNS,165848.30,4816.48029,N,01139.86593,E,AAAN,21,0.62,453.5,46.2,,,V*1F
$GNGSA,A,3,01,22,27,32,21,08,10,03,14,,,,1.07,0.62,0.87,1*05
$GNGSA,A,3,65,88,81,66,87,82,,,,,,,1.07,0.62,0.87,2*00
$GNGSA,A,3,34,15,05,03,09,36,,,,,,,1.07,0.62,0.87,3*07
$GNVTG,,T,,M,0.082,N,0.152,K,A*31
$SMGPS,-0.0 m,-0.01 m/s,7.24 VRx,0.000 km,7 m,188.4 °,1:-- (  0.0 km/h),476.7 m*B9
$SMGPS2,-0.28 X,+0.21 Y,+0.93 Z,1 ENL,0 us,0.0 kmh,967.23 hPa,967.09 hPa,-0.01 m/s*04
$GNRMC,165848.40,A,4816.48028,N,01139.86593,E,0.12,,080522,,,A,V*2E
$GNGNS,165848.40,4816.48028,N,01139.86593,E,AAAN,21,0.62,453.5,46.2,,,V*19
$GNGSA,A,3,01,22,27,32,21,08,10,03,14,,,,1.07,0.62,0.87,1*05
$GNGSA,A,3,65,88,81,66,87,82,,,,,,,1.07,0.62,0.87,2*00
$GNGSA,A,3,34,15,05,03,09,36,,,,,,,1.07,0.62,0.87,3*07
$GNVTG,,T,,M,0.119,N,0.221,K,A*35
$SMGPS,-0.0 m,-0.01 m/s,7.21 VRx,0.000 km,7 m,188.4 °,1:-- (  0.0 km/h),476.7 m*BC
$SMGPS2,-0.29 X,+0.24 Y,+0.90 Z,1 ENL,0 us,0.0 kmh,967.22 hPa,967.09 hPa,-0.01 m/s*02
$GNRMC,165848.50,A,4816.48027,N,01139.86592,E,0.36,,080522,,,A,V*27
$GNGNS,165848.50,4816.48027,N,01139.86592,E,AAAN,21,0.62,453.5,46.2,,,V*16
$GNGSA,A,3,01,22,27,32,21,08,10,03,14,,,,1.07,0.62,0.87,1*05
$GNGSA,A,3,65,88,81,66,87,82,,,,,,,1.07,0.62,0.87,2*00
$GNGSA,A,3,34,15,05,03,09,36,,,,,,,1.07,0.62,0.87,3*07
$GNVTG,,T,,M,0.356,N,0.660,K,A*3D
$SMGPS,-0.0 m,-0.01 m/s,7.22 VRx,0.000 km,7 m,188.4 °,1:-- (  0.0 km/h),476.7 m*BF
$SMGPS2,-0.22 X,+0.15 Y,+0.79 Z,118 ENL,0 us,0.0 kmh,967.22 hPa,967.09 hPa,+0.00 m/s*02
$GNRMC,165848.60,A,4816.48026,N,01139.86591,E,0.06,,080522,,,A,V*25
$GNGNS,165848.60,4816.48026,N,01139.86591,E,AAAN,21,0.62,453.5,46.2,,,V*17
$GNGSA,A,3,01,22,27,32,21,08,10,03,14,,,,1.07,0.62,0.87,1*05
$GNGSA,A,3,65,88,81,66,87,82,,,,,,,1.07,0.62,0.87,2*00
$GNGSA,A,3,34,15,05,03,09,36,,,,,,,1.07,0.62,0.87,3*07
$GNVTG,,T,,M,0.061,N,0.112,K,A*38
$SMGPS,-0.0 m,-0.01 m/s,7.21 VRx,0.000 km,7 m,188.4 °,1:-- (  0.0 km/h),476.6 m*BD
$SMGPS2,-0.28 X,+0.20 Y,+0.93 Z,2 ENL,0 us,0.0 kmh,967.22 hPa,967.09 hPa,+0.01 m/s*01
$GNRMC,165848.70,A,4816.48027,N,01139.86592,E,0.10,,080522,,,A,V*21
$GNGNS,165848.70,4816.48027,N,01139.86592,E,AAAN,21,0.62,453.5,46.2,,,V*14
$GNGSA,A,3,01,22,27,32,21,08,10,03,14,,,,1.07,0.62,0.87,1*05
$GNGSA,A,3,65,88,81,66,87,82,,,,,,,1.07,0.62,0.87,2*00
$GNGSA,A,3,34,15,05,03,09,36,,,,,,,1.07,0.62,0.87,3*07
$GNVTG,,T,,M,0.100,N,0.185,K,A*30
$SMGPS,0.0 m,-0.00 m/s,7.24 VRx,0.000 km,7 m,188.4 °,1:-- (  0.0 km/h),476.6 m*94
$SMGPS2,-0.27 X,+0.17 Y,+0.92 Z,0 ENL,0 us,0.0 kmh,967.22 hPa,967.09 hPa,+0.01 m/s*09
$GNRMC,165848.80,A,4816.48026,N,01139.86592,E,0.10,,080522,,,A,V*2F
$GNGNS,165848.80,4816.48026,N,01139.86592,E,AAAN,21,0.62,453.5,46.2,,,V*1A
$GNGSA,A,3,01,22,27,32,21,08,10,03,14,,,,1.07,0.62,0.87,1*05
$GNGSA,A,3,65,88,81,66,87,82,,,,,,,1.07,0.62,0.87,2*00
$GNGSA,A,3,34,15,05,03,09,36,,,,,,,1.07,0.62,0.87,3*07
$GNVTG,,T,,M,0.095,N,0.176,K,A*31
$SMGPS,-0.0 m,-0.00 m/s,7.21 VRx,0.000 km,7 m,188.4 °,1:-- (  0.0 km/h),476.5 m*BF
$SMGPS2,-0.26 X,+0.14 Y,+0.90 Z,0 ENL,0 us,0.0 kmh,967.22 hPa,967.09 hPa,+0.02 m/s*0A
$GNRMC,165848.90,A,4816.48024,N,01139.86592,E,0.11,,080522,,,A,V*2D
$GNGNS,165848.90,4816.48024,N,01139.86592,E,AAAN,21,0.62,453.5,46.2,,,V*19
$GNGSA,A,3,01,22,27,32,21,08,10,03,14,,,,1.07,0.62,0.87,1*05
$GNGSA,A,3,65,88,81,66,87,82,,,,,,,1.07,0.62,0.87,2*00
$GNGSA,A,3,34,15,05,03,09,36,,,,,,,1.07,0.62,0.87,3*07
$GNVTG,,T,,M,0.105,N,0.194,K,A*35
$SMGPS,-0.0 m,-0.00 m/s,7.22 VRx,0.000 km,7 m,188.4 °,1:-- (  0.0 km/h),476.4 m*BD
$SMGPS2,-0.31 X,+0.16 Y,+0.95 Z,0 ENL,0 us,0.0 kmh,967.22 hPa,967.09 hPa,+0.02 m/s*0B
$GNRMC,165849.00,A,4816.48023,N,01139.86592,E,0.01,,080522,,,A,V*23
$GNGNS,165849.00,4816.48023,N,01139.86592,E,AAAN,21,0.62,453.5,46.2,,,V*16
$GNGSA,A,3,01,22,27,32,21,08,10,03,14,,,,1.07,0.62,0.87,1*05
$GNGSA,A,3,65,88,81,66,87,82,,,,,,,1.07,0.62,0.87,2*00
$GNGSA,A,3,34,15,05,03,09,36,,,,,,,1.07,0.62,0.87,3*07
$GNVTG,,T,,M,0.012,N,0.023,K,A*3F
$SMGPS,0.0 m,-0.00 m/s,7.20 VRx,0.000 km,7 m,188.4 °,1:-- (  0.0 km/h),476.3 m*95
$SMGPS2,-0.25 X,+0.10 Y,+0.91 Z,1 ENL,0 us,0.0 kmh,967.22 hPa,967.09 hPa,+0.02 m/s*0D
$GNRMC,165849.10,A,4816.48022,N,01139.86594,E,0.17,,080522,,,A,V*22
$GNGNS,165849.10,4816.48022,N,01139.86594,E,AAAN,21,0.62,453.5,46.2,,,V*10
$GNGSA,A,3,01,22,27,32,21,08,10,03,14,,,,1.07,0.62,0.87,1*05
$GNGSA,A,3,65,88,81,66,87,82,,,,,,,1.07,0.62,0.87,2*00
$GNGSA,A,3,34,15,05,03,09,36,,,,,,,1.07,0.62,0.87,3*07
$GNVTG,,T,,M,0.170,N,0.315,K,A*3C
$SMGPS,0.0 m,-0.00 m/s,7.22 VRx,0.000 km,7 m,188.4 °,1:-- (  0.0 km/h),476.3 m*97
$SMGPS2,-0.28 X,+0.13 Y,+0.90 Z,0 ENL,0 us,0.0 kmh,967.22 hPa,967.09 hPa,+0.02 m/s*03
$GNRMC,165849.20,A,4816.48020,N,01139.86595,E,0.14,,080522,,,A,V*21
$GNGNS,165849.20,4816.48020,N,01139.86595,E,AAAN,21,0.62,453.5,46.2,,,V*10
$GNGSA,A,3,01,22,27,32,21,08,10,03,14,,,,1.07,0.62,0.87,1*05
$GNGSA,A,3,65,88,81,66,87,82,,,,,,,1.07,0.62,0.87,2*00
$GNGSA,A,3,34,15,05,03,09,36,,,,,,,1.07,0.62,0.87,3*07
$GNVTG,,T,,M,0.136,N,0.252,K,A*3C
$SMGPS,0.0 m,+0.01 m/s,7.20 VRx,0.000 km,8 m,187.5 °,1:-- (  0.0 km/h),476.2 m*92
$SMGPS2,-0.24 X,+0.15 Y,+0.89 Z,1 ENL,0 us,0.0 kmh,967.22 hPa,967.09 hPa,+0.02 m/s*00
$GNRMC,165849.30,A,4816.48019,N,01139.86596,E,0.20,,080522,,,A,V*2E
$GNGNS,165849.30,4816.48019,N,01139.86596,E,AAAN,21,0.62,453.5,46.2,,,V*18
$GNGSA,A,3,01,22,27,32,21,08,10,03,14,,,,1.07,0.62,0.87,1*05
$GNGSA,A,3,65,88,81,66,87,82,,,,,,,1.07,0.62,0.87,2*00
$GNGSA,A,3,34,15,05,03,09,36,,,,,,,1.07,0.62,0.87,3*07
$GNVTG,,T,,M,0.201,N,0.372,K,A*38
$SMGPS,-0.0 m,+0.00 m/s,7.23 VRx,0.000 km,8 m,187.5 °,1:-- (  0.0 km/h),476.2 m*BD
$SMGPS2,-0.34 X,+0.12 Y,+0.96 Z,10 ENL,0 us,0.0 kmh,967.22 hPa,967.09 hPa,+0.01 m/s*3B
$GNRMC,165849.40,A,4816.48017,N,01139.86598,E,0.12,,080522,,,A,V*28
$GNGNS,165849.40,4816.48017,N,01139.86598,E,AAAN,21,0.62,453.5,46.2,,,V*1F
$GNGSA,A,3,01,22,27,32,21,08,10,03,14,,,,1.07,0.62,0.87,1*05
$GNGSA,A,3,65,88,81,66,87,82,,,,,,,1.07,0.62,0.87,2*00
$GNGSA,A,3,34,15,05,03,09,36,,,,,,,1.07,0.62,0.87,3*07
$GNVTG,,T,,M,0.118,N,0.218,K,A*3E
$SMGPS,0.0 m,-0.00 m/s,7.19 VRx,0.000 km,8 m,187.5 °,1:-- (  0.0 km/h),476.2 m*9F
$SMGPS2,-0.31 X,+0.18 Y,+0.91 Z,22 ENL,0 us,0.0 kmh,967.22 hPa,967.09 hPa,+0.01 m/s*32
$GNRMC,165849.50,A,4816.48016,N,01139.86599,E,0.07,,080522,,,A,V*2D
$GNGNS,165849.50,4816.48016,N,01139.86599,E,AAAN,21,0.62,453.5,46.2,,,V*1E
$GNGSA,A,3,01,22,27,32,21,08,10,03,14,,,,1.07,0.62,0.87,1*05
$GNGSA,A,3,65,88,81,66,87,82,,,,,,,1.07,0.62,0.87,2*00
$GNGSA,A,3,34,15,05,03,09,36,,,,,,,1.07,0.62,0.87,3*07
$GNVTG,,T,,M,0.071,N,0.131,K,A*38
$SMGPS,-0.0 m,-0.00 m/s,7.23 VRx,0.000 km,8 m,187.5 °,1:-- (  0.0 km/h),476.3 m*BA
$SMGPS2,-0.27 X,+0.10 Y,+0.89 Z,1 ENL,0 us,0.0 kmh,967.22 hPa,967.09 hPa,+0.00 m/s*04
$GNRMC,165849.60,A,4816.48015,N,01139.86599,E,0.09,,080522,,,A,V*23
$GNGNS,165849.60,4816.48015,N,01139.86599,E,AAAN,21,0.62,453.5,46.2,,,V*1E
$GNGSA,A,3,01,22,27,32,21,08,10,03,14,,,,1.07,0.62,0.87,1*05
$GNGSA,A,3,65,88,81,66,87,82,,,,,,,1.07,0.62,0.87,2*00
$GNGSA,A,3,34,15,05,03,09,36,,,,,,,1.07,0.62,0.87,3*07
$GNVTG,,T,,M,0.093,N,0.172,K,A*33
$SMGPS,-0.0 m,+0.00 m/s,7.20 VRx,0.000 km,8 m,187.5 °,1:-- (  0.0 km/h),476.3 m*BF
$SMGPS2,-0.30 X,+0.19 Y,+0.91 Z,0 ENL,0 us,0.0 kmh,967.22 hPa,967.09 hPa,+0.00 m/s*03
$GNRMC,165849.70,A,4816.48014,N,01139.86598,E,0.44,,080522,,,A,V*2B
$GNGNS,165849.70,4816.48014,N,01139.86598,E,AAAN,21,0.62,453.5,46.2,,,V*1F
$GNGSA,A,3,01,22,27,32,21,08,10,03,14,,,,1.07,0.62,0.87,1*05
$GNGSA,A,3,65,88,81,66,87,82,,,,,,,1.07,0.62,0.87,2*00
$GNGSA,A,3,34,15,05,03,09,36,,,,,,,1.07,0.62,0.87,3*07
$GNVTG,,T,,M,0.440,N,0.814,K,A*30
$SMGPS,-0.0 m,-0.00 m/s,7.23 VRx,0.000 km,8 m,187.5 °,1:-- (  0.0 km/h),476.3 m*BA
$SMGPS2,-0.31 X,+0.14 Y,+0.89 Z,0 ENL,0 us,0.0 kmh,967.22 hPa,967.09 hPa,+0.00 m/s*06
$GNRMC,165849.80,A,4816.48014,N,01139.86598,E,0.07,,080522,,,A,V*23
$GNGNS,165849.80,4816.48014,N,01139.86598,E,AAAN,21,0.62,453.6,46.2,,,V*13
$GNGSA,A,3,01,22,27,32,21,08,10,03,14,,,,1.07,0.62,0.87,1*05
$GNGSA,A,3,65,88,81,66,87,82,,,,,,,1.07,0.62,0.87,2*00
$GNGSA,A,3,34,15,05,03,09,36,,,,,,,1.07,0.62,0.87,3*07
$GNVTG,,T,,M,0.072,N,0.134,K,A*3E
$SMGPS,0.1 m,-0.00 m/s,7.22 VRx,0.000 km,8 m,187.5 °,1:-- (  0.0 km/h),476.3 m*97
$SMGPS2,-0.27 X,+0.19 Y,+0.93 Z,13 ENL,0 us,0.0 kmh,967.21 hPa,967.09 hPa,+0.01 m/s*37
$GNRMC,165849.90,A,4816.48014,N,01139.86598,E,0.27,,080522,,,A,V*20
$GNGNS,165849.90,4816.48014,N,01139.86598,E,AAAN,21,0.62,453.5,46.2,,,V*11
$GNGSA,A,3,01,22,27,32,21,08,10,03,14,,,,1.07,0.62,0.87,1*05
$GNGSA,A,3,65,88,81,66,87,82,,,,,,,1.07,0.62,0.87,2*00
$GNGSA,A,3,34,15,05,03,09,36,,,,,,,1.07,0.62,0.87,3*07
$GNVTG,,T,,M,0.265,N,0.490,K,A*31
$SMGPS,0.0 m,-0.00 m/s,7.23 VRx,0.000 km,8 m,187.5 °,1:-- (  0.0 km/h),476.4 m*90
$SMGPS2,-0.31 X,+0.14 Y,+0.93 Z,0 ENL,0 us,0.0 kmh,967.22 hPa,967.09 hPa,+0.01 m/s*0C
$GNRMC,165850.00,A,4816.48014,N,01139.86598,E,0.35,,080522,,,A,V*22
$GNGNS,165850.00,4816.48014,N,01139.86598,E,AAAN,21,0.62,453.5,46.2,,,V*10
$GNGSA,A,3,01,22,27,32,21,08,10,03,14,,,,1.07,0.62,0.87,1*05
$GNGSA,A,3,65,88,81,66,87,82,,,,,,,1.07,0.62,0.87,2*00
$GNGSA,A,3,34,15,05,03,09,36,,,,,,,1.07,0.62,0.87,3*07
$GNVTG,,T,,M,0.345,N,0.639,K,A*33
$SMGPS,0.0 m,-0.00 m/s,7.20 VRx,0.000 km,8 m,187.5 °,1:-- (  0.0 km/h),476.3 m*94
$SMGPS2,-0.31 X,+0.13 Y,+0.90 Z,2 ENL,0 us,0.0 kmh,967.22 hPa,967.09 hPa,+0.00 m/s*0B
$GNRMC,165850.10,A,4816.48014,N,01139.86597,E,0.17,,080522,,,A,V*2C
$GNGNS,165850.10,4816.48014,N,01139.86597,E,AAAN,21,0.62,453.5,46.2,,,V*1E
$GNGSA,A,3,01,22,27,32,21,08,10,03,14,,,,1.07,0.62,0.87,1*05
$GNGSA,A,3,65,88,81,66,87,82,,,,,,,1.07,0.62,0.87,2*00
$GNGSA,A,3,34,15,05,03,09,36,,,,,,,1.07,0.62,0.87,3*07
$GNVTG,,T,,M,0.173,N,0.321,K,A*38
$SMGPS,0.0 m,+0.00 m/s,7.22 VRx,0.000 km,8 m,187.5 °,1:-- (  0.0 km/h),476.3 m*90
$SMGPS2,-0.30 X,+0.10 Y,+0.91 Z,1 ENL,0 us,0.0 kmh,967.22 hPa,967.09 hPa,-0.00 m/s*0D
$GNRMC,165850.20,A,4816.48013,N,01139.86597,E,0.20,,080522,,,A,V*2C
$GNGNS,165850.20,4816.48013,N,01139.86597,E,AAAN,21,0.62,453.5,46.2,,,V*1A
$GNGSA,A,3,01,22,27,32,21,08,10,03,14,,,,1.07,0.62,0.87,1*05
$GNGSA,A,3,65,88,81,66,87,82,,,,,,,1.07,0.62,0.87,2*00
$GNGSA,A,3,34,15,05,03,09,36,,,,,,,1.07,0.62,0.87,3*07
$GNVTG,,T,,M,0.198,N,0.366,K,A*3E
$SMGPS,-0.0 m,+0.00 m/s,7.18 VRx,0.000 km,8 m,187.5 °,1:-- (  0.0 km/h),476.3 m*B4
$SMGPS2,-0.27 X,+0.06 Y,+0.92 Z,3 ENL,0 us,0.0 kmh,967.22 hPa,967.09 hPa,-0.01 m/s*0C
$GNRMC,165850.30,A,4816.48012,N,01139.86598,E,0.11,,080522,,,A,V*21
$GNGNS,165850.30,4816.48012,N,01139.86598,E,AAAN,21,0.62,453.5,46.2,,,V*15
$GNGSA,A,3,01,22,27,32,21,08,10,03,14,,,,1.07,0.62,0.87,1*05
$GNGSA,A,3,65,88,81,66,87,82,,,,,,,1.07,0.62,0.87,2*00
$GNGSA,A,3,34,15,05,03,09,36,,,,,,,1.07,0.62,0.87,3*07
$GNVTG,,T,,M,0.108,N,0.200,K,A*36
$SMGPS,-0.0 m,+0.00 m/s,7.22 VRx,0.000 km,8 m,187.5 °,1:-- (  0.0 km/h),476.3 m*BD
$SMGPS2,-0.32 X,+0.06 Y,+0.95 Z,0 ENL,0 us,0.0 kmh,967.22 hPa,967.09 hPa,-0.01 m/s*0C
$GNRMC,165850.40,A,4816.48012,N,01139.86599,E,0.21,,080522,,,A,V*24
$GNGNS,165850.40,4816.48012,N,01139.86599,E,AAAN,21,0.62,453.5,46.2,,,V*13
$GNGSA,A,3,01,22,27,32,21,08,10,03,14,,,,1.07,0.62,0.87,1*05
$GNGSA,A,3,65,88,81,66,87,82,,,,,,,1.07,0.62,0.87,2*00
$GNGSA,A,3,34,15,05,03,09,36,,,,,,,1.07,0.62,0.87,3*07
$GNVTG,,T,,M,0.214,N,0.395,K,A*35
$SMGPS,-0.0 m,+0.01 m/s,7.21 VRx,0.000 km,8 m,187.5 °,1:-- (  0.0 km/h),476.3 m*BF
$SMGPS2,-0.28 X,+0.02 Y,+0.94 Z,0 ENL,0 us,0.0 kmh,967.22 hPa,967.09 hPa,-0.01 m/s*02
$GNRMC,165850.50,A,4816.48011,N,01139.86600,E,0.06,,080522,,,A,V*20
$GNGNS,165850.50,4816.48011,N,01139.86600,E,AAAN,21,0.62,453.5,46.2,,,V*12
$GNGSA,A,3,01,22,27,32,21,08,10,03,14,,,,1.07,0.62,0.87,1*05
$GNGSA,A,3,65,88,81,66,87,82,,,,,,,1.07,0.62,0.87,2*00
$GNGSA,A,3,34,15,05,03,09,36,,,,,,,1.07,0.62,0.87,3*07
$GNVTG,,T,,M,0.058,N,0.107,K,A*36
$SMGPS,0.0 m,+0.01 m/s,7.25 VRx,0.000 km,8 m,187.5 °,1:-- (  0.0 km/h),476.3 m*96
$SMGPS2,-0.35 X,-0.01 Y,+0.96 Z,48 ENL,0 us,0.0 kmh,967.22 hPa,967.09 hPa,-0.01 m/s*35
$GNRMC,165850.60,A,4816.48010,N,01139.86600,E,0.20,,080522,,,A,V*26
$GNGNS,165850.60,4816.48010,N,01139.86600,E,AAAN,21,0.62,453.5,46.2,,,V*10
$GNGSA,A,3,01,22,27,32,21,08,10,03,14,,,,1.07,0.62,0.87,1*05
$GNGSA,A,3,65,88,81,66,87,82,,,,,,,1.07,0.62,0.87,2*00
$GNGSA,A,3,34,15,05,03,09,36,,,,,,,1.07,0.62,0.87,3*07
$GNVTG,,T,,M,0.196,N,0.363,K,A*35
$SMGPS,0.0 m,+0.00 m/s,7.21 VRx,0.000 km,8 m,187.5 °,1:-- (  0.0 km/h),476.3 m*93
$SMGPS2,-0.29 X,+0.06 Y,+0.90 Z,8 ENL,0 us,0.0 kmh,967.22 hPa,967.09 hPa,-0.01 m/s*0B
$GNRMC,165850.70,A,4816.48009,N,01139.86601,E,0.34,,080522,,,A,V*2B
$GNGNS,165850.70,4816.48009,N,01139.86601,E,AAAN,21,0.62,453.5,46.2,,,V*18
$GNGSA,A,3,01,22,27,32,21,08,10,03,14,,,,1.07,0.62,0.87,1*05
$GNGSA,A,3,65,88,81,66,87,82,,,,,,,1.07,0.62,0.87,2*00
$GNGSA,A,3,34,15,05,03,09,36,,,,,,,1.07,0.62,0.87,3*07
$GNVTG,,T,,M,0.337,N,0.624,K,A*3A
$SMGPS,-0.0 m,+0.00 m/s,7.23 VRx,0.000 km,8 m,187.5 °,1:-- (  0.0 km/h),476.3 m*BC
$SMGPS2,-0.34 X,+0.00 Y,+0.92 Z,4 ENL,0 us,0.0 kmh,967.22 hPa,967.09 hPa,-0.01 m/s*0F
$GNRMC,165850.80,A,4816.48008,N,01139.86602,E,0.26,,080522,,,A,V*25
$GNGNS,165850.80,4816.48008,N,01139.86602,E,AAAN,21,0.62,453.5,46.2,,,V*15
$GNGSA,A,3,01,22,27,32,21,08,10,03,14,,,,1.07,0.62,0.87,1*05
$GNGSA,A,3,65,88,81,66,87,82,,,,,,,1.07,0.62,0.87,2*00
$GNGSA,A,3,34,15,05,03,09,36,,,,,,,1.07,0.62,0.87,3*07
$GNVTG,,T,,M,0.256,N,0.475,K,A*3A
$SMGPS,-0.0 m,-0.00 m/s,7.17 VRx,0.000 km,8 m,187.5 °,1:-- (  0.0 km/h),476.3 m*BD
$SMGPS2,-0.36 X,+0.04 Y,+0.95 Z,0 ENL,0 us,0.0 kmh,967.22 hPa,967.09 hPa,-0.00 m/s*0B
$GNRMC,165850.90,A,4816.48006,N,01139.86602,E,0.15,,080522,,,A,V*2A
$GNGNS,165850.90,4816.48006,N,01139.86602,E,AAAN,21,0.62,453.5,46.2,,,V*1A
$GNGSA,A,3,01,22,27,32,21,08,10,03,14,,,,1.07,0.62,0.87,1*05
$GNGSA,A,3,65,88,81,66,87,82,,,,,,,1.07,0.62,0.87,2*00
$GNGSA,A,3,34,15,05,03,09,36,,,,,,,1.07,0.62,0.87,3*07
$GNVTG,,T,,M,0.145,N,0.269,K,A*30
$SMGPS,0.0 m,+0.00 m/s,7.23 VRx,0.000 km,8 m,187.5 °,1:-- (  0.0 km/h),476.2 m*90
$SMGPS2,-0.33 X,+0.03 Y,+0.89 Z,0 ENL,0 us,0.0 kmh,967.22 hPa,967.09 hPa,-0.00 m/s*04
$GNRMC,165851.00,A,4816.48005,N,01139.86603,E,0.24,,080522,,,A,V*22
$GNGNS,165851.00,4816.48005,N,01139.86603,E,AAAN,21,0.62,453.5,46.2,,,V*10
$GNGSA,A,3,01,22,27,32,21,08,10,03,14,,,,1.07,0.62,0.87,1*05
$GNGSA,A,3,65,88,81,66,87,82,,,,,,,1.07,0.62,0.87,2*00
$GNGSA,A,3,34,15,05,03,09,36,,,,,,,1.07,0.62,0.87,3*07
$GNVTG,,T,,M,0.241,N,0.447,K,A*3D
$SMGPS,0.0 m,+0.00 m/s,7.20 VRx,0.000 km,8 m,187.5 °,1:-- (  0.0 km/h),476.2 m*93
$SMGPS2,-0.34 X,+0.04 Y,+0.87 Z,1 ENL,0 us,0.0 kmh,967.22 hPa,967.09 hPa,-0.00 m/s*0B
$GNRMC,165851.10,A,4816.48005,N,01139.86602,E,0.07,,080522,,,A,V*23
$GNGNS,165851.10,4816.48005,N,01139.86602,E,AAAN,21,0.62,453.5,46.2,,,V*10
$GNGSA,A,3,01,22,27,32,21,08,10,03,14,,,,1.07,0.62,0.87,1*05
$GNGSA,A,3,65,88,81,66,87,82,,,,,,,1.07,0.62,0.87,2*00
$GNGSA,A,3,34,15,05,03,09,36,,,,,,,1.07,0.62,0.87,3*07
$GNVTG,,T,,M,0.074,N,0.137,K,A*3B
$SMGPS,0.0 m,+0.00 m/s,7.20 VRx,0.000 km,8 m,186.5 °,1:-- (  0.0 km/h),476.1 m*91
$SMGPS2,-0.35 X,+0.01 Y,+0.92 Z,4 ENL,0 us,0.0 kmh,967.22 hPa,967.09 hPa,-0.00 m/s*0E
$GNRMC,165851.20,A,4816.48004,N,01139.86602,E,0.19,,080522,,,A,V*2E
$GNGNS,165851.20,4816.48004,N,01139.86602,E,AAAN,21,0.62,453.5,46.2,,,V*12
$GNGSA,A,3,01,22,27,32,21,08,10,03,14,,,,1.07,0.62,0.87,1*05
$GNGSA,A,3,65,88,81,66,87,82,,,,,,,1.07,0.62,0.87,2*00
$GNGSA,A,3,34,15,05,03,09,36,,,,,,,1.07,0.62,0.87,3*07
$GNVTG,,T,,M,0.192,N,0.356,K,A*37
$SMGPS,-0.0 m,-0.00 m/s,7.20 VRx,0.000 km,8 m,187.5 °,1:-- (  0.0 km/h),476.1 m*BB
$SMGPS2,-0.40 X,+0.03 Y,+0.90 Z,1 ENL,0 us,0.0 kmh,967.22 hPa,967.09 hPa,-0.00 m/s*09
$GNRMC,165851.30,A,4816.48002,N,01139.86600,E,0.20,,080522,,,A,V*21
$GNGNS,165851.30,4816.48002,N,01139.86600,E,AAAN,21,0.62,453.5,46.2,,,V*17
$GNGSA,A,3,01,22,27,32,21,08,10,03,14,,,,1.07,0.62,0.87,1*05
$GNGSA,A,3,65,88,81,66,87,82,,,,,,,1.07,0.62,0.87,2*00
$GNGSA,A,3,34,15,05,03,09,36,,,,,,,1.07,0.62,0.87,3*07
$GNVTG,,T,,M,0.195,N,0.362,K,A*37
$SMGPS,-0.0 m,-0.00 m/s,7.22 VRx,0.000 km,8 m,187.5 °,1:-- (  0.0 km/h),476.0 m*B8
$SMGPS2,-0.37 X,+0.04 Y,+0.94 Z,0 ENL,0 us,0.0 kmh,967.22 hPa,967.09 hPa,-0.00 m/s*0B
$GNRMC,165851.40,A,4816.48001,N,01139.86602,E,0.22,,080522,,,A,V*25
$GNGNS,165851.40,4816.48001,N,01139.86602,E,AAAN,21,0.62,453.5,46.2,,,V*11
$GNGSA,A,3,01,22,27,32,21,08,10,03,14,,,,1.07,0.62,0.87,1*05
$GNGSA,A,3,65,88,81,66,87,82,,,,,,,1.07,0.62,0.87,2*00
$GNGSA,A,3,34,15,05,03,09,36,,,,,,,1.07,0.62,0.87,3*07
$GNVTG,,T,,M,0.218,N,0.404,K,A*36
$SMGPS,-0.0 m,-0.00 m/s,7.20 VRx,0.000 km,8 m,187.5 °,1:-- (  0.0 km/h),475.9 m*B0
$SMGPS2,-0.35 X,+0.03 Y,+0.89 Z,115 ENL,0 us,0.0 kmh,967.22 hPa,967.09 hPa,+0.00 m/s*01
$GNRMC,165851.50,A,4816.48001,N,01139.86604,E,0.25,,080522,,,A,V*25
$GNGNS,165851.50,4816.48001,N,01139.86604,E,AAAN,21,0.62,453.5,46.2,,,V*16
$GNGSA,A,3,01,22,27,32,21,08,10,03,14,,,,1.07,0.62,0.87,1*05
$GNGSA,A,3,65,88,81,66,87,82,,,,,,,1.07,0.62,0.87,2*00
$GNGSA,A,3,34,15,05,03,09,36,,,,,,,1.07,0.62,0.87,3*07
$GNVTG,,T,,M,0.246,N,0.456,K,A*3A
$SMGPS,0.0 m,-0.00 m/s,7.22 VRx,0.000 km,8 m,187.5 °,1:-- (  0.0 km/h),475.9 m*9F
$SMGPS2,-0.33 X,+0.02 Y,+0.90 Z,0 ENL,0 us,0.0 kmh,967.22 hPa,967.09 hPa,+0.01 m/s*0A
$GNRMC,165851.60,A,4816.48000,N,01139.86605,E,0.20,,080522,,,A,V*23
$GNGNS,165851.60,4816.48000,N,01139.86605,E,AAAN,21,0.62,453.5,46.2,,,V*15
$GNGSA,A,3,01,22,27,32,21,08,10,03,14,,,,1.07,0.62,0.87,1*05
$GNGSA,A,3,65,88,81,66,87,82,,,,,,,1.07,0.62,0.87,2*00
$GNGSA,A,3,34,15,05,03,09,36,,,,,,,1.07,0.62,0.87,3*07
$GNVTG,,T,,M,0.196,N,0.364,K,A*32
$SMGPS,-0.0 m,-0.00 m/s,7.19 VRx,0.000 km,8 m,186.5 °,1:-- (  0.0 km/h),475.8 m*BA
$SMGPS2,-0.37 X,+0.04 Y,+0.88 Z,2 ENL,0 us,0.0 kmh,967.22 hPa,967.09 hPa,+0.01 m/s*03
$GNRMC,165851.70,A,4816.48002,N,01139.86609,E,0.10,,080522,,,A,V*2F
$GNGNS,165851.70,4816.48002,N,01139.86609,E,AAAN,21,0.62,453.5,46.2,,,V*1A
$GNGSA,A,3,01,22,27,32,21,08,10,03,14,,,,1.07,0.62,0.87,1*05
$GNGSA,A,3,65,88,81,66,87,82,,,,,,,1.07,0.62,0.87,2*00
$GNGSA,A,3,34,15,05,03,09,36,,,,,,,1.07,0.62,0.87,3*07
$GNVTG,,T,,M,0.103,N,0.191,K,A*36
$SMGPS,-0.0 m,+0.00 m/s,7.22 VRx,0.000 km,8 m,186.5 °,1:-- (  0.0 km/h),475.8 m*B4
$SMGPS2,-0.37 X,+0.04 Y,+0.90 Z,3 ENL,0 us,0.0 kmh,967.22 hPa,967.10 hPa,+0.00 m/s*02
$GNRMC,165851.80,A,4816.48003,N,01139.86612,E,0.12,,080522,,,A,V*29
$GNGNS,165851.80,4816.48003,N,01139.86612,E,AAAN,21,0.62,453.5,46.2,,,V*1E
$GNGSA,A,3,01,22,27,32,21,08,10,03,14,,,,1.07,0.62,0.87,1*05
$GNGSA,A,3,65,88,81,66,87,82,,,,,,,1.07,0.62,0.87,2*00
$GNGSA,A,3,34,15,05,03,09,36,,,,,,,1.07,0.62,0.87,3*07
$GNVTG,,T,,M,0.117,N,0.218,K,A*31
$SMGPS,0.0 m,-0.00 m/s,7.19 VRx,0.000 km,8 m,186.5 °,1:-- (  0.0 km/h),475.8 m*97
$SMGPS2,-0.38 X,+0.06 Y,+0.91 Z,10 ENL,0 us,0.0 kmh,967.22 hPa,967.09 hPa,-0.00 m/s*32
$GNRMC,165851.90,A,4816.48003,N,01139.86612,E,0.08,,080522,,,A,V*23
$GNGNS,165851.90,4816.48003,N,01139.86612,E,AAAN,21,0.62,453.5,46.2,,,V*1F
$GNGSA,A,3,01,22,27,32,21,08,10,03,14,,,,1.07,0.62,0.87,1*05
$GNGSA,A,3,65,88,81,66,87,82,,,,,,,1.07,0.62,0.87,2*00
$GNGSA,A,3,34,15,05,03,09,36,,,,,,,1.07,0.62,0.87,3*07
$GNVTG,,T,,M,0.083,N,0.154,K,A*36
$SMGPS,0.0 m,-0.00 m/s,7.23 VRx,0.000 km,8 m,186.5 °,1:-- (  0.0 km/h),475.8 m*9E
$SMGPS2,-0.33 X,+0.03 Y,+0.91 Z,0 ENL,0 us,0.0 kmh,967.22 hPa,967.09 hPa,+0.00 m/s*0B
$GNRMC,165852.00,A,4816.48001,N,01139.86610,E,0.02,,080522,,,A,V*23
$GNGNS,165852.00,4816.48001,N,01139.86610,E,AAAN,22,0.59,453.5,46.2,,,V*1E
$GNGSA,A,3,01,22,27,32,21,08,10,03,14,,,,1.03,0.59,0.85,1*0B
$GNGSA,A,3,65,88,81,66,87,82,,,,,,,1.07,0.62,0.87,2*00
$GNGSA,A,3,34,15,05,03,09,36,,,,,,,1.07,0.62,0.87,3*07
$GNVTG,,T,,M,0.022,N,0.041,K,A*38
$SMGPS,-0.0 m,-0.00 m/s,7.19 VRx,0.000 km,8 m,186.5 °,1:-- (  0.0 km/h),475.8 m*BA
$SMGPS2,-0.39 X,+0.05 Y,+0.90 Z,0 ENL,0 us,0.0 kmh,967.22 hPa,967.09 hPa,-0.00 m/s*00
$GNRMC,165852.10,A,4816.48000,N,01139.86609,E,0.07,,080522,,,A,V*2E
$GNGNS,165852.10,4816.48000,N,01139.86609,E,AAAN,21,0.62,453.5,46.2,,,V*1D
$GNGSA,A,3,01,22,27,32,21,08,10,03,14,,,,1.07,0.62,0.87,1*05
$GNGSA,A,3,65,88,81,66,72,87,82,,,,,,1.03,0.59,0.85,2*0B
$GNGSA,A,3,34,15,05,03,09,36,,,,,,,1.03,0.59,0.85,3*09
$GNVTG,,T,,M,0.070,N,0.129,K,A*30
$SMGPS,-0.0 m,-0.01 m/s,7.21 VRx,0.000 km,8 m,186.5 °,1:-- (  0.0 km/h),476.0 m*BB
$SMGPS2,-0.37 X,+0.08 Y,+1.02 Z,112 ENL,0 us,0.0 kmh,967.22 hPa,967.09 hPa,-0.00 m/s*0B
$GNRMC,165852.20,A,4816.47997,N,01139.86607,E,0.15,,080522,,,A,V*28
$GNGNS,165852.20,4816.47997,N,01139.86607,E,AAAN,22,0.59,453.5,46.2,,,V*13
$GNGSA,A,3,01,22,27,32,21,08,10,03,14,,,,1.03,0.59,0.85,1*0B
$GNGSA,A,3,65,88,81,66,87,82,,,,,,,1.07,0.62,0.87,2*00
$GNGSA,A,3,34,15,05,03,09,36,,,,,,,1.07,0.62,0.87,3*07
$GNVTG,,T,,M,0.150,N,0.279,K,A*35
$SMGPS,0.0 m,-0.01 m/s,7.19 VRx,0.000 km,8 m,186.5 °,1:-- (  0.0 km/h),476.0 m*9D
$SMGPS2,-0.31 X,+0.06 Y,+0.89 Z,4 ENL,0 us,0.0 kmh,967.22 hPa,967.09 hPa,-0.01 m/s*06
$GNRMC,165852.30,A,4816.47996,N,01139.86606,E,0.10,,080522,,,A,V*2C
$GNGNS,165852.30,4816.47996,N,01139.86606,E,AAAN,22,0.59,453.6,46.2,,,V*11
$GNGSA,A,3,01,22,27,32,21,08,10,03,14,,,,1.03,0.59,0.85,1*0B
$GNGSA,A,3,65,88,81,66,72,87,82,,,,,,1.03,0.59,0.85,2*0B
$GNGSA,A,3,34,15,05,03,09,36,,,,,,,1.03,0.59,0.85,3*09
$GNVTG,,T,,M,0.098,N,0.181,K,A*34
$SMGPS,0.1 m,-0.01 m/s,7.21 VRx,0.000 km,8 m,186.5 °,1:-- (  0.0 km/h),476.1 m*96
$SMGPS2,-0.37 X,+0.05 Y,+0.90 Z,0 ENL,0 us,0.0 kmh,967.21 hPa,967.09 hPa,-0.00 m/s*0D
$GNRMC,165852.40,A,4816.47993,N,01139.86607,E,0.06,,080522,,,A,V*28
$GNGNS,165852.40,4816.47993,N,01139.86607,E,AAAN,22,0.59,453.5,46.2,,,V*11
$GNGSA,A,3,01,22,27,32,21,08,10,03,14,,,,1.03,0.59,0.85,1*0B
$GNGSA,A,3,65,88,81,66,72,87,82,,,,,,1.03,0.59,0.85,2*0B
$GNGSA,A,3,34,15,05,03,09,36,,,,,,,1.03,0.59,0.85,3*09
$GNVTG,,T,,M,0.059,N,0.109,K,A*39
$SMGPS,-0.0 m,-0.01 m/s,7.22 VRx,0.000 km,8 m,186.5 °,1:-- (  0.0 km/h),476.1 m*B9
$SMGPS2,-0.36 X,+0.06 Y,+0.94 Z,0 ENL,0 us,0.0 kmh,967.22 hPa,967.09 hPa,-0.00 m/s*08
$GNRMC,165852.50,A,4816.47993,N,01139.86607,E,0.24,,080522,,,A,V*29
$GNGNS,165852.50,4816.47993,N,01139.86607,E,AAAN,22,0.59,453.5,46.2,,,V*10
$GNGSA,A,3,01,22,27,32,21,08,10,03,14,,,,1.03,0.59,0.85,1*0B
$GNGSA,A,3,65,88,81,66,72,87,82,,,,,,1.03,0.59,0.85,2*0B
$GNGSA,A,3,34,15,05,03,09,36,,,,,,,1.03,0.59,0.85,3*09
$GNVTG,,T,,M,0.238,N,0.441,K,A*35
$SMGPS,-0.0 m,-0.01 m/s,7.22 VRx,0.000 km,8 m,186.5 °,1:-- (  0.0 km/h),476.2 m*BA
$SMGPS2,-0.35 X,+0.01 Y,+0.88 Z,0 ENL,0 us,0.0 kmh,967.22 hPa,967.09 hPa,+0.00 m/s*07
$GNRMC,165852.60,A,4816.47991,N,01139.86606,E,0.07,,080522,,,A,V*28
$GNGNS,165852.60,4816.47991,N,01139.86606,E,AAAN,22,0.59,453.5,46.2,,,V*10
$GNGSA,A,3,01,22,27,32,21,08,10,03,14,,,,1.03,0.59,0.85,1*0B
$GNGSA,A,3,65,88,81,66,72,87,82,,,,,,1.03,0.59,0.85,2*0B
$GNGSA,A,3,34,15,05,03,09,36,,,,,,,1.03,0.59,0.85,3*09
$GNVTG,,T,,M,0.071,N,0.132,K,A*3B
$SMGPS,0.0 m,-0.01 m/s,7.21 VRx,0.000 km,8 m,186.5 °,1:-- (  0.0 km/h),476.3 m*95
$SMGPS2,-0.38 X,-0.00 Y,+0.86 Z,89 ENL,0 us,0.0 kmh,967.22 hPa,967.08 hPa,+0.00 m/s*33
$GNRMC,165852.70,A,4816.47989,N,01139.86605,E,0.51,,080522,,,A,V*20
$GNGNS,165852.70,4816.47989,N,01139.86605,E,AAAN,22,0.59,453.5,46.2,,,V*1B
$GNGSA,A,3,01,22,27,32,21,08,10,03,14,,,,1.03,0.59,0.85,1*0B
$GNGSA,A,3,65,88,81,66,72,87,82,,,,,,1.03,0.59,0.85,2*0B
$GNGSA,A,3,34,15,05,03,09,36,,,,,,,1.03,0.59,0.85,3*09
$GNVTG,,T,,M,0.506,N,0.937,K,A*33
$SMGPS,-0.0 m,-0.01 m/s,7.25 VRx,0.000 km,8 m,186.5 °,1:-- (  0.0 km/h),476.5 m*BA
$SMGPS2,-0.35 X,-0.07 Y,+0.93 Z,33 ENL,0 us,0.0 kmh,967.22 hPa,967.09 hPa,-0.00 m/s*3B
$GNRMC,165852.80,A,4816.47987,N,01139.86605,E,0.31,,080522,,,A,V*27
$GNGNS,165852.80,4816.47987,N,01139.86605,E,AAAN,22,0.59,453.5,46.2,,,V*1A
$GNGSA,A,3,01,22,27,32,21,08,10,03,14,,,,1.03,0.59,0.85,1*0B
$GNGSA,A,3,65,88,81,66,72,87,82,,,,,,1.03,0.59,0.85,2*0B
$GNGSA,A,3,34,15,05,03,09,36,,,,,,,1.03,0.59,0.85,3*09
$GNVTG,,T,,M,0.306,N,0.566,K,A*3D
$SMGPS,-0.0 m,-0.00 m/s,7.23 VRx,0.000 km,8 m,186.5 °,1:-- (  0.0 km/h),476.6 m*BE
$SMGPS2,-0.35 X,-0.04 Y,+0.92 Z,0 ENL,0 us,0.0 kmh,967.22 hPa,967.09 hPa,-0.00 m/s*09
$GNRMC,165852.90,A,4816.47987,N,01139.86607,E,0.17,,080522,,,A,V*20
$GNGNS,165852.90,4816.47987,N,01139.86607,E,AAAN,22,0.59,453.5,46.2,,,V*19
$GNGSA,A,3,01,22,27,32,21,08,10,03,14,,,,1.03,0.59,0.85,1*0B
$GNGSA,A,3,65,88,81,66,72,87,82,,,,,,1.03,0.59,0.85,2*0B
$GNGSA,A,3,34,15,05,03,09,36,,,,,,,1.03,0.59,0.85,3*09
$GNVTG,,T,,M,0.169,N,0.313,K,A*32
$SMGPS,-0.0 m,-0.01 m/s,7.23 VRx,0.000 km,8 m,186.5 °,1:-- (  0.0 km/h),476.7 m*BE
$SMGPS2,-0.37 X,-0.15 Y,+0.88 Z,0 ENL,0 us,0.0 kmh,967.23 hPa,967.09 hPa,-0.00 m/s*01
$GNRMC,165853.00,A,4816.47988,N,01139.86608,E,0.04,,080522,,,A,V*2A
$GNGNS,165853.00,4816.47988,N,01139.86608,E,AAAN,22,0.59,453.5,46.2,,,V*11
$GNGSA,A,3,01,22,27,32,21,08,10,03,14,,,,1.03,0.59,0.85,1*0B
$GNGSA,A,3,65,88,81,66,72,87,82,,,,,,1.03,0.59,0.85,2*0B
$GNGSA,A,3,34,15,05,03,09,36,,,,,,,1.03,0.59,0.85,3*09
$GNVTG,,T,,M,0.021,N,0.038,K,A*35
$SMGPS,-0.0 m,-0.02 m/s,7.20 VRx,0.000 km,8 m,186.5 °,1:-- (  0.0 km/h),476.8 m*B1
$SMGPS2,-0.35 X,-0.14 Y,+0.87 Z,1 ENL,0 us,0.0 kmh,967.22 hPa,967.09 hPa,-0.01 m/s*0C
$GNRMC,165853.10,A,4816.47987,N,01139.86608,E,0.25,,080522,,,A,V*27
$GNGNS,165853.10,4816.47987,N,01139.86608,E,AAAN,22,0.59,453.5,46.2,,,V*1F
$GNGSA,A,3,01,22,27,32,21,08,10,03,14,,,,1.03,0.59,0.85,1*0B
$GNGSA,A,3,65,88,81,66,72,87,82,,,,,,1.03,0.59,0.85,2*0B
$GNGSA,A,3,34,15,05,03,09,36,,,,,,,1.03,0.59,0.85,3*09
$GNVTG,,T,,M,0.251,N,0.465,K,A*3C
$SMGPS,-0.0 m,-0.02 m/s,7.23 VRx,0.000 km,8 m,186.5 °,1:-- (  0.0 km/h),476.9 m*B3
$SMGPS2,-0.39 X,-0.12 Y,+1.08 Z,64 ENL,0 us,0.0 kmh,967.22 hPa,967.09 hPa,-0.00 m/s*32
$GNRMC,165853.20,A,4816.47984,N,01139.86608,E,0.18,,080522,,,A,V*29
$GNGNS,165853.20,4816.47984,N,01139.86608,E,AAAN,22,0.59,453.5,46.2,,,V*1F
$GNGSA,A,3,01,22,27,32,21,08,10,03,14,,,,1.03,0.59,0.85,1*0B
$GNGSA,A,3,65,88,81,66,72,87,82,,,,,,1.03,0.59,0.85,2*0B
$GNGSA,A,3,34,15,05,03,09,36,,,,,,,1.03,0.59,0.85,3*09
$GNVTG,,T,,M,0.174,N,0.323,K,A*3D
$SMGPS,-0.0 m,-0.02 m/s,7.19 VRx,0.000 km,8 m,186.5 °,1:-- (  0.0 km/h),477.0 m*B2
$SMGPS2,-0.38 X,-0.13 Y,+0.91 Z,1 ENL,0 us,0.0 kmh,967.22 hPa,967.09 hPa,-0.00 m/s*00
$GNRMC,165853.30,A,4816.47982,N,01139.86608,E,0.20,,080522,,,A,V*25
$GNGNS,165853.30,4816.47982,N,01139.86608,E,AAAN,21,0.62,453.5,46.2,,,V*13
$GNGSA,A,3,01,22,27,32,21,08,10,03,14,,,,1.07,0.62,0.87,1*05
$GNGSA,A,3,65,88,81,66,72,87,82,,,,,,1.03,0.59,0.85,2*0B
$GNGSA,A,3,34,15,05,03,09,36,,,,,,,1.03,0.59,0.85,3*09
$GNVTG,,T,,M,0.196,N,0.364,K,A*32
$SMGPS,-0.0 m,-0.02 m/s,7.23 VRx,0.000 km,8 m,186.5 °,1:-- (  0.0 km/h),477.2 m*B9
$SMGPS2,-0.35 X,-0.13 Y,+0.89 Z,0 ENL,0 us,0.0 kmh,967.23 hPa,967.09 hPa,-0.01 m/s*05
$GNRMC,165853.40,A,4816.47981,N,01139.86609,E,0.18,,080522,,,A,V*2B
$GNGNS,165853.40,4816.47981,N,01139.86609,E,AAAN,21,0.62,453.5,46.2,,,V*16
$GNGSA,A,3,01,22,27,32,21,08,10,03,14,,,,1.07,0.62,0.87,1*05
$GNGSA,A,3,65,88,81,66,87,82,,,,,,,1.07,0.62,0.87,2*00
$GNGSA,A,3,34,15,05,03,09,36,,,,,,,1.07,0.62,0.87,3*07
$GNVTG,,T,,M,0.177,N,0.328,K,A*35
$SMGPS,-0.0 m,-0.02 m/s,7.21 VRx,0.000 km,8 m,186.5 °,1:-- (  0.0 km/h),477.3 m*BA
$SMGPS2,-0.34 X,-0.13 Y,+0.90 Z,8 ENL,0 us,0.0 kmh,967.23 hPa,967.09 hPa,-0.00 m/s*05
$GNRMC,165853.50,A,4816.47980,N,01139.86609,E,0.41,,080522,,,A,V*27
$GNGNS,165853.50,4816.47980,N,01139.86609,E,AAAN,21,0.62,453.5,46.2,,,V*16
$GNGSA,A,3,01,22,27,32,21,08,10,03,14,,,,1.07,0.62,0.87,1*05
$GNGSA,A,3,65,88,81,66,87,82,,,,,,,1.07,0.62,0.87,2*00
$GNGSA,A,3,34,15,05,03,09,36,,,,,,,1.07,0.62,0.87,3*07
$GNVTG,,T,,M,0.406,N,0.752,K,A*3F
$SMGPS,0.0 m,-0.02 m/s,7.22 VRx,0.000 km,8 m,186.5 °,1:-- (  0.0 km/h),477.4 m*93
$SMGPS2,-0.31 X,-0.10 Y,+0.92 Z,1 ENL,0 us,0.0 kmh,967.22 hPa,967.09 hPa,-0.00 m/s*09
$GNRMC,165853.60,A,4816.47979,N,01139.86609,E,0.24,,080522,,,A,V*21
$GNGNS,165853.60,4816.47979,N,01139.86609,E,AAAN,21,0.62,453.5,46.2,,,V*13
$GNGSA,A,3,01,22,27,32,21,08,10,03,14,,,,1.07,0.62,0.87,1*05
$GNGSA,A,3,65,88,81,66,87,82,,,,,,,1.07,0.62,0.87,2*00
$GNGSA,A,3,34,15,05,03,09,36,,,,,,,1.07,0.62,0.87,3*07
$GNVTG,,T,,M,0.234,N,0.433,K,A*3C
$SMGPS,-0.0 m,-0.01 m/s,7.21 VRx,0.000 km,8 m,186.5 °,1:-- (  0.0 km/h),477.5 m*BF
$SMGPS2,-0.34 X,-0.10 Y,+0.92 Z,0 ENL,0 us,0.0 kmh,967.22 hPa,967.09 hPa,-0.00 m/s*0D
$GNRMC,165853.70,A,4816.47977,N,01139.86609,E,0.09,,080522,,,A,V*21
$GNGNS,165853.70,4816.47977,N,01139.86609,E,AAAN,21,0.62,453.5,46.2,,,V*1C
$GNGSA,A,3,01,22,27,32,21,08,10,03,14,,,,1.07,0.62,0.87,1*05
$GNGSA,A,3,65,88,81,66,87,82,,,,,,,1.07,0.62,0.87,2*00
$GNGSA,A,3,34,15,05,03,09,36,,,,,,,1.07,0.62,0.87,3*07
$GNVTG,,T,,M,0.086,N,0.159,K,A*3E
$SMGPS,0.0 m,-0.01 m/s,7.22 VRx,0.000 km,8 m,186.5 °,1:-- (  0.0 km/h),477.5 m*91
$SMGPS2,-0.30 X,-0.08 Y,+0.92 Z,0 ENL,0 us,0.0 kmh,967.22 hPa,967.09 hPa,-0.01 m/s*01
$GNRMC,165853.80,A,4816.47975,N,01139.86609,E,0.22,,080522,,,A,V*25
$GNGNS,165853.80,4816.47975,N,01139.86609,E,AAAN,21,0.62,453.5,46.2,,,V*11
$GNGSA,A,3,01,22,27,32,21,08,10,03,14,,,,1.07,0.62,0.87,1*05
$GNGSA,A,3,65,88,81,66,87,82,,,,,,,1.07,0.62,0.87,2*00
$GNGSA,A,3,34,15,05,03,09,36,,,,,,,1.07,0.62,0.87,3*07
$GNVTG,,T,,M,0.218,N,0.404,K,A*36
$SMGPS,-0.0 m,-0.01 m/s,7.22 VRx,0.000 km,8 m,186.5 °,1:-- (  0.0 km/h),477.6 m*BF
$SMGPS2,-0.39 X,-0.03 Y,+0.93 Z,0 ENL,0 us,0.0 kmh,967.22 hPa,967.09 hPa,-0.01 m/s*02
$GNRMC,165853.90,A,4816.47974,N,01139.86609,E,0.15,,080522,,,A,V*21
$GNGNS,165853.90,4816.47974,N,01139.86609,E,AAAN,21,0.62,453.5,46.2,,,V*11
$GNGSA,A,3,01,22,27,32,21,08,10,03,14,,,,1.07,0.62,0.87,1*05
$GNGSA,A,3,65,88,81,66,87,82,,,,,,,1.07,0.62,0.87,2*00
$GNGSA,A,3,34,15,05,03,09,36,,,,,,,1.07,0.62,0.87,3*07
$GNVTG,,T,,M,0.144,N,0.266,K,A*3E
$SMGPS,-0.0 m,-0.01 m/s,7.24 VRx,0.000 km,8 m,186.5 °,1:-- (  0.0 km/h),477.7 m*B8
$SMGPS2,-0.26 X,-0.06 Y,+0.93 Z,12 ENL,0 us,0.0 kmh,967.22 hPa,967.09 hPa,-0.00 m/s*3B
$GNRMC,165854.00,A,4816.47974,N,01139.86608,E,0.12,,080522,,,A,V*29
$GNGNS,165854.00,4816.47974,N,01139.86608,E,AAAN,21,0.62,453.6,46.2,,,V*1D
$GNGSA,A,3,01,22,27,32,21,08,10,03,14,,,,1.07,0.62,0.87,1*05
$GNGSA,A,3,65,88,81,66,87,82,,,,,,,1.07,0.62,0.87,2*00
$GNGSA,A,3,34,15,05,03,09,36,,,,,,,1.07,0.62,0.87,3*07
$GNVTG,,T,,M,0.121,N,0.225,K,A*3A
$SMGPS,0.1 m,-0.00 m/s,7.21 VRx,0.000 km,8 m,186.5 °,1:-- (  0.0 km/h),477.7 m*90
$SMGPS2,-0.36 X,-0.04 Y,+0.87 Z,0 ENL,0 us,0.0 kmh,967.22 hPa,967.09 hPa,-0.00 m/s*0E
$GNRMC,165854.10,A,4816.47974,N,01139.86607,E,0.26,,080522,,,A,V*20
$GNGNS,165854.10,4816.47974,N,01139.86607,E,AAAN,21,0.62,453.5,46.2,,,V*10
$GNGSA,A,3,01,22,27,32,21,08,10,03,14,,,,1.07,0.62,0.87,1*05
$GNGSA,A,3,65,88,81,66,87,82,,,,,,,1.07,0.62,0.87,2*00
$GNGSA,A,3,34,15,05,03,09,36,,,,,,,1.07,0.62,0.87,3*07
$GNVTG,,T,,M,0.263,N,0.487,K,A*31
$SMGPS,-0.0 m,+0.00 m/s,7.24 VRx,0.000 km,8 m,186.5 °,1:-- (  0.0 km/h),477.7 m*BF
$SMGPS2,-0.41 X,-0.02 Y,+0.97 Z,0 ENL,0 us,0.0 kmh,967.22 hPa,967.09 hPa,-0.01 m/s*08
$GNRMC,165854.20,A,4816.47973,N,01139.86606,E,0.08,,080522,,,A,V*29
$GNGNS,165854.20,4816.47973,N,01139.86606,E,AAAN,21,0.62,453.5,46.2,,,V*15
$GNGSA,A,3,01,22,27,32,21,08,10,03,14,,,,1.07,0.62,0.87,1*05
$GNGSA,A,3,65,88,81,66,87,82,,,,,,,1.07,0.62,0.87,2*00
$GNGSA,A,3,34,15,05,03,09,36,,,,,,,1.07,0.62,0.87,3*07
$GNVTG,,T,,M,0.080,N,0.148,K,A*38
$SMGPS,-0.0 m,+0.01 m/s,7.22 VRx,0.000 km,8 m,186.5 °,1:-- (  0.0 km/h),477.8 m*B7
$SMGPS2,-0.33 X,-0.03 Y,+0.90 Z,1 ENL,0 us,0.0 kmh,967.22 hPa,967.09 hPa,-0.01 m/s*0A
$GNRMC,165854.30,A,4816.47973,N,01139.86607,E,0.20,,080522,,,A,V*23
$GNGNS,165854.30,4816.47973,N,01139.86607,E,AAAN,21,0.62,453.5,46.2,,,V*15
$GNGSA,A,3,01,22,27,32,21,08,10,03,14,,,,1.07,0.62,0.87,1*05
$GNGSA,A,3,65,88,81,66,87,82,,,,,,,1.07,0.62,0.87,2*00
$GNGSA,A,3,34,15,05,03,09,36,,,,,,,1.07,0.62,0.87,3*07
$GNVTG,,T,,M,0.203,N,0.376,K,A*3E
$SMGPS,0.0 m,+0.01 m/s,7.25 VRx,0.000 km,9 m,185.9 °,1:-- (  0.0 km/h),477.8 m*93
$SMGPS2,-0.26 X,+0.03 Y,+0.98 Z,14 ENL,0 us,0.0 kmh,967.22 hPa,967.09 hPa,-0.01 m/s*34
$GNRMC,165854.40,A,4816.47972,N,01139.86607,E,0.11,,080522,,,A,V*27
$GNGNS,165854.40,4816.47972,N,01139.86607,E,AAAN,21,0.62,453.5,46.2,,,V*13
$GNGSA,A,3,01,22,27,32,21,08,10,03,14,,,,1.07,0.62,0.87,1*05
$GNGSA,A,3,65,88,81,66,87,82,,,,,,,1.07,0.62,0.87,2*00
$GNGSA,A,3,34,15,05,03,09,36,,,,,,,1.07,0.62,0.87,3*07
$GNVTG,,T,,M,0.105,N,0.195,K,A*34
$SMGPS,-0.0 m,+0.00 m/s,7.22 VRx,0.000 km,9 m,185.9 °,1:-- (  0.0 km/h),477.7 m*B7
$SMGPS2,-0.28 X,+0.05 Y,+0.91 Z,0 ENL,0 us,0.0 kmh,967.23 hPa,967.09 hPa,-0.01 m/s*01
$GNRMC,165854.50,A,4816.47970,N,01139.86606,E,0.08,,080522,,,A,V*2D
$GNGNS,165854.50,4816.47970,N,01139.86606,E,AAAN,21,0.62,453.5,46.2,,,V*11
$GNGSA,A,3,01,22,27,32,21,08,10,03,14,,,,1.07,0.62,0.87,1*05
$GNGSA,A,3,65,88,81,66,87,82,,,,,,,1.07,0.62,0.87,2*00
$GNGSA,A,3,34,15,05,03,09,36,,,,,,,1.07,0.62,0.87,3*07
$GNVTG,,T,,M,0.077,N,0.143,K,A*3B
$SMGPS,-0.0 m,+0.01 m/s,7.25 VRx,0.000 km,9 m,185.9 °,1:-- (  0.0 km/h),477.8 m*BE
$SMGPS2,-0.30 X,+0.00 Y,+0.90 Z,0 ENL,0 us,0.0 kmh,967.22 hPa,967.09 hPa,-0.00 m/s*0C
$GNRMC,165854.60,A,4816.47970,N,01139.86605,E,0.28,,080522,,,A,V*2F
$GNGNS,165854.60,4816.47970,N,01139.86605,E,AAAN,21,0.62,453.5,46.2,,,V*11
$GNGSA,A,3,01,22,27,32,21,08,10,03,14,,,,1.07,0.62,0.87,1*05
$GNGSA,A,3,65,88,81,66,87,82,,,,,,,1.07,0.62,0.87,2*00
$GNGSA,A,3,34,15,05,03,09,36,,,,,,,1.07,0.62,0.87,3*07
$GNVTG,,T,,M,0.278,N,0.515,K,A*31
$SMGPS,0.0 m,+0.01 m/s,7.21 VRx,0.000 km,9 m,185.9 °,1:-- (  0.0 km/h),477.8 m*97
$SMGPS2,-0.28 X,+0.02 Y,+0.89 Z,2 ENL,0 us,0.0 kmh,967.22 hPa,967.09 hPa,-0.01 m/s*0C
$GNRMC,165854.70,A,4816.47969,N,01139.86605,E,0.15,,080522,,,A,V*28
$GNGNS,165854.70,4816.47969,N,01139.86605,E,AAAN,21,0.62,453.5,46.2,,,V*18
$GNGSA,A,3,01,22,27,32,21,08,10,03,14,,,,1.07,0.62,0.87,1*05
$GNGSA,A,3,65,88,81,66,87,82,,,,,,,1.07,0.62,0.87,2*00
$GNGSA,A,3,34,15,05,03,09,36,,,,,,,1.07,0.62,0.87,3*07
$GNVTG,,T,,M,0.150,N,0.278,K,A*34
$SMGPS,0.0 m,+0.01 m/s,7.25 VRx,0.000 km,9 m,185.9 °,1:-- (  0.0 km/h),477.8 m*93
$SMGPS2,-0.35 X,-0.03 Y,+0.94 Z,0 ENL,0 us,0.0 kmh,967.22 hPa,967.09 hPa,-0.01 m/s*09
$GNRMC,165854.80,A,4816.47968,N,01139.86606,E,0.03,,080522,,,A,V*22
$GNGNS,165854.80,4816.47968,N,01139.86606,E,AAAN,21,0.62,453.5,46.2,,,V*15
$GNGSA,A,3,01,22,27,32,21,08,10,03,14,,,,1.07,0.62,0.87,1*05
$GNGSA,A,3,65,88,81,66,87,82,,,,,,,1.07,0.62,0.87,2*00
$GNGSA,A,3,34,15,05,03,09,36,,,,,,,1.07,0.62,0.87,3*07
$GNVTG,,T,,M,0.030,N,0.056,K,A*3D
$SMGPS,0.0 m,+0.00 m/s,7.23 VRx,0.000 km,9 m,185.9 °,1:-- (  0.0 km/h),477.8 m*94
$SMGPS2,-0.34 X,-0.03 Y,+0.94 Z,0 ENL,0 us,0.0 kmh,967.22 hPa,967.09 hPa,-0.00 m/s*09
$GNRMC,165854.90,A,4816.47968,N,01139.86607,E,0.01,,080522,,,A,V*20
$GNGNS,165854.90,4816.47968,N,01139.86607,E,AAAN,21,0.62,453.5,46.2,,,V*15
$GNGSA,A,3,01,22,27,32,21,08,10,03,14,,,,1.07,0.62,0.87,1*05
$GNGSA,A,3,65,88,81,66,87,82,,,,,,,1.07,0.62,0.87,2*00
$GNGSA,A,3,34,15,05,03,09,36,,,,,,,1.07,0.62,0.87,3*07
$GNVTG,,T,,M,0.012,N,0.021,K,A*3D
$SMGPS,-0.0 m,+0.00 m/s,7.24 VRx,0.000 km,9 m,185.9 °,1:-- (  0.0 km/h),477.7 m*B1
$SMGPS2,-0.31 X,-0.01 Y,+0.89 Z,0 ENL,0 us,0.0 kmh,967.22 hPa,967.09 hPa,+0.00 m/s*04
$GNRMC,165855.00,A,4816.47967,N,01139.86607,E,0.14,,080522,,,A,V*23
$GNGNS,165855.00,4816.47967,N,01139.86607,E,AAAN,21,0.62,453.5,46.2,,,V*12
$GNGSA,A,3,01,22,27,32,21,08,10,03,14,,,,1.07,0.62,0.87,1*05
$GNGSA,A,3,65,88,81,66,87,82,,,,,,,1.07,0.62,0.87,2*00
$GNGSA,A,3,34,15,05,03,09,36,,,,,,,1.07,0.62,0.87,3*07
$GNVTG,,T,,M,0.143,N,0.264,K,A*3B
$SMGPS,0.0 m,+0.00 m/s,7.22 VRx,0.000 km,9 m,185.9 °,1:-- (  0.0 km/h),477.7 m*9A
$SMGPS2,-0.33 X,-0.00 Y,+0.91 Z,0 ENL,0 us,0.0 kmh,967.22 hPa,967.09 hPa,+0.00 m/s*0E
$GNRMC,165855.10,A,4816.47965,N,01139.86607,E,0.02,,080522,,,A,V*27
$GNGNS,165855.10,4816.47965,N,01139.86607,E,AAAN,21,0.62,453.5,46.2,,,V*11
$GNGSA,A,3,01,22,27,32,21,08,10,03,14,,,,1.07,0.62,0.87,1*05
$GNGSA,A,3,65,88,81,66,87,82,,,,,,,1.07,0.62,0.87,2*00
$GNGSA,A,3,34,15,05,03,09,36,,,,,,,1.07,0.62,0.87,3*07
$GNVTG,,T,,M,0.012,N,0.023,K,A*3F
$SMGPS,0.0 m,+0.01 m/s,7.23 VRx,0.000 km,9 m,185.9 °,1:-- (  0.0 km/h),477.7 m*9A
$SMGPS2,-0.34 X,+0.01 Y,+0.93 Z,0 ENL,0 us,0.0 kmh,967.22 hPa,967.09 hPa,+0.00 m/s*0C
$GNRMC,165855.20,A,4816.47964,N,01139.86607,E,0.12,,080522,,,A,V*24
$GNGNS,165855.20,4816.47964,N,01139.86607,E,AAAN,21,0.62,453.5,46.2,,,V*13
$GNGSA,A,3,01,22,27,32,21,08,10,03,14,,,,1.07,0.62,0.87,1*05
$GNGSA,A,3,65,88,81,66,87,82,,,,,,,1.07,0.62,0.87,2*00
$GNGSA,A,3,34,15,05,03,09,36,,,,,,,1.07,0.62,0.87,3*07
$GNVTG,,T,,M,0.117,N,0.216,K,A*3F
$SMGPS,0.0 m,+0.01 m/s,7.23 VRx,0.000 km,9 m,185.9 °,1:-- (  0.0 km/h),477.7 m*9A
$SMGPS2,-0.33 X,+0.00 Y,+0.99 Z,0 ENL,0 us,0.0 kmh,967.22 hPa,967.09 hPa,+0.00 m/s*00
$GNRMC,165855.30,A,4816.47963,N,01139.86606,E,0.21,,080522,,,A,V*23
$GNGNS,165855.30,4816.47963,N,01139.86606,E,AAAN,21,0.62,453.5,46.2,,,V*14
$GNGSA,A,3,01,22,27,32,21,08,10,03,14,,,,1.07,0.62,0.87,1*05
$GNGSA,A,3,65,88,81,66,87,82,,,,,,,1.07,0.62,0.87,2*00
$GNGSA,A,3,34,15,05,03,09,36,,,,,,,1.07,0.62,0.87,3*07
$GNVTG,,T,,M,0.210,N,0.389,K,A*3C
$SMGPS,-0.0 m,+0.01 m/s,7.24 VRx,0.000 km,9 m,185.9 °,1:-- (  0.0 km/h),477.6 m*B1
$SMGPS2,-0.29 X,+0.03 Y,+0.91 Z,0 ENL,0 us,0.0 kmh,967.22 hPa,967.09 hPa,+0.00 m/s*00
$GNRMC,165855.40,A,4816.47961,N,01139.86605,E,0.06,,080522,,,A,V*20
$GNGNS,165855.40,4816.47961,N,01139.86605,E,AAAN,21,0.62,453.5,46.2,,,V*12
$GNGSA,A,3,01,22,27,32,21,08,10,03,14,,,,1.07,0.62,0.87,1*05
$GNGSA,A,3,65,88,81,66,87,82,,,,,,,1.07,0.62,0.87,2*00
$GNGSA,A,3,34,15,05,03,09,36,,,,,,,1.07,0.62,0.87,3*07
$GNVTG,,T,,M,0.058,N,0.107,K,A*36
$SMGPS,0.0 m,+0.01 m/s,7.22 VRx,0.000 km,9 m,185.9 °,1:-- (  0.0 km/h),477.6 m*9A
$SMGPS2,-0.31 X,+0.05 Y,+0.93 Z,3 ENL,0 us,0.0 kmh,967.22 hPa,967.09 hPa,+0.01 m/s*0F
$GNRMC,165855.50,A,4816.47961,N,01139.86606,E,0.30,,080522,,,A,V*27
$GNGNS,165855.50,4816.47961,N,01139.86606,E,AAAN,21,0.62,453.5,46.2,,,V*10
$GNGSA,A,3,01,22,27,32,21,08,10,03,14,,,,1.07,0.62,0.87,1*05
$GNGSA,A,3,65,88,81,66,87,82,,,,,,,1.07,0.62,0.87,2*00
$GNGSA,A,3,34,15,05,03,09,36,,,,,,,1.07,0.62,0.87,3*07
$GNVTG,,T,,M,0.301,N,0.558,K,A*37
$SMGPS,-0.0 m,+0.00 m/s,7.25 VRx,0.000 km,9 m,185.9 °,1:-- (  0.0 km/h),477.5 m*B2
$SMGPS2,-0.34 X,+0.07 Y,+0.92 Z,0 ENL,0 us,0.0 kmh,967.22 hPa,967.09 hPa,+0.01 m/s*0A
$GNRMC,165855.60,A,4816.47959,N,01139.86606,E,0.19,,080522,,,A,V*24
$GNGNS,165855.60,4816.47959,N,01139.86606,E,AAAN,21,0.62,453.5,46.2,,,V*18
$GNGSA,A,3,01,22,27,32,21,08,10,03,14,,,,1.07,0.62,0.87,1*05
$GNGSA,A,3,65,88,81,66,87,82,,,,,,,1.07,0.62,0.87,2*00
$GNGSA,A,3,34,15,05,03,09,36,,,,,,,1.07,0.62,0.87,3*07
$GNVTG,,T,,M,0.191,N,0.355,K,A*37
$SMGPS,0.0 m,+0.00 m/s,7.21 VRx,0.000 km,9 m,185.9 °,1:-- (  0.0 km/h),477.5 m*9B
$SMGPS2,-0.34 X,+0.10 Y,+0.88 Z,1 ENL,0 us,0.0 kmh,967.22 hPa,967.09 hPa,+0.01 m/s*06
$GNRMC,165855.70,A,4816.47959,N,01139.86605,E,0.21,,080522,,,A,V*2D
$GNGNS,165855.70,4816.47959,N,01139.86605,E,AAAN,21,0.62,453.5,46.2,,,V*1A
$GNGSA,A,3,01,22,27,32,21,08,10,03,14,,,,1.07,0.62,0.87,1*05
$GNGSA,A,3,65,88,81,66,87,82,,,,,,,1.07,0.62,0.87,2*00
$GNGSA,A,3,34,15,05,03,09,36,,,,,,,1.07,0.62,0.87,3*07
$GNVTG,,T,,M,0.205,N,0.379,K,A*37
$SMGPS,-0.0 m,+0.00 m/s,7.25 VRx,0.000 km,9 m,185.9 °,1:-- (  0.0 km/h),477.4 m*B3
$SMGPS2,-0.34 X,+0.11 Y,+0.88 Z,0 ENL,0 us,0.0 kmh,967.22 hPa,967.09 hPa,+0.00 m/s*07
$GNRMC,165855.80,A,4816.47957,N,01139.86605,E,0.20,,080522,,,A,V*2D
$GNGNS,165855.80,4816.47957,N,01139.86605,E,AAAN,21,0.62,453.4,46.2,,,V*1A
$GNGSA,A,3,01,22,27,32,21,08,10,03,14,,,,1.07,0.62,0.87,1*05
$GNGSA,A,3,65,88,81,66,87,82,,,,,,,1.07,0.62,0.87,2*00
$GNGSA,A,3,34,15,05,03,09,36,,,,,,,1.07,0.62,0.87,3*07
$GNVTG,,T,,M,0.198,N,0.367,K,A*3F
$SMGPS,-0.1 m,-0.00 m/s,7.22 VRx,0.000 km,9 m,185.9 °,1:-- (  0.0 km/h),477.4 m*B3
$SMGPS2,-0.34 X,+0.14 Y,+0.90 Z,0 ENL,0 us,0.0 kmh,967.23 hPa,967.09 hPa,+0.01 m/s*0B
$GNRMC,165855.90,A,4816.47956,N,01139.86604,E,0.16,,080522,,,A,V*29
$GNGNS,165855.90,4816.47956,N,01139.86604,E,AAAN,21,0.62,453.5,46.2,,,V*1A
$GNGSA,A,3,01,22,27,32,21,08,10,03,14,,,,1.07,0.62,0.87,1*05
$GNGSA,A,3,65,88,81,66,87,82,,,,,,,1.07,0.62,0.87,2*00
$GNGSA,A,3,34,15,05,03,09,36,,,,,,,1.07,0.62,0.87,3*07
$GNVTG,,T,,M,0.162,N,0.300,K,A*3B
$SMGPS,0.0 m,-0.00 m/s,7.24 VRx,0.000 km,9 m,185.9 °,1:-- (  0.0 km/h),477.3 m*9E
$SMGPS2,-0.32 X,+0.13 Y,+0.92 Z,0 ENL,0 us,0.0 kmh,967.22 hPa,967.09 hPa,+0.01 m/s*09
$GNRMC,165856.00,A,4816.47954,N,01139.86604,E,0.20,,080522,,,A,V*24
$GNGNS,165856.00,4816.47954,N,01139.86604,E,AAAN,21,0.62,453.5,46.2,,,V*12
$GNGSA,A,3,01,22,27,32,21,08,10,03,14,,,,1.07,0.62,0.87,1*05
$GNGSA,A,3,65,88,81,66,87,82,,,,,,,1.07,0.62,0.87,2*00
$GNGSA,A,3,34,15,05,03,09,36,,,,,,,1.07,0.62,0.87,3*07
$GNVTG,,T,,M,0.204,N,0.378,K,A*37
