$GPSSETUP,8AE8,0,1,1,0,0,1,0,0,0,1,3,0,0,0,0,6,0,C8,C8,1F4,1C2,32,64,7C,64,7D0,5,1,1,1E,0,0,0,0,0,0,1003,4,10,5,6,10,10,10,10,10,10,10,10,10,BC10,0,80,0,108,302,604,0,20F,0,0,0,0,0,0,0,0,0,0,0,0,0,0,0,0,0,0,0,0,0,0,0,0,0,0,0,0,0,0,0,0,0,20,12C,1EC6*46
$GNRMC,170544.80,A,4816.48231,N,01139.86664,E,1.16,,080522,,,A,V*23
$GNGNS,170544.80,4816.48231,N,01139.86664,E,AAAN,16,0.78,452.5,46.2,,,V*1F
$GNGSA,A,3,01,08,21,32,27,10,14,,,,,,1.36,0.78,1.12,1*02
$GNGSA,A,3,81,65,88,66,82,,,,,,,,1.31,0.72,1.09,2*0C
$GNGSA,A,3,34,15,05,03,,,,,,,,,1.31,0.72,1.09,3*08
$GNVTG,,T,,M,1.158,N,2.144,K,A*33
$SMGPS,-0.0 m,-0.00 m/s,7.65 VRx,0.000 km,2 m,18.4 °,1:-- (  0.0 km/h),452.5 m*84
$SMGPS2,-0.09 X,+0.35 Y,+0.90 Z,0 ENL,0 us,0.0 kmh,967.30 hPa,967.15 hPa,-0.02 m/s*0C
$GNRMC,170544.90,A,4816.48249,N,01139.86653,E,0.23,,080522,,,A,V*2E
$GNGNS,170544.90,4816.48249,N,01139.86653,E,AAAN,18,0.69,452.5,46.2,,,V*1B
$GNGSA,A,3,01,08,21,32,22,03,27,10,14,,,,1.25,0.69,1.04,1*04
$GNGSA,A,3,81,65,88,66,82,,,,,,,,1.36,0.78,1.12,2*0B
$GNGSA,A,3,34,15,05,03,,,,,,,,,1.36,0.78,1.12,3*0F
$GNVTG,,T,,M,0.232,N,0.429,K,A*31
$SMGPS,-0.0 m,-0.00 m/s,7.65 VRx,0.000 km,0 m,270.0 °,1:-- (  0.0 km/h),454.8 m*B5
$SMGPS2,-0.10 X,+0.35 Y,+0.89 Z,1 ENL,0 us,0.0 kmh,967.30 hPa,967.15 hPa,-0.02 m/s*0D
$GNRMC,170545.00,A,4816.48266,N,01139.86680,E,0.35,,080522,,,A,V*22
$GNGNS,170545.00,4816.48266,N,01139.86680,E,AAAN,19,0.68,452.4,46.2,,,V*11
$GNGSA,A,3,01,08,21,32,22,03,27,10,14,,,,1.23,0.68,1.02,1*05
$GNGSA,A,3,81,65,88,66,82,,,,,,,,1.25,0.69,1.04,2*0E
$GNGSA,A,3,15,05,03,21,,,,,,,,,1.25,0.69,1.04,3*0E
$GNVTG,,T,,M,0.347,N,0.642,K,A*3D
$SMGPS,-0.1 m,-0.01 m/s,7.60 VRx,0.000 km,0 m,270.0 °,1:-- (  0.0 km/h),455.1 m*B8
$SMGPS2,-0.09 X,+0.35 Y,+0.89 Z,0 ENL,0 us,0.0 kmh,967.30 hPa,967.15 hPa,-0.02 m/s*04
$GNRMC,170545.10,A,4816.48266,N,01139.86696,E,0.15,,080522,,,A,V*26
$GNGNS,170545.10,4816.48266,N,01139.86696,E,AAAN,19,0.68,452.5,46.2,,,V*16
$GNGSA,A,3,01,08,21,32,22,03,27,10,14,,,,1.23,0.68,1.02,1*05
$GNGSA,A,3,81,65,88,66,82,,,,,,,,1.23,0.68,1.02,2*0F
$GNGSA,A,3,34,15,05,03,21,,,,,,,,1.23,0.68,1.02,3*08
$GNVTG,,T,,M,0.152,N,0.282,K,A*33
$SMGPS,-0.0 m,-0.00 m/s,7.57 VRx,0.000 km,0 m,0.0 °,1:-- (  0.0 km/h),456.1 m*BA
$SMGPS2,-0.10 X,+0.35 Y,+0.90 Z,0 ENL,0 us,0.0 kmh,967.29 hPa,967.15 hPa,-0.02 m/s*0C
$GNRMC,170545.20,A,4816.48274,N,01139.86716,E,0.11,,080522,,,A,V*2B
$GNGNS,170545.20,4816.48274,N,01139.86716,E,AAAN,19,0.68,452.6,46.2,,,V*1C
$GNGSA,A,3,01,08,21,32,22,03,27,10,14,,,,1.23,0.68,1.02,1*05
$GNGSA,A,3,81,65,88,66,82,,,,,,,,1.23,0.68,1.02,2*0F
$GNGSA,A,3,34,15,05,03,21,,,,,,,,1.23,0.68,1.02,3*08
$GNVTG,,T,,M,0.110,N,0.204,K,A*3B
$SMGPS,0.1 m,-0.00 m/s,7.58 VRx,0.000 km,0 m,90.0 °,1:-- (  0.0 km/h),457.3 m*A3
$SMGPS2,-0.10 X,+0.35 Y,+0.90 Z,0 ENL,0 us,0.0 kmh,967.29 hPa,967.14 hPa,-0.02 m/s*0D
$GNRMC,170545.30,A,4816.48283,N,01139.86733,E,0.49,,080522,,,A,V*28
$GNGNS,170545.30,4816.48283,N,01139.86733,E,AAAN,19,0.68,452.5,46.2,,,V*11
$GNGSA,A,3,01,08,21,32,22,03,27,10,14,,,,1.23,0.68,1.02,1*05
$GNGSA,A,3,81,65,88,66,82,,,,,,,,1.23,0.68,1.02,2*0F
$GNGSA,A,3,34,15,05,03,21,,,,,,,,1.23,0.68,1.02,3*08
$GNVTG,,T,,M,0.486,N,0.900,K,A*3E
$SMGPS,-0.0 m,-0.00 m/s,7.57 VRx,0.000 km,1 m,30.2 °,1:-- (  0.0 km/h),456.9 m*82
$SMGPS2,-0.10 X,+0.36 Y,+0.90 Z,0 ENL,0 us,0.0 kmh,967.29 hPa,967.14 hPa,-0.01 m/s*0D
$GNRMC,170545.40,A,4816.48296,N,01139.86739,E,0.36,,080522,,,A,V*29
$GNGNS,170545.40,4816.48296,N,01139.86739,E,AAAN,19,0.68,452.5,46.2,,,V*18
$GNGSA,A,3,01,08,21,32,22,03,27,10,14,,,,1.23,0.68,1.02,1*05
$GNGSA,A,3,81,65,88,66,82,,,,,,,,1.23,0.68,1.02,2*0F
$GNGSA,A,3,34,15,05,03,21,,,,,,,,1.23,0.68,1.02,3*08
$GNVTG,,T,,M,0.361,N,0.669,K,A*30
$SMGPS,0.0 m,-0.00 m/s,7.59 VRx,0.000 km,1 m,36.8 °,1:-- (  0.0 km/h),456.9 m*AD
$SMGPS2,-0.10 X,+0.35 Y,+0.90 Z,0 ENL,0 us,0.0 kmh,967.29 hPa,967.15 hPa,-0.01 m/s*0F
$GNRMC,170545.50,A,4816.48305,N,01139.86758,E,0.08,,080522,,,A,V*29
$GNGNS,170545.50,4816.48305,N,01139.86758,E,AAAN,21,0.62,452.5,46.2,,,V*14
$GNGSA,A,3,01,08,21,32,22,03,27,10,14,,,,1.10,0.62,0.91,1*04
$GNGSA,A,3,81,65,88,66,82,,,,,,,,1.23,0.68,1.02,2*0F
$GNGSA,A,3,34,15,05,03,21,,,,,,,,1.23,0.68,1.02,3*08
$GNVTG,,T,,M,0.079,N,0.146,K,A*30
$SMGPS,0.0 m,-0.00 m/s,7.56 VRx,0.000 km,1 m,42.5 °,1:-- (  0.0 km/h),457.2 m*A6
$SMGPS2,-0.09 X,+0.35 Y,+0.90 Z,0 ENL,0 us,0.0 kmh,967.29 hPa,967.15 hPa,-0.01 m/s*07
$GNRMC,170545.60,A,4816.48294,N,01139.86758,E,0.24,,080522,,,A,V*2D
$GNGNS,170545.60,4816.48294,N,01139.86758,E,AAAN,21,0.62,452.5,46.2,,,V*1E
$GNGSA,A,3,01,08,21,32,22,03,27,10,14,,,,1.10,0.62,0.91,1*04
$GNGSA,A,3,81,65,88,66,82,73,,,,,,,1.10,0.62,0.91,2*0A
$GNGSA,A,3,34,15,05,03,09,21,,,,,,,1.10,0.62,0.91,3*00
$GNVTG,,T,,M,0.244,N,0.452,K,A*3C
$SMGPS,-0.0 m,+0.00 m/s,7.59 VRx,0.000 km,1 m,47.2 °,1:-- (  0.0 km/h),457.5 m*87
$SMGPS2,-0.10 X,+0.35 Y,+0.89 Z,0 ENL,0 us,0.0 kmh,967.30 hPa,967.15 hPa,-0.00 m/s*0E
$GNRMC,170545.70,A,4816.48284,N,01139.86762,E,0.07,,080522,,,A,V*25
$GNGNS,170545.70,4816.48284,N,01139.86762,E,AAAN,21,0.62,452.5,46.2,,,V*17
$GNGSA,A,3,01,08,21,32,22,03,27,10,14,,,,1.10,0.62,0.91,1*04
$GNGSA,A,3,81,65,88,66,82,73,,,,,,,1.10,0.62,0.91,2*0A
$GNGSA,A,3,34,15,05,03,09,21,,,,,,,1.10,0.62,0.91,3*00
$GNVTG,,T,,M,0.071,N,0.131,K,A*38
$SMGPS,0.0 m,+0.00 m/s,7.56 VRx,0.000 km,1 m,47.2 °,1:-- (  0.0 km/h),458.0 m*AF
$SMGPS2,-0.10 X,+0.35 Y,+0.90 Z,0 ENL,0 us,0.0 kmh,967.29 hPa,967.15 hPa,-0.00 m/s*0E
$GNRMC,170545.80,A,4816.48284,N,01139.86760,E,0.21,,080522,,,A,V*2C
$GNGNS,170545.80,4816.48284,N,01139.86760,E,AAAN,22,0.59,452.5,46.2,,,V*11
$GNGSA,A,3,01,08,21,32,22,03,27,10,14,,,,1.02,0.59,0.83,1*0C
$GNGSA,A,3,81,65,88,66,82,73,,,,,,,1.10,0.62,0.91,2*0A
$GNGSA,A,3,34,15,05,03,09,21,,,,,,,1.10,0.62,0.91,3*00
$GNVTG,,T,,M,0.209,N,0.386,K,A*3B
$SMGPS,0.0 m,+0.00 m/s,7.59 VRx,0.000 km,1 m,51.3 °,1:-- (  0.0 km/h),458.9 m*AF
$SMGPS2,-0.10 X,+0.35 Y,+0.90 Z,0 ENL,0 us,0.0 kmh,967.29 hPa,967.15 hPa,-0.00 m/s*0E
$GNRMC,170545.90,A,4816.48280,N,01139.86759,E,0.13,,080522,,,A,V*22
$GNGNS,170545.90,4816.48280,N,01139.86759,E,AAAN,22,0.59,452.5,46.2,,,V*1E
$GNGSA,A,3,01,08,21,32,22,03,27,10,14,,,,1.02,0.59,0.83,1*0C
$GNGSA,A,3,81,65,88,66,82,73,,,,,,,1.02,0.59,0.83,2*02
$GNGSA,A,3,34,15,05,03,09,21,36,,,,,,1.02,0.59,0.83,3*0D
$GNVTG,,T,,M,0.134,N,0.248,K,A*35
$SMGPS,0.0 m,+0.00 m/s,7.58 VRx,0.000 km,1 m,47.2 °,1:-- (  0.0 km/h),459.7 m*A7
$SMGPS2,-0.10 X,+0.36 Y,+0.90 Z,0 ENL,0 us,0.0 kmh,967.29 hPa,967.14 hPa,-0.01 m/s*0D
$GNRMC,170546.00,A,4816.48283,N,01139.86762,E,0.03,,080522,,,A,V*22
$GNGNS,170546.00,4816.48283,N,01139.86762,E,AAAN,22,0.59,452.5,46.2,,,V*1F
$GNGSA,A,3,01,08,21,32,22,03,27,10,14,,,,1.02,0.59,0.83,1*0C
$GNGSA,A,3,81,65,88,66,82,73,,,,,,,1.02,0.59,0.83,2*02
$GNGSA,A,3,34,15,05,03,09,21,36,,,,,,1.02,0.59,0.83,3*0D
$GNVTG,,T,,M,0.027,N,0.050,K,A*3D
$SMGPS,0.0 m,+0.00 m/s,7.59 VRx,0.000 km,1 m,47.2 °,1:-- (  0.0 km/h),460.1 m*AA
$SMGPS2,-0.10 X,+0.35 Y,+0.89 Z,0 ENL,0 us,0.0 kmh,967.29 hPa,967.14 hPa,-0.01 m/s*06
$GNRMC,170546.10,A,4816.48288,N,01139.86768,E,0.14,,080522,,,A,V*24
$GNGNS,170546.10,4816.48288,N,01139.86768,E,AAAN,22,0.59,452.5,46.2,,,V*1F
$GNGSA,A,3,01,08,21,32,22,03,27,10,14,,,,1.02,0.59,0.83,1*0C
$GNGSA,A,3,81,65,88,66,82,73,,,,,,,1.02,0.59,0.83,2*02
$GNGSA,A,3,34,15,05,03,09,21,36,,,,,,1.02,0.59,0.83,3*0D
$GNVTG,,T,,M,0.141,N,0.262,K,A*3F
$SMGPS,-0.0 m,-0.00 m/s,7.57 VRx,0.000 km,1 m,51.3 °,1:-- (  0.0 km/h),460.5 m*8D
$SMGPS2,-0.10 X,+0.35 Y,+0.90 Z,0 ENL,0 us,0.0 kmh,967.30 hPa,967.14 hPa,-0.01 m/s*06
$GNRMC,170546.20,A,4816.48293,N,01139.86778,E,0.12,,080522,,,A,V*2A
$GNGNS,170546.20,4816.48293,N,01139.86778,E,AAAN,22,0.59,452.5,46.2,,,V*17
$GNGSA,A,3,01,08,21,32,22,03,27,10,14,,,,1.02,0.59,0.83,1*0C
$GNGSA,A,3,81,65,88,66,82,73,,,,,,,1.02,0.59,0.83,2*02
$GNGSA,A,3,34,15,05,03,09,21,36,,,,,,1.02,0.59,0.83,3*0D
$GNVTG,,T,,M,0.117,N,0.217,K,A*3E
$SMGPS,-0.0 m,-0.00 m/s,7.59 VRx,0.000 km,1 m,51.3 °,1:-- (  0.0 km/h),460.8 m*8E
$SMGPS2,-0.10 X,+0.35 Y,+0.90 Z,0 ENL,0 us,0.0 kmh,967.30 hPa,967.14 hPa,-0.00 m/s*07
$GNRMC,170546.30,A,4816.48294,N,01139.86796,E,0.12,,080522,,,A,V*2C
$GNGNS,170546.30,4816.48294,N,01139.86796,E,AAAN,22,0.59,452.5,46.2,,,V*11
$GNGSA,A,3,01,08,21,32,22,03,27,10,14,,,,1.02,0.59,0.83,1*0C
$GNGSA,A,3,81,65,88,66,82,73,,,,,,,1.02,0.59,0.83,2*02
$GNGSA,A,3,34,15,05,03,09,21,36,,,,,,1.02,0.59,0.83,3*0D
$GNVTG,,T,,M,0.124,N,0.230,K,A*3B
$SMGPS,0.0 m,-0.00 m/s,7.58 VRx,0.000 km,1 m,54.7 °,1:-- (  0.0 km/h),460.8 m*A3
$SMGPS2,-0.10 X,+0.35 Y,+0.90 Z,0 ENL,0 us,0.0 kmh,967.29 hPa,967.15 hPa,-0.01 m/s*0F
$GNRMC,170546.40,A,4816.48295,N,01139.86813,E,0.07,,080522,,,A,V*2C
$GNGNS,170546.40,4816.48295,N,01139.86813,E,AAAN,22,0.59,452.5,46.2,,,V*15
$GNGSA,A,3,01,08,21,32,22,03,27,10,14,,,,1.02,0.59,0.83,1*0C
$GNGSA,A,3,81,65,88,66,82,73,,,,,,,1.02,0.59,0.83,2*02
$GNGSA,A,3,34,15,05,03,09,21,36,,,,,,1.02,0.59,0.83,3*0D
$GNVTG,,T,,M,0.068,N,0.126,K,A*36
$SMGPS,-0.0 m,-0.01 m/s,7.60 VRx,0.000 km,2 m,57.7 °,1:-- (  0.0 km/h),461.1 m*8C
$SMGPS2,-0.09 X,+0.35 Y,+0.89 Z,0 ENL,0 us,0.0 kmh,967.30 hPa,967.15 hPa,-0.01 m/s*07
$GNRMC,170546.50,A,4816.48300,N,01139.86819,E,0.19,,080522,,,A,V*25
$GNGNS,170546.50,4816.48300,N,01139.86819,E,AAAN,22,0.59,452.5,46.2,,,V*13
$GNGSA,A,3,01,08,21,32,22,03,27,10,14,,,,1.02,0.59,0.83,1*0C
$GNGSA,A,3,81,65,88,66,82,73,,,,,,,1.02,0.59,0.83,2*02
$GNGSA,A,3,34,15,05,03,09,21,36,,,,,,1.02,0.59,0.83,3*0D
$GNVTG,,T,,M,0.185,N,0.343,K,A*35
$SMGPS,0.0 m,-0.00 m/s,7.58 VRx,0.000 km,2 m,63.4 °,1:-- (  0.0 km/h),461.4 m*AA
$SMGPS2,-0.10 X,+0.35 Y,+0.89 Z,0 ENL,0 us,0.0 kmh,967.29 hPa,967.15 hPa,-0.00 m/s*06
$GNRMC,170546.60,A,4816.48309,N,01139.86830,E,0.31,,080522,,,A,V*2E
$GNGNS,170546.60,4816.48309,N,01139.86830,E,AAAN,22,0.59,452.5,46.2,,,V*12
$GNGSA,A,3,01,08,21,32,22,03,27,10,14,,,,1.02,0.59,0.83,1*0C
$GNGSA,A,3,81,65,88,66,82,73,,,,,,,1.02,0.59,0.83,2*02
$GNGSA,A,3,34,15,05,03,09,21,36,,,,,,1.02,0.59,0.83,3*0D
$GNVTG,,T,,M,0.312,N,0.578,K,A*37
$SMGPS,-0.0 m,-0.01 m/s,7.60 VRx,0.000 km,2 m,63.4 °,1:-- (  0.0 km/h),462.0 m*8A
$SMGPS2,-0.10 X,+0.35 Y,+0.90 Z,0 ENL,0 us,0.0 kmh,967.29 hPa,967.15 hPa,-0.01 m/s*0F
$GNRMC,170546.70,A,4816.48314,N,01139.86841,E,0.11,,080522,,,A,V*27
$GNGNS,170546.70,4816.48314,N,01139.86841,E,AAAN,22,0.59,452.5,46.2,,,V*19
$GNGSA,A,3,01,08,21,32,22,03,27,10,14,,,,1.02,0.59,0.83,1*0C
$GNGSA,A,3,81,65,88,66,82,73,,,,,,,1.02,0.59,0.83,2*02
$GNGSA,A,3,34,15,05,03,09,21,36,,,,,,1.02,0.59,0.83,3*0D
$GNVTG,,T,,M,0.107,N,0.197,K,A*34
$SMGPS,-0.0 m,-0.01 m/s,7.57 VRx,0.000 km,2 m,65.2 °,1:-- (  0.0 km/h),462.6 m*88
$SMGPS2,-0.09 X,+0.35 Y,+0.90 Z,0 ENL,0 us,0.0 kmh,967.29 hPa,967.15 hPa,-0.01 m/s*07
$GNRMC,170546.80,A,4816.48311,N,01139.86853,E,0.13,,080522,,,A,V*2C
$GNGNS,170546.80,4816.48311,N,01139.86853,E,AAAN,22,0.59,452.5,46.2,,,V*10
$GNGSA,A,3,01,08,21,32,22,03,27,10,14,,,,1.02,0.59,0.83,1*0C
$GNGSA,A,3,81,65,88,66,82,73,,,,,,,1.02,0.59,0.83,2*02
$GNGSA,A,3,34,15,05,03,09,21,36,,,,,,1.02,0.59,0.83,3*0D
$GNVTG,,T,,M,0.126,N,0.233,K,A*3A
$SMGPS,0.0 m,-0.01 m/s,7.60 VRx,0.000 km,2 m,66.8 °,1:-- (  0.0 km/h),463.3 m*AC
$SMGPS2,-0.10 X,+0.35 Y,+0.89 Z,0 ENL,0 us,0.0 kmh,967.29 hPa,967.15 hPa,-0.01 m/s*07
$GNRMC,170546.90,A,4816.48315,N,01139.86867,E,0.28,,080522,,,A,V*26
$GNGNS,170546.90,4816.48315,N,01139.86867,E,AAAN,22,0.59,452.5,46.2,,,V*12
$GNGSA,A,3,01,08,21,32,22,03,27,10,14,,,,1.02,0.59,0.83,1*0C
$GNGSA,A,3,81,65,88,66,82,73,,,,,,,1.02,0.59,0.83,2*02
$GNGSA,A,3,34,15,05,03,09,21,36,,,,,,1.02,0.59,0.83,3*0D
$GNVTG,,T,,M,0.284,N,0.526,K,A*32
$SMGPS,-0.0 m,-0.01 m/s,7.57 VRx,0.000 km,2 m,68.2 °,1:-- (  0.0 km/h),463.9 m*8B
$SMGPS2,-0.10 X,+0.35 Y,+0.89 Z,1 ENL,0 us,0.0 kmh,967.30 hPa,967.15 hPa,-0.01 m/s*0E
$GNRMC,170547.00,A,4816.48323,N,01139.86878,E,0.09,,080522,,,A,V*26
$GNGNS,170547.00,4816.48323,N,01139.86878,E,AAAN,22,0.59,452.5,46.2,,,V*11
$GNGSA,A,3,01,08,21,32,22,03,27,10,14,,,,1.02,0.59,0.83,1*0C
$GNGSA,A,3,81,65,88,66,82,73,,,,,,,1.02,0.59,0.83,2*02
$GNGSA,A,3,34,15,05,03,09,21,36,,,,,,1.02,0.59,0.83,3*0D
$GNVTG,,T,,M,0.087,N,0.161,K,A*34
$SMGPS,0.0 m,-0.01 m/s,7.60 VRx,0.000 km,2 m,69.4 °,1:-- (  0.0 km/h),464.4 m*AF
$SMGPS2,-0.10 X,+0.35 Y,+0.90 Z,0 ENL,0 us,0.0 kmh,967.29 hPa,967.15 hPa,-0.01 m/s*0F
$GNRMC,170547.10,A,4816.48328,N,01139.86888,E,0.05,,080522,,,A,V*2F
$GNGNS,170547.10,4816.48328,N,01139.86888,E,AAAN,22,0.59,452.5,46.2,,,V*14
$GNGSA,A,3,01,08,21,32,22,03,27,10,14,,,,1.02,0.59,0.83,1*0C
$GNGSA,A,3,81,65,88,66,82,73,,,,,,,1.02,0.59,0.83,2*02
$GNGSA,A,3,34,15,05,03,09,21,36,,,,,,1.02,0.59,0.83,3*0D
$GNVTG,,T,,M,0.049,N,0.090,K,A*39
$SMGPS,-0.0 m,-0.01 m/s,7.57 VRx,0.000 km,3 m,54.7 °,1:-- (  0.0 km/h),464.8 m*86
$SMGPS2,-0.09 X,+0.35 Y,+0.90 Z,0 ENL,0 us,0.0 kmh,967.30 hPa,967.15 hPa,-0.01 m/s*0F
$GNRMC,170547.20,A,4816.48333,N,01139.86899,E,0.04,,080522,,,A,V*27
$GNGNS,170547.20,4816.48333,N,01139.86899,E,AAAN,22,0.59,452.5,46.2,,,V*1D
$GNGSA,A,3,01,08,21,32,22,03,27,10,14,,,,1.02,0.59,0.83,1*0C
$GNGSA,A,3,81,65,88,66,82,73,,,,,,,1.02,0.59,0.83,2*02
$GNGSA,A,3,34,15,05,03,09,21,36,,,,,,1.02,0.59,0.83,3*0D
$GNVTG,,T,,M,0.039,N,0.073,K,A*33
$SMGPS,-0.0 m,-0.01 m/s,7.59 VRx,0.000 km,3 m,56.3 °,1:-- (  0.0 km/h),465.3 m*84
$SMGPS2,-0.10 X,+0.36 Y,+0.89 Z,0 ENL,0 us,0.0 kmh,967.30 hPa,967.15 hPa,-0.01 m/s*0C
$GNRMC,170547.30,A,4816.48339,N,01139.86905,E,0.09,,080522,,,A,V*25
$GNGNS,170547.30,4816.48339,N,01139.86905,E,AAAN,21,0.60,452.5,46.2,,,V*1B
$GNGSA,A,3,01,08,21,32,22,03,27,10,14,,,,1.03,0.60,0.84,1*00
$GNGSA,A,3,81,65,88,66,82,73,,,,,,,1.02,0.59,0.83,2*02
$GNGSA,A,3,34,15,05,03,09,21,36,,,,,,1.02,0.59,0.83,3*0D
$GNVTG,,T,,M,0.084,N,0.156,K,A*33
$SMGPS,-0.0 m,-0.01 m/s,7.57 VRx,0.000 km,3 m,58.3 °,1:-- (  0.0 km/h),465.6 m*81
$SMGPS2,-0.10 X,+0.35 Y,+0.90 Z,0 ENL,0 us,0.0 kmh,967.30 hPa,967.15 hPa,-0.01 m/s*07
$GNRMC,170547.40,A,4816.48345,N,01139.86909,E,0.03,,080522,,,A,V*2F
$GNGNS,170547.40,4816.48345,N,01139.86909,E,AAAN,21,0.60,452.5,46.2,,,V*1B
$GNGSA,A,3,01,08,21,32,22,03,27,10,14,,,,1.03,0.60,0.84,1*00
$GNGSA,A,3,81,65,66,82,73,,,,,,,,1.03,0.60,0.84,2*0E
$GNGSA,A,3,34,15,05,03,09,21,36,,,,,,1.03,0.60,0.84,3*01
$GNVTG,,T,,M,0.029,N,0.054,K,A*37
$SMGPS,0.0 m,-0.01 m/s,7.59 VRx,0.000 km,3 m,58.3 °,1:-- (  0.0 km/h),465.9 m*AD
$SMGPS2,-0.11 X,+0.35 Y,+0.90 Z,1 ENL,0 us,0.0 kmh,967.29 hPa,967.15 hPa,-0.00 m/s*0E
$GNRMC,170547.50,A,4816.48351,N,01139.86909,E,0.03,,080522,,,A,V*2B
$GNGNS,170547.50,4816.48351,N,01139.86909,E,AAAN,21,0.60,452.5,46.2,,,V*1F
$GNGSA,A,3,01,08,21,32,22,03,27,10,14,,,,1.03,0.60,0.84,1*00
$GNGSA,A,3,81,65,66,82,73,,,,,,,,1.03,0.60,0.84,2*0E
$GNGSA,A,3,34,15,05,03,09,21,36,,,,,,1.03,0.60,0.84,3*01
$GNVTG,,T,,M,0.030,N,0.056,K,A*3D
$SMGPS,0.0 m,-0.01 m/s,7.57 VRx,0.000 km,3 m,59.6 °,1:-- (  0.0 km/h),466.2 m*AF
$SMGPS2,-0.09 X,+0.35 Y,+0.90 Z,0 ENL,0 us,0.0 kmh,967.29 hPa,967.15 hPa,-0.00 m/s*06
$GNRMC,170547.60,A,4816.48357,N,01139.86914,E,0.04,,080522,,,A,V*25
$GNGNS,170547.60,4816.48357,N,01139.86914,E,AAAN,22,0.59,452.5,46.2,,,V*1F
$GNGSA,A,3,01,08,21,32,22,03,27,10,14,,,,1.02,0.59,0.83,1*0C
$GNGSA,A,3,81,65,66,82,73,,,,,,,,1.03,0.60,0.84,2*0E
$GNGSA,A,3,34,15,05,03,09,21,36,,,,,,1.03,0.60,0.84,3*01
$GNVTG,,T,,M,0.043,N,0.080,K,A*32
$SMGPS,0.0 m,-0.00 m/s,7.58 VRx,0.000 km,3 m,59.6 °,1:-- (  0.0 km/h),466.4 m*A7
$SMGPS2,-0.10 X,+0.36 Y,+0.90 Z,0 ENL,0 us,0.0 kmh,967.29 hPa,967.15 hPa,+0.00 m/s*0B
$GNRMC,170547.70,A,4816.48360,N,01139.86913,E,0.19,,080522,,,A,V*2B
$GNGNS,170547.70,4816.48360,N,01139.86913,E,AAAN,22,0.59,452.5,46.2,,,V*1D
$GNGSA,A,3,01,08,21,32,22,03,27,10,14,,,,1.02,0.59,0.83,1*0C
$GNGSA,A,3,81,65,88,66,82,73,,,,,,,1.02,0.59,0.83,2*02
$GNGSA,A,3,34,15,05,03,09,21,36,,,,,,1.02,0.59,0.83,3*0D
$GNVTG,,T,,M,0.192,N,0.356,K,A*37
$SMGPS,0.0 m,-0.01 m/s,7.56 VRx,0.000 km,3 m,59.6 °,1:-- (  0.0 km/h),466.6 m*AA
$SMGPS2,-0.10 X,+0.36 Y,+0.89 Z,0 ENL,0 us,0.0 kmh,967.29 hPa,967.15 hPa,+0.00 m/s*03
$GNRMC,170547.80,A,4816.48363,N,01139.86913,E,0.05,,080522,,,A,V*2A
$GNGNS,170547.80,4816.48363,N,01139.86913,E,AAAN,22,0.59,452.5,46.2,,,V*11
$GNGSA,A,3,01,08,21,32,22,03,27,10,14,,,,1.02,0.59,0.83,1*0C
$GNGSA,A,3,81,65,88,66,82,73,,,,,,,1.02,0.59,0.83,2*02
$GNGSA,A,3,34,15,05,03,09,21,36,,,,,,1.02,0.59,0.83,3*0D
$GNVTG,,T,,M,0.054,N,0.100,K,A*3D
$SMGPS,0.0 m,-0.00 m/s,7.57 VRx,0.000 km,3 m,59.6 °,1:-- (  0.0 km/h),466.8 m*A4
$SMGPS2,-0.10 X,+0.35 Y,+0.90 Z,0 ENL,0 us,0.0 kmh,967.29 hPa,967.15 hPa,+0.01 m/s*09
$GNRMC,170547.90,A,4816.48365,N,01139.86912,E,0.03,,080522,,,A,V*2A
$GNGNS,170547.90,4816.48365,N,01139.86912,E,AAAN,22,0.59,452.5,46.2,,,V*17
$GNGSA,A,3,01,08,21,32,22,03,27,10,14,,,,1.02,0.59,0.83,1*0C
$GNGSA,A,3,81,65,88,66,82,73,,,,,,,1.02,0.59,0.83,2*02
$GNGSA,A,3,34,15,05,03,09,21,36,,,,,,1.02,0.59,0.83,3*0D
$GNVTG,,T,,M,0.030,N,0.056,K,A*3D
$SMGPS,0.0 m,+0.00 m/s,7.58 VRx,0.000 km,3 m,59.6 °,1:-- (  0.0 km/h),467.0 m*A4
$SMGPS2,-0.10 X,+0.35 Y,+0.90 Z,0 ENL,0 us,0.0 kmh,967.29 hPa,967.15 hPa,+0.01 m/s*09
$GNRMC,170548.00,A,4816.48367,N,01139.86909,E,0.05,,080522,,,A,V*22
$GNGNS,170548.00,4816.48367,N,01139.86909,E,AAAN,22,0.59,452.6,46.2,,,V*1A
$GNGSA,A,3,01,08,21,32,22,03,27,10,14,,,,1.02,0.59,0.83,1*0C
$GNGSA,A,3,81,65,88,66,82,73,,,,,,,1.02,0.59,0.83,2*02
$GNGSA,A,3,34,15,05,03,09,21,36,,,,,,1.02,0.59,0.83,3*0D
$GNVTG,,T,,M,0.050,N,0.093,K,A*32
$SMGPS,0.1 m,+0.01 m/s,7.59 VRx,0.000 km,4 m,48.7 °,1:-- (  0.0 km/h),467.2 m*A1
$SMGPS2,-0.10 X,+0.35 Y,+0.90 Z,0 ENL,0 us,0.0 kmh,967.29 hPa,967.14 hPa,+0.02 m/s*0B
$GNRMC,170548.10,A,4816.48368,N,01139.86907,E,0.02,,080522,,,A,V*25
$GNGNS,170548.10,4816.48368,N,01139.86907,E,AAAN,22,0.59,452.5,46.2,,,V*19
$GNGSA,A,3,01,08,21,32,22,03,27,10,14,,,,1.02,0.59,0.83,1*0C
$GNGSA,A,3,81,65,88,66,82,73,,,,,,,1.02,0.59,0.83,2*02
$GNGSA,A,3,34,15,05,03,09,21,36,,,,,,1.02,0.59,0.83,3*0D
$GNVTG,,T,,M,0.012,N,0.022,K,A*3E
$SMGPS,-0.0 m,+0.01 m/s,7.55 VRx,0.000 km,4 m,48.7 °,1:-- (  0.0 km/h),467.3 m*80
$SMGPS2,-0.10 X,+0.35 Y,+0.90 Z,0 ENL,0 us,0.0 kmh,967.29 hPa,967.15 hPa,+0.02 m/s*0A
$GNRMC,170548.20,A,4816.48371,N,01139.86903,E,0.02,,080522,,,A,V*2A
$GNGNS,170548.20,4816.48371,N,01139.86903,E,AAAN,22,0.59,452.5,46.2,,,V*16
$GNGSA,A,3,01,08,21,32,22,03,27,10,14,,,,1.02,0.59,0.83,1*0C
$GNGSA,A,3,81,65,88,66,82,73,,,,,,,1.02,0.59,0.83,2*02
$GNGSA,A,3,34,15,05,03,09,21,36,,,,,,1.02,0.59,0.83,3*0D
$GNVTG,,T,,M,0.011,N,0.021,K,A*3E
$SMGPS,0.0 m,+0.01 m/s,7.59 VRx,0.000 km,4 m,47.2 °,1:-- (  0.0 km/h),467.5 m*AD
$SMGPS2,-0.09 X,+0.35 Y,+0.90 Z,0 ENL,0 us,0.0 kmh,967.29 hPa,967.15 hPa,+0.02 m/s*02
$GNRMC,170548.30,A,4816.48372,N,01139.86900,E,0.10,,080522,,,A,V*28
$GNGNS,170548.30,4816.48372,N,01139.86900,E,AAAN,22,0.59,452.5,46.2,,,V*17
$GNGSA,A,3,01,08,21,32,22,03,27,10,14,,,,1.02,0.59,0.83,1*0C
$GNGSA,A,3,81,65,88,66,82,73,,,,,,,1.02,0.59,0.83,2*02
$GNGSA,A,3,34,15,05,03,09,21,36,,,,,,1.02,0.59,0.83,3*0D
$GNVTG,,T,,M,0.104,N,0.193,K,A*33
$SMGPS,-0.0 m,+0.01 m/s,7.55 VRx,0.000 km,4 m,47.2 °,1:-- (  0.0 km/h),467.6 m*8F
$SMGPS2,-0.10 X,+0.35 Y,+0.90 Z,1 ENL,0 us,0.0 kmh,967.30 hPa,967.15 hPa,+0.02 m/s*03
$GNRMC,170548.40,A,4816.48374,N,01139.86898,E,0.02,,080522,,,A,V*2A
$GNGNS,170548.40,4816.48374,N,01139.86898,E,AAAN,22,0.59,452.5,46.2,,,V*16
$GNGSA,A,3,01,08,21,32,22,03,27,10,14,,,,1.02,0.59,0.83,1*0C
$GNGSA,A,3,81,65,88,66,82,73,,,,,,,1.02,0.59,0.83,2*02
$GNGSA,A,3,34,15,05,03,09,21,36,,,,,,1.02,0.59,0.83,3*0D
$GNVTG,,T,,M,0.015,N,0.029,K,A*32
$SMGPS,0.0 m,+0.01 m/s,7.58 VRx,0.000 km,4 m,47.2 °,1:-- (  0.0 km/h),467.6 m*AF
$SMGPS2,-0.09 X,+0.35 Y,+0.89 Z,1 ENL,0 us,0.0 kmh,967.29 hPa,967.15 hPa,+0.02 m/s*0B
$GNRMC,170548.50,A,4816.48376,N,01139.86898,E,0.09,,080522,,,A,V*22
$GNGNS,170548.50,4816.48376,N,01139.86898,E,AAAN,22,0.59,452.5,46.2,,,V*15
$GNGSA,A,3,01,08,21,32,22,03,27,10,14,,,,1.02,0.59,0.83,1*0C
$GNGSA,A,3,81,65,88,66,82,73,,,,,,,1.02,0.59,0.83,2*02
$GNGSA,A,3,34,15,05,03,09,21,36,,,,,,1.02,0.59,0.83,3*0D
$GNVTG,,T,,M,0.089,N,0.165,K,A*3E
$SMGPS,0.0 m,+0.00 m/s,7.56 VRx,0.000 km,4 m,47.2 °,1:-- (  0.0 km/h),467.7 m*A1
$SMGPS2,-0.10 X,+0.36 Y,+0.89 Z,0 ENL,0 us,0.0 kmh,967.29 hPa,967.15 hPa,+0.01 m/s*02
$GNRMC,170548.60,A,4816.48378,N,01139.86899,E,0.05,,080522,,,A,V*22
$GNGNS,170548.60,4816.48378,N,01139.86899,E,AAAN,22,0.59,452.5,46.2,,,V*19
$GNGSA,A,3,01,08,21,32,22,03,27,10,14,,,,1.02,0.59,0.83,1*0C
$GNGSA,A,3,81,65,88,66,82,73,,,,,,,1.02,0.59,0.83,2*02
$GNGSA,A,3,34,15,05,03,09,21,36,,,,,,1.02,0.59,0.83,3*0D
$GNVTG,,T,,M,0.051,N,0.095,K,A*35
$SMGPS,-0.0 m,-0.00 m/s,7.57 VRx,0.000 km,4 m,47.2 °,1:-- (  0.0 km/h),467.8 m*84
$SMGPS2,-0.09 X,+0.36 Y,+0.89 Z,0 ENL,0 us,0.0 kmh,967.30 hPa,967.15 hPa,-0.00 m/s*05
$GNRMC,170548.70,A,4816.48378,N,01139.86899,E,0.15,,080522,,,A,V*22
$GNGNS,170548.70,4816.48378,N,01139.86899,E,AAAN,22,0.59,452.5,46.2,,,V*18
$GNGSA,A,3,01,08,21,32,22,03,27,10,14,,,,1.02,0.59,0.83,1*0C
$GNGSA,A,3,81,65,88,66,82,73,,,,,,,1.02,0.59,0.83,2*02
$GNGSA,A,3,34,15,05,03,09,21,36,,,,,,1.02,0.59,0.83,3*0D
$GNVTG,,T,,M,0.151,N,0.280,K,A*32
$SMGPS,-0.0 m,-0.01 m/s,7.60 VRx,0.000 km,4 m,47.2 °,1:-- (  0.0 km/h),467.9 m*80
$SMGPS2,-0.10 X,+0.35 Y,+0.89 Z,0 ENL,0 us,0.0 kmh,967.30 hPa,967.15 hPa,-0.01 m/s*0F
$GNRMC,170548.80,A,4816.48379,N,01139.86902,E,0.05,,080522,,,A,V*2E
$GNGNS,170548.80,4816.48379,N,01139.86902,E,AAAN,22,0.59,452.5,46.2,,,V*15
$GNGSA,A,3,01,08,21,32,22,03,27,10,14,,,,1.02,0.59,0.83,1*0C
$GNGSA,A,3,81,65,88,66,82,73,,,,,,,1.02,0.59,0.83,2*02
$GNGSA,A,3,34,15,05,03,09,21,36,,,,,,1.02,0.59,0.83,3*0D
$GNVTG,,T,,M,0.051,N,0.095,K,A*35
$SMGPS,-0.0 m,-0.01 m/s,7.60 VRx,0.000 km,4 m,47.2 °,1:-- (  0.0 km/h),468.0 m*86
$SMGPS2,-0.09 X,+0.35 Y,+0.89 Z,0 ENL,0 us,0.0 kmh,967.30 hPa,967.15 hPa,-0.01 m/s*07
$GNRMC,170548.90,A,4816.48379,N,01139.86906,E,0.05,,080522,,,A,V*2B
$GNGNS,170548.90,4816.48379,N,01139.86906,E,AAAN,22,0.59,452.5,46.2,,,V*10
$GNGSA,A,3,01,08,21,32,22,03,27,10,14,,,,1.02,0.59,0.83,1*0C
$GNGSA,A,3,81,65,88,66,82,73,,,,,,,1.02,0.59,0.83,2*02
$GNGSA,A,3,34,15,05,03,09,21,36,,,,,,1.02,0.59,0.83,3*0D
$GNVTG,,T,,M,0.049,N,0.091,K,A*38
$SMGPS,-0.0 m,-0.01 m/s,7.57 VRx,0.000 km,4 m,47.2 °,1:-- (  0.0 km/h),468.2 m*80
$SMGPS2,-0.10 X,+0.35 Y,+0.90 Z,0 ENL,0 us,0.0 kmh,967.30 hPa,967.15 hPa,-0.01 m/s*07
$GNRMC,170549.00,A,4816.48381,N,01139.86908,E,0.03,,080522,,,A,V*2C
$GNGNS,170549.00,4816.48381,N,01139.86908,E,AAAN,22,0.59,452.5,46.2,,,V*11
$GNGSA,A,3,01,08,21,32,22,03,27,10,14,,,,1.02,0.59,0.83,1*0C
$GNGSA,A,3,81,65,88,66,82,73,,,,,,,1.02,0.59,0.83,2*02
$GNGSA,A,3,34,15,05,03,09,21,36,,,,,,1.02,0.59,0.83,3*0D
$GNVTG,,T,,M,0.025,N,0.046,K,A*38
$SMGPS,-0.0 m,-0.01 m/s,7.57 VRx,0.000 km,4 m,47.2 °,1:-- (  0.0 km/h),468.3 m*81
$SMGPS2,-0.10 X,+0.35 Y,+0.89 Z,0 ENL,0 us,0.0 kmh,967.30 hPa,967.15 hPa,-0.01 m/s*0F
$GNRMC,170549.10,A,4816.48381,N,01139.86910,E,0.12,,080522,,,A,V*24
$GNGNS,170549.10,4816.48381,N,01139.86910,E,AAAN,22,0.59,452.5,46.2,,,V*19
$GNGSA,A,3,01,08,21,32,22,03,27,10,14,,,,1.02,0.59,0.83,1*0C
$GNGSA,A,3,81,65,88,66,82,73,,,,,,,1.02,0.59,0.83,2*02
$GNGSA,A,3,34,15,05,03,09,21,36,,,,,,1.02,0.59,0.83,3*0D
$GNVTG,,T,,M,0.114,N,0.211,K,A*3B
$SMGPS,-0.0 m,-0.01 m/s,7.55 VRx,0.000 km,4 m,48.7 °,1:-- (  0.0 km/h),468.5 m*8F
$SMGPS2,-0.10 X,+0.35 Y,+0.90 Z,0 ENL,0 us,0.0 kmh,967.30 hPa,967.15 hPa,-0.01 m/s*07
$GNRMC,170549.20,A,4816.48382,N,01139.86911,E,0.07,,080522,,,A,V*21
$GNGNS,170549.20,4816.48382,N,01139.86911,E,AAAN,22,0.59,452.5,46.2,,,V*18
$GNGSA,A,3,01,08,21,32,22,03,27,10,14,,,,1.02,0.59,0.83,1*0C
$GNGSA,A,3,81,65,88,66,82,73,,,,,,,1.02,0.59,0.83,2*02
$GNGSA,A,3,34,15,05,03,09,21,36,,,,,,1.02,0.59,0.83,3*0D
$GNVTG,,T,,M,0.068,N,0.126,K,A*36
$SMGPS,0.0 m,-0.01 m/s,7.59 VRx,0.000 km,4 m,48.7 °,1:-- (  0.0 km/h),468.8 m*A3
$SMGPS2,-0.10 X,+0.35 Y,+0.89 Z,0 ENL,0 us,0.0 kmh,967.29 hPa,967.15 hPa,-0.01 m/s*07
$GNRMC,170549.30,A,4816.48382,N,01139.86912,E,0.03,,080522,,,A,V*27
$GNGNS,170549.30,4816.48382,N,01139.86912,E,AAAN,22,0.59,452.5,46.2,,,V*1A
$GNGSA,A,3,01,08,21,32,22,03,27,10,14,,,,1.02,0.59,0.83,1*0C
$GNGSA,A,3,81,65,88,66,82,73,,,,,,,1.02,0.59,0.83,2*02
$GNGSA,A,3,34,15,05,03,09,21,36,,,,,,1.02,0.59,0.83,3*0D
$GNVTG,,T,,M,0.027,N,0.051,K,A*3C
$SMGPS,0.0 m,+0.00 m/s,7.55 VRx,0.000 km,4 m,48.7 °,1:-- (  0.0 km/h),469.0 m*A1
$SMGPS2,-0.09 X,+0.35 Y,+0.90 Z,0 ENL,0 us,0.0 kmh,967.29 hPa,967.15 hPa,+0.00 m/s*00
$GNRMC,170549.40,A,4816.48382,N,01139.86913,E,0.08,,080522,,,A,V*2A
$GNGNS,170549.40,4816.48382,N,01139.86913,E,AAAN,22,0.59,452.5,46.2,,,V*1C
$GNGSA,A,3,01,08,21,32,22,03,27,10,14,,,,1.02,0.59,0.83,1*0C
$GNGSA,A,3,81,65,88,66,82,73,,,,,,,1.02,0.59,0.83,2*02
$GNGSA,A,3,34,15,05,03,09,21,36,,,,,,1.02,0.59,0.83,3*0D
$GNVTG,,T,,M,0.084,N,0.155,K,A*30
$SMGPS,-0.0 m,+0.00 m/s,7.59 VRx,0.000 km,4 m,48.7 °,1:-- (  0.0 km/h),469.1 m*81
$SMGPS2,-0.10 X,+0.35 Y,+0.90 Z,0 ENL,0 us,0.0 kmh,967.29 hPa,967.15 hPa,+0.01 m/s*09
$GNRMC,170549.50,A,4816.48382,N,01139.86913,E,0.08,,080522,,,A,V*2B
$GNGNS,170549.50,4816.48382,N,01139.86913,E,AAAN,22,0.59,452.5,46.2,,,V*1D
$GNGSA,A,3,01,08,21,32,22,03,27,10,14,,,,1.02,0.59,0.83,1*0C
$GNGSA,A,3,81,65,88,66,82,73,,,,,,,1.02,0.59,0.83,2*02
$GNGSA,A,3,34,15,05,03,09,21,36,,,,,,1.02,0.59,0.83,3*0D
$GNVTG,,T,,M,0.078,N,0.145,K,A*32
$SMGPS,-0.0 m,-0.00 m/s,7.57 VRx,0.000 km,4 m,48.7 °,1:-- (  0.0 km/h),469.3 m*8B
$SMGPS2,-0.10 X,+0.35 Y,+0.90 Z,0 ENL,0 us,0.0 kmh,967.30 hPa,967.15 hPa,+0.00 m/s*00
$GNRMC,170549.60,A,4816.48383,N,01139.86913,E,0.02,,080522,,,A,V*23
$GNGNS,170549.60,4816.48383,N,01139.86913,E,AAAN,22,0.59,452.5,46.2,,,V*1F
$GNGSA,A,3,01,08,21,32,22,03,27,10,14,,,,1.02,0.59,0.83,1*0C
$GNGSA,A,3,81,65,88,66,82,73,,,,,,,1.02,0.59,0.83,2*02
$GNGSA,A,3,34,15,05,03,09,21,36,,,,,,1.02,0.59,0.83,3*0D
$GNVTG,,T,,M,0.022,N,0.041,K,A*38
$SMGPS,-0.0 m,-0.00 m/s,7.59 VRx,0.000 km,4 m,48.7 °,1:-- (  0.0 km/h),469.4 m*82
$SMGPS2,-0.10 X,+0.35 Y,+0.89 Z,0 ENL,0 us,0.0 kmh,967.30 hPa,967.16 hPa,-0.01 m/s*0C
$GNRMC,170549.70,A,4816.48384,N,01139.86911,E,0.05,,080522,,,A,V*20
$GNGNS,170549.70,4816.48384,N,01139.86911,E,AAAN,22,0.59,452.5,46.2,,,V*1B
$GNGSA,A,3,01,08,21,32,22,03,27,10,14,,,,1.02,0.59,0.83,1*0C
$GNGSA,A,3,81,65,88,66,82,73,,,,,,,1.02,0.59,0.83,2*02
$GNGSA,A,3,34,15,05,03,09,21,36,,,,,,1.02,0.59,0.83,3*0D
$GNVTG,,T,,M,0.052,N,0.097,K,A*34
$SMGPS,-0.0 m,-0.00 m/s,7.58 VRx,0.000 km,4 m,48.7 °,1:-- (  0.0 km/h),469.5 m*82
$SMGPS2,-0.10 X,+0.35 Y,+0.90 Z,0 ENL,0 us,0.0 kmh,967.30 hPa,967.15 hPa,-0.01 m/s*07
$GNRMC,170549.80,A,4816.48386,N,01139.86910,E,0.07,,080522,,,A,V*2E
$GNGNS,170549.80,4816.48386,N,01139.86910,E,AAAN,22,0.59,452.5,46.2,,,V*17
$GNGSA,A,3,01,08,21,32,22,03,27,10,14,,,,1.02,0.59,0.83,1*0C
$GNGSA,A,3,81,65,88,66,82,73,,,,,,,1.02,0.59,0.83,2*02
$GNGSA,A,3,34,15,05,03,09,21,36,,,,,,1.02,0.59,0.83,3*0D
$GNVTG,,T,,M,0.070,N,0.130,K,A*38
$SMGPS,-0.0 m,-0.00 m/s,7.59 VRx,0.000 km,4 m,48.7 °,1:-- (  0.0 km/h),469.6 m*80
$SMGPS2,-0.10 X,+0.35 Y,+0.90 Z,0 ENL,0 us,0.0 kmh,967.30 hPa,967.15 hPa,-0.01 m/s*07
$GNRMC,170549.90,A,4816.48387,N,01139.86909,E,0.12,,080522,,,A,V*22
$GNGNS,170549.90,4816.48387,N,01139.86909,E,AAAN,22,0.59,452.5,46.2,,,V*1F
$GNGSA,A,3,01,08,21,32,22,03,27,10,14,,,,1.02,0.59,0.83,1*0C
$GNGSA,A,3,81,65,88,66,82,73,,,,,,,1.02,0.59,0.83,2*02
$GNGSA,A,3,34,15,05,03,09,21,36,,,,,,1.02,0.59,0.83,3*0D
$GNVTG,,T,,M,0.123,N,0.228,K,A*35
$SMGPS,0.0 m,-0.00 m/s,7.57 VRx,0.000 km,4 m,48.7 °,1:-- (  0.0 km/h),469.7 m*A2
$SMGPS2,-0.10 X,+0.35 Y,+0.90 Z,0 ENL,0 us,0.0 kmh,967.29 hPa,967.15 hPa,-0.01 m/s*0F
$GNRMC,170550.00,A,4816.48388,N,01139.86907,E,0.09,,080522,,,A,V*28
$GNGNS,170550.00,4816.48388,N,01139.86907,E,AAAN,22,0.59,452.5,46.2,,,V*1F
$GNGSA,A,3,01,08,21,32,22,03,27,10,14,,,,1.02,0.59,0.83,1*0C
$GNGSA,A,3,81,65,88,66,82,73,,,,,,,1.02,0.59,0.83,2*02
$GNGSA,A,3,34,15,05,03,09,21,36,,,,,,1.02,0.59,0.83,3*0D
$GNVTG,,T,,M,0.094,N,0.175,K,A*33
$SMGPS,-0.0 m,-0.00 m/s,7.58 VRx,0.000 km,4 m,48.7 °,1:-- (  0.0 km/h),469.8 m*8F
$SMGPS2,-0.09 X,+0.36 Y,+0.91 Z,0 ENL,0 us,0.0 kmh,967.30 hPa,967.15 hPa,-0.02 m/s*0E
$GNRMC,170550.10,A,4816.48389,N,01139.86906,E,0.20,,080522,,,A,V*22
$GNGNS,170550.10,4816.48389,N,01139.86906,E,AAAN,22,0.59,452.5,46.2,,,V*1E
$GNGSA,A,3,01,08,21,32,22,03,27,10,14,,,,1.02,0.59,0.83,1*0C
$GNGSA,A,3,81,65,88,66,82,73,,,,,,,1.02,0.59,0.83,2*02
$GNGSA,A,3,34,15,05,03,09,21,36,,,,,,1.02,0.59,0.83,3*0D
$GNVTG,,T,,M,0.199,N,0.369,K,A*30
$SMGPS,-0.0 m,-0.01 m/s,7.56 VRx,0.000 km,4 m,47.2 °,1:-- (  0.0 km/h),469.9 m*8B
$SMGPS2,-0.10 X,+0.35 Y,+0.90 Z,0 ENL,0 us,0.0 kmh,967.30 hPa,967.15 hPa,-0.02 m/s*04
$GNRMC,170550.20,A,4816.48390,N,01139.86904,E,0.09,,080522,,,A,V*20
$GNGNS,170550.20,4816.48390,N,01139.86904,E,AAAN,22,0.59,452.5,46.2,,,V*17
$GNGSA,A,3,01,08,21,32,22,03,27,10,14,,,,1.02,0.59,0.83,1*0C
$GNGSA,A,3,81,65,88,66,82,73,,,,,,,1.02,0.59,0.83,2*02
$GNGSA,A,3,34,15,05,03,09,21,36,,,,,,1.02,0.59,0.83,3*0D
$GNVTG,,T,,M,0.087,N,0.162,K,A*37
$SMGPS,-0.0 m,-0.01 m/s,7.59 VRx,0.000 km,4 m,47.2 °,1:-- (  0.0 km/h),470.0 m*85
$SMGPS2,-0.10 X,+0.35 Y,+0.90 Z,0 ENL,0 us,0.0 kmh,967.30 hPa,967.15 hPa,-0.02 m/s*04
$GNRMC,170550.30,A,4816.48391,N,01139.86904,E,0.05,,080522,,,A,V*2C
$GNGNS,170550.30,4816.48391,N,01139.86904,E,AAAN,22,0.59,452.5,46.2,,,V*17
$GNGSA,A,3,01,08,21,32,22,03,27,10,14,,,,1.02,0.59,0.83,1*0C
$GNGSA,A,3,81,65,88,66,82,73,,,,,,,1.02,0.59,0.83,2*02
$GNGSA,A,3,34,15,05,03,09,21,36,,,,,,1.02,0.59,0.83,3*0D
$GNVTG,,T,,M,0.033,N,0.061,K,A*3A
$SMGPS,-0.0 m,-0.02 m/s,7.55 VRx,0.000 km,4 m,47.2 °,1:-- (  0.0 km/h),470.0 m*8A
$SMGPS2,-0.10 X,+0.36 Y,+0.90 Z,1 ENL,0 us,0.0 kmh,967.30 hPa,967.15 hPa,-0.02 m/s*06
$GNRMC,170550.40,A,4816.48392,N,01139.86902,E,0.22,,080522,,,A,V*2B
$GNGNS,170550.40,4816.48392,N,01139.86902,E,AAAN,23,0.58,452.5,46.2,,,V*15
$GNGSA,A,3,01,08,21,32,22,03,27,10,14,,,,1.00,0.58,0.82,1*0E
$GNGSA,A,3,81,65,88,66,82,73,,,,,,,1.02,0.59,0.83,2*02
$GNGSA,A,3,34,15,05,03,09,21,36,,,,,,1.02,0.59,0.83,3*0D
$GNVTG,,T,,M,0.217,N,0.401,K,A*3C
$SMGPS,0.0 m,-0.02 m/s,7.59 VRx,0.000 km,4 m,47.2 °,1:-- (  0.0 km/h),470.1 m*AA
$SMGPS2,-0.10 X,+0.35 Y,+0.89 Z,0 ENL,0 us,0.0 kmh,967.30 hPa,967.15 hPa,-0.02 m/s*0C
$GNRMC,170550.50,A,4816.48394,N,01139.86901,E,0.18,,080522,,,A,V*26
$GNGNS,170550.50,4816.48394,N,01139.86901,E,AAAN,23,0.58,452.5,46.2,,,V*11
$GNGSA,A,3,01,08,21,32,22,03,27,10,14,,,,1.00,0.58,0.82,1*0E
$GNGSA,A,3,81,65,88,66,72,82,73,,,,,,1.00,0.58,0.82,2*05
$GNGSA,A,3,34,15,05,03,09,21,36,,,,,,1.00,0.58,0.82,3*0F
$GNVTG,,T,,M,0.181,N,0.335,K,A*30
$SMGPS,0.0 m,-0.02 m/s,7.55 VRx,0.000 km,4 m,47.2 °,1:-- (  0.0 km/h),470.2 m*A5
$SMGPS2,-0.10 X,+0.36 Y,+0.89 Z,0 ENL,0 us,0.0 kmh,967.30 hPa,967.15 hPa,-0.01 m/s*0C
$GNRMC,170550.60,A,4816.48395,N,01139.86901,E,0.15,,080522,,,A,V*29
$GNGNS,170550.60,4816.48395,N,01139.86901,E,AAAN,23,0.58,452.5,46.2,,,V*13
$GNGSA,A,3,01,08,21,32,22,03,27,10,14,,,,1.00,0.58,0.82,1*0E
$GNGSA,A,3,81,65,88,66,72,82,73,,,,,,1.00,0.58,0.82,2*05
$GNGSA,A,3,34,15,05,03,09,21,36,,,,,,1.00,0.58,0.82,3*0F
$GNVTG,,T,,M,0.145,N,0.268,K,A*31
$SMGPS,0.0 m,-0.02 m/s,7.58 VRx,0.000 km,4 m,47.2 °,1:-- (  0.0 km/h),470.4 m*AE
$SMGPS2,-0.10 X,+0.36 Y,+0.90 Z,1 ENL,0 us,0.0 kmh,967.30 hPa,967.15 hPa,-0.00 m/s*04
$GNRMC,170550.70,A,4816.48397,N,01139.86902,E,0.09,,080522,,,A,V*24
$GNGNS,170550.70,4816.48397,N,01139.86902,E,AAAN,23,0.58,452.5,46.2,,,V*13
$GNGSA,A,3,01,08,21,32,22,03,27,10,14,,,,1.00,0.58,0.82,1*0E
$GNGSA,A,3,81,65,88,66,72,82,73,,,,,,1.00,0.58,0.82,2*05
$GNGSA,A,3,34,15,05,03,09,21,36,,,,,,1.00,0.58,0.82,3*0F
$GNVTG,,T,,M,0.081,N,0.151,K,A*31
$SMGPS,0.0 m,-0.02 m/s,7.55 VRx,0.000 km,4 m,47.2 °,1:-- (  0.0 km/h),470.5 m*A2
$SMGPS2,-0.10 X,+0.36 Y,+0.90 Z,1 ENL,0 us,0.0 kmh,967.30 hPa,967.15 hPa,-0.00 m/s*04
$GNRMC,170550.80,A,4816.48398,N,01139.86902,E,0.09,,080522,,,A,V*24
$GNGNS,170550.80,4816.48398,N,01139.86902,E,AAAN,23,0.58,452.5,46.2,,,V*13
$GNGSA,A,3,01,08,21,32,22,03,27,10,14,,,,1.00,0.58,0.82,1*0E
$GNGSA,A,3,81,65,88,66,72,82,73,,,,,,1.00,0.58,0.82,2*05
$GNGSA,A,3,34,15,05,03,09,21,36,,,,,,1.00,0.58,0.82,3*0F
$GNVTG,,T,,M,0.092,N,0.170,K,A*30
$SMGPS,0.0 m,-0.01 m/s,7.59 VRx,0.000 km,4 m,47.2 °,1:-- (  0.0 km/h),470.6 m*AE
$SMGPS2,-0.10 X,+0.35 Y,+0.90 Z,0 ENL,0 us,0.0 kmh,967.29 hPa,967.15 hPa,+0.01 m/s*09
$GNRMC,170550.90,A,4816.48399,N,01139.86902,E,0.03,,080522,,,A,V*2E
$GNGNS,170550.90,4816.48399,N,01139.86902,E,AAAN,23,0.58,452.5,46.2,,,V*13
$GNGSA,A,3,01,08,21,32,22,03,27,10,14,,,,1.00,0.58,0.82,1*0E
$GNGSA,A,3,81,65,88,66,72,82,73,,,,,,1.00,0.58,0.82,2*05
$GNGSA,A,3,34,15,05,03,09,21,36,,,,,,1.00,0.58,0.82,3*0F
$GNVTG,,T,,M,0.030,N,0.056,K,A*3D
$SMGPS,0.0 m,-0.01 m/s,7.56 VRx,0.000 km,4 m,47.2 °,1:-- (  0.0 km/h),470.7 m*A0
$SMGPS2,-0.10 X,+0.36 Y,+0.89 Z,0 ENL,0 us,0.0 kmh,967.30 hPa,967.14 hPa,+0.01 m/s*0B
$GNRMC,170551.00,A,4816.48400,N,01139.86903,E,0.03,,080522,,,A,V*20
$GNGNS,170551.00,4816.48400,N,01139.86903,E,AAAN,23,0.58,452.5,46.2,,,V*1D
$GNGSA,A,3,01,08,21,32,22,03,27,10,14,,,,1.00,0.58,0.82,1*0E
$GNGSA,A,3,81,65,88,66,72,82,73,,,,,,1.00,0.58,0.82,2*05
$GNGSA,A,3,34,15,05,03,09,21,36,,,,,,1.00,0.58,0.82,3*0F
$GNVTG,,T,,M,0.027,N,0.049,K,A*35
$SMGPS,0.0 m,+0.00 m/s,7.57 VRx,0.000 km,4 m,47.2 °,1:-- (  0.0 km/h),470.8 m*A9
$SMGPS2,-0.10 X,+0.36 Y,+0.90 Z,0 ENL,0 us,0.0 kmh,967.29 hPa,967.15 hPa,+0.01 m/s*0A
$GNRMC,170551.10,A,4816.48402,N,01139.86904,E,0.05,,080522,,,A,V*22
$GNGNS,170551.10,4816.48402,N,01139.86904,E,AAAN,23,0.58,452.5,46.2,,,V*19
$GNGSA,A,3,01,08,21,32,22,03,27,10,14,,,,1.00,0.58,0.82,1*0E
$GNGSA,A,3,81,65,88,66,72,82,73,,,,,,1.00,0.58,0.82,2*05
$GNGSA,A,3,34,15,05,03,09,21,36,,,,,,1.00,0.58,0.82,3*0F
$GNVTG,,T,,M,0.045,N,0.083,K,A*37
$SMGPS,-0.0 m,+0.00 m/s,7.55 VRx,0.000 km,4 m,47.2 °,1:-- (  0.0 km/h),470.9 m*87
$SMGPS2,-0.10 X,+0.35 Y,+0.90 Z,0 ENL,0 us,0.0 kmh,967.30 hPa,967.15 hPa,+0.01 m/s*01
$GNRMC,170551.20,A,4816.48403,N,01139.86904,E,0.06,,080522,,,A,V*23
$GNGNS,170551.20,4816.48403,N,01139.86904,E,AAAN,23,0.58,452.5,46.2,,,V*1B
$GNGSA,A,3,01,08,21,32,22,03,27,10,14,,,,1.00,0.58,0.82,1*0E
$GNGSA,A,3,81,65,88,66,72,82,73,,,,,,1.00,0.58,0.82,2*05
$GNGSA,A,3,34,15,05,03,09,21,36,,,,,,1.00,0.58,0.82,3*0F
$GNVTG,,T,,M,0.059,N,0.109,K,A*39
$SMGPS,0.0 m,+0.00 m/s,7.57 VRx,0.000 km,4 m,47.2 °,1:-- (  0.0 km/h),471.0 m*A0
$SMGPS2,-0.09 X,+0.38 Y,+0.96 Z,0 ENL,0 us,0.0 kmh,967.29 hPa,967.15 hPa,+0.01 m/s*0A
$GNRMC,170551.30,A,4816.48404,N,01139.86905,E,0.13,,080522,,,A,V*20
$GNGNS,170551.30,4816.48404,N,01139.86905,E,AAAN,23,0.58,452.5,46.2,,,V*1C
$GNGSA,A,3,01,08,21,32,22,03,27,10,14,,,,1.00,0.58,0.82,1*0E
$GNGSA,A,3,81,65,88,66,72,82,73,,,,,,1.00,0.58,0.82,2*05
$GNGSA,A,3,34,15,05,03,09,21,36,,,,,,1.00,0.58,0.82,3*0F
$GNVTG,,T,,M,0.127,N,0.235,K,A*3D
$SMGPS,0.0 m,+0.00 m/s,7.56 VRx,0.000 km,4 m,47.2 °,1:-- (  0.0 km/h),471.1 m*A0
$SMGPS2,-0.10 X,+0.35 Y,+0.89 Z,1 ENL,0 us,0.0 kmh,967.29 hPa,967.15 hPa,+0.01 m/s*00
$GNRMC,170551.40,A,4816.48405,N,01139.86905,E,0.11,,080522,,,A,V*24
$GNGNS,170551.40,4816.48405,N,01139.86905,E,AAAN,23,0.58,452.5,46.2,,,V*1A
$GNGSA,A,3,01,08,21,32,22,03,27,10,14,,,,1.00,0.58,0.82,1*0E
$GNGSA,A,3,81,65,88,66,72,82,73,,,,,,1.00,0.58,0.82,2*05
$GNGSA,A,3,34,15,05,03,09,21,36,,,,,,1.00,0.58,0.82,3*0F
$GNVTG,,T,,M,0.107,N,0.197,K,A*34
$SMGPS,0.0 m,-0.00 m/s,7.58 VRx,0.000 km,4 m,47.2 °,1:-- (  0.0 km/h),471.1 m*A8
$SMGPS2,-0.10 X,+0.35 Y,+0.89 Z,1 ENL,0 us,0.0 kmh,967.30 hPa,967.15 hPa,+0.01 m/s*08
$GNRMC,170551.50,A,4816.48407,N,01139.86904,E,0.07,,080522,,,A,V*21
$GNGNS,170551.50,4816.48407,N,01139.86904,E,AAAN,23,0.58,452.5,46.2,,,V*18
$GNGSA,A,3,01,08,21,32,22,03,27,10,14,,,,1.00,0.58,0.82,1*0E
$GNGSA,A,3,81,65,88,66,72,82,73,,,,,,1.00,0.58,0.82,2*05
$GNGSA,A,3,34,15,05,03,09,21,36,,,,,,1.00,0.58,0.82,3*0F
$GNVTG,,T,,M,0.065,N,0.121,K,A*3C
$SMGPS,-0.0 m,-0.00 m/s,7.58 VRx,0.000 km,4 m,47.2 °,1:-- (  0.0 km/h),471.2 m*86
$SMGPS2,-0.10 X,+0.35 Y,+0.89 Z,0 ENL,0 us,0.0 kmh,967.30 hPa,967.14 hPa,+0.01 m/s*08
$GNRMC,170551.60,A,4816.48408,N,01139.86904,E,0.14,,080522,,,A,V*2F
$GNGNS,170551.60,4816.48408,N,01139.86904,E,AAAN,23,0.58,452.5,46.2,,,V*14
$GNGSA,A,3,01,08,21,32,22,03,27,10,14,,,,1.00,0.58,0.82,1*0E
$GNGSA,A,3,81,65,88,66,72,82,73,,,,,,1.00,0.58,0.82,2*05
$GNGSA,A,3,34,15,05,03,09,21,36,,,,,,1.00,0.58,0.82,3*0F
$GNVTG,,T,,M,0.143,N,0.266,K,A*39
$SMGPS,0.0 m,-0.00 m/s,7.60 VRx,0.000 km,4 m,47.2 °,1:-- (  0.0 km/h),471.3 m*A1
$SMGPS2,-0.10 X,+0.35 Y,+0.89 Z,0 ENL,0 us,0.0 kmh,967.30 hPa,967.15 hPa,+0.01 m/s*09
$GNRMC,170551.70,A,4816.48409,N,01139.86904,E,0.10,,080522,,,A,V*2B
$GNGNS,170551.70,4816.48409,N,01139.86904,E,AAAN,23,0.58,452.5,46.2,,,V*14
$GNGSA,A,3,01,08,21,32,22,03,27,10,14,,,,1.00,0.58,0.82,1*0E
$GNGSA,A,3,81,65,88,66,72,82,73,,,,,,1.00,0.58,0.82,2*05
$GNGSA,A,3,34,15,05,03,09,21,36,,,,,,1.00,0.58,0.82,3*0F
$GNVTG,,T,,M,0.096,N,0.178,K,A*3C
$SMGPS,0.0 m,+0.00 m/s,7.57 VRx,0.000 km,4 m,47.2 °,1:-- (  0.0 km/h),471.3 m*A3
$SMGPS2,-0.10 X,+0.36 Y,+0.90 Z,0 ENL,0 us,0.0 kmh,967.29 hPa,967.15 hPa,+0.00 m/s*0B
$GNRMC,170551.80,A,4816.48410,N,01139.86905,E,0.07,,080522,,,A,V*2B
$GNGNS,170551.80,4816.48410,N,01139.86905,E,AAAN,23,0.58,452.5,46.2,,,V*12
$GNGSA,A,3,01,08,21,32,22,03,27,10,14,,,,1.00,0.58,0.82,1*0E
$GNGSA,A,3,81,65,88,66,72,82,73,,,,,,1.00,0.58,0.82,2*05
$GNGSA,A,3,34,15,05,03,09,21,36,,,,,,1.00,0.58,0.82,3*0F
$GNVTG,,T,,M,0.066,N,0.123,K,A*3D
$SMGPS,-0.0 m,+0.00 m/s,7.59 VRx,0.000 km,4 m,47.2 °,1:-- (  0.0 km/h),471.3 m*80
$SMGPS2,-0.09 X,+0.36 Y,+0.90 Z,0 ENL,0 us,0.0 kmh,967.30 hPa,967.15 hPa,-0.00 m/s*0D
$GNRMC,170551.90,A,4816.48411,N,01139.86905,E,0.15,,080522,,,A,V*28
$GNGNS,170551.90,4816.48411,N,01139.86905,E,AAAN,23,0.58,452.5,46.2,,,V*12
$GNGSA,A,3,01,08,21,32,22,03,27,10,14,,,,1.00,0.58,0.82,1*0E
$GNGSA,A,3,81,65,88,66,72,82,73,,,,,,1.00,0.58,0.82,2*05
$GNGSA,A,3,34,15,05,03,09,21,36,,,,,,1.00,0.58,0.82,3*0F
$GNVTG,,T,,M,0.147,N,0.271,K,A*3B
$SMGPS,-0.0 m,-0.00 m/s,7.57 VRx,0.000 km,4 m,47.2 °,1:-- (  0.0 km/h),471.4 m*8F
$SMGPS2,-0.10 X,+0.35 Y,+0.90 Z,0 ENL,0 us,0.0 kmh,967.30 hPa,967.15 hPa,-0.00 m/s*06
$GNRMC,170552.00,A,4816.48412,N,01139.86906,E,0.03,,080522,,,A,V*25
$GNGNS,170552.00,4816.48412,N,01139.86906,E,AAAN,23,0.58,452.5,46.2,,,V*18
$GNGSA,A,3,01,08,21,32,22,03,27,10,14,,,,1.00,0.58,0.82,1*0E
$GNGSA,A,3,81,65,88,66,72,82,73,,,,,,1.00,0.58,0.82,2*05
$GNGSA,A,3,34,15,05,03,09,21,36,,,,,,1.00,0.58,0.82,3*0F
$GNVTG,,T,,M,0.030,N,0.056,K,A*3D
$SMGPS,0.0 m,-0.01 m/s,7.59 VRx,0.000 km,4 m,47.2 °,1:-- (  0.0 km/h),471.4 m*AD
$SMGPS2,-0.10 X,+0.35 Y,+0.90 Z,1 ENL,0 us,0.0 kmh,967.30 hPa,967.16 hPa,-0.01 m/s*05
$GNRMC,170552.10,A,4816.48413,N,01139.86907,E,0.06,,080522,,,A,V*21
$GNGNS,170552.10,4816.48413,N,01139.86907,E,AAAN,23,0.58,452.5,46.2,,,V*19
$GNGSA,A,3,01,08,21,32,22,03,27,10,14,,,,1.00,0.58,0.82,1*0E
$GNGSA,A,3,81,65,88,66,72,82,73,,,,,,1.00,0.58,0.82,2*05
$GNGSA,A,3,34,15,05,03,09,21,36,,,,,,1.00,0.58,0.82,3*0F
$GNVTG,,T,,M,0.057,N,0.106,K,A*38
$SMGPS,-0.0 m,-0.01 m/s,7.57 VRx,0.000 km,4 m,47.2 °,1:-- (  0.0 km/h),471.4 m*8E
$SMGPS2,-0.10 X,+0.35 Y,+0.89 Z,0 ENL,0 us,0.0 kmh,967.30 hPa,967.15 hPa,-0.01 m/s*0F
$GNRMC,170552.20,A,4816.48414,N,01139.86908,E,0.06,,080522,,,A,V*2A
$GNGNS,170552.20,4816.48414,N,01139.86908,E,AAAN,23,0.58,452.5,46.2,,,V*12
$GNGSA,A,3,01,08,21,32,22,03,27,10,14,,,,1.00,0.58,0.82,1*0E
$GNGSA,A,3,81,65,88,66,72,82,73,,,,,,1.00,0.58,0.82,2*05
$GNGSA,A,3,34,15,05,03,09,21,36,,,,,,1.00,0.58,0.82,3*0F
$GNVTG,,T,,M,0.058,N,0.107,K,A*36
$SMGPS,0.0 m,-0.01 m/s,7.59 VRx,0.000 km,4 m,47.2 °,1:-- (  0.0 km/h),471.5 m*AC
$SMGPS2,-0.09 X,+0.36 Y,+0.89 Z,0 ENL,0 us,0.0 kmh,967.30 hPa,967.15 hPa,-0.02 m/s*07
$GNRMC,170552.30,A,4816.48415,N,01139.86909,E,0.06,,080522,,,A,V*2B
$GNGNS,170552.30,4816.48415,N,01139.86909,E,AAAN,23,0.58,452.5,46.2,,,V*13
$GNGSA,A,3,01,08,21,32,22,03,27,10,14,,,,1.00,0.58,0.82,1*0E
$GNGSA,A,3,81,65,88,66,72,82,73,,,,,,1.00,0.58,0.82,2*05
$GNGSA,A,3,34,15,05,03,09,21,36,,,,,,1.00,0.58,0.82,3*0F
$GNVTG,,T,,M,0.055,N,0.101,K,A*3D
$SMGPS,-0.0 m,-0.01 m/s,7.58 VRx,0.000 km,4 m,40.5 °,1:-- (  0.0 km/h),471.4 m*81
$SMGPS2,-0.09 X,+0.35 Y,+0.89 Z,0 ENL,0 us,0.0 kmh,967.30 hPa,967.16 hPa,-0.03 m/s*06
$GNRMC,170552.40,A,4816.48416,N,01139.86910,E,0.11,,080522,,,A,V*21
$GNGNS,170552.40,4816.48416,N,01139.86910,E,AAAN,23,0.58,452.5,46.2,,,V*1F
$GNGSA,A,3,01,08,21,32,22,03,27,10,14,,,,1.00,0.58,0.82,1*0E
$GNGSA,A,3,81,65,88,66,72,82,73,,,,,,1.00,0.58,0.82,2*05
$GNGSA,A,3,34,15,05,03,09,21,36,,,,,,1.00,0.58,0.82,3*0F
$GNVTG,,T,,M,0.104,N,0.192,K,A*32
$SMGPS,0.0 m,-0.02 m/s,7.59 VRx,0.000 km,4 m,40.5 °,1:-- (  0.0 km/h),471.4 m*AE
$SMGPS2,-0.10 X,+0.35 Y,+0.90 Z,0 ENL,0 us,0.0 kmh,967.30 hPa,967.15 hPa,-0.02 m/s*04
$GNRMC,170552.50,A,4816.48418,N,01139.86911,E,0.07,,080522,,,A,V*28
$GNGNS,170552.50,4816.48418,N,01139.86911,E,AAAN,22,0.59,452.5,46.2,,,V*11
$GNGSA,A,3,01,08,21,32,22,03,27,10,14,,,,1.02,0.59,0.83,1*0C
$GNGSA,A,3,81,65,88,66,72,82,73,,,,,,1.00,0.58,0.82,2*05
$GNGSA,A,3,34,15,05,03,09,21,36,,,,,,1.00,0.58,0.82,3*0F
$GNVTG,,T,,M,0.065,N,0.120,K,A*3D
$SMGPS,0.0 m,-0.02 m/s,7.58 VRx,0.000 km,4 m,40.5 °,1:-- (  0.0 km/h),471.4 m*AF
$SMGPS2,-0.10 X,+0.35 Y,+0.90 Z,0 ENL,0 us,0.0 kmh,967.30 hPa,967.15 hPa,-0.01 m/s*07
$GNRMC,170552.60,A,4816.48419,N,01139.86913,E,0.11,,080522,,,A,V*2F
$GNGNS,170552.60,4816.48419,N,01139.86913,E,AAAN,22,0.59,452.5,46.2,,,V*11
$GNGSA,A,3,01,08,21,32,22,03,27,10,14,,,,1.02,0.59,0.83,1*0C
$GNGSA,A,3,81,65,88,66,82,73,,,,,,,1.02,0.59,0.83,2*02
$GNGSA,A,3,34,15,05,03,09,21,36,,,,,,1.02,0.59,0.83,3*0D
$GNVTG,,T,,M,0.108,N,0.200,K,A*36
$SMGPS,0.0 m,-0.01 m/s,7.59 VRx,0.000 km,4 m,40.5 °,1:-- (  0.0 km/h),471.4 m*AD
$SMGPS2,-0.10 X,+0.35 Y,+0.90 Z,1 ENL,0 us,0.0 kmh,967.30 hPa,967.15 hPa,-0.02 m/s*05
$GNRMC,170552.70,A,4816.48420,N,01139.86913,E,0.15,,080522,,,A,V*20
$GNGNS,170552.70,4816.48420,N,01139.86913,E,AAAN,22,0.59,452.5,46.2,,,V*1A
$GNGSA,A,3,01,08,21,32,22,03,27,10,14,,,,1.02,0.59,0.83,1*0C
$GNGSA,A,3,81,65,88,66,82,73,,,,,,,1.02,0.59,0.83,2*02
$GNGSA,A,3,34,15,05,03,09,21,36,,,,,,1.02,0.59,0.83,3*0D
$GNVTG,,T,,M,0.147,N,0.273,K,A*39
$SMGPS,0.0 m,-0.01 m/s,7.59 VRx,0.000 km,4 m,40.5 °,1:-- (  0.0 km/h),471.4 m*AD
$SMGPS2,-0.10 X,+0.35 Y,+0.89 Z,0 ENL,0 us,0.0 kmh,967.30 hPa,967.16 hPa,-0.01 m/s*0C
$GNRMC,170552.80,A,4816.48421,N,01139.86914,E,0.08,,080522,,,A,V*25
$GNGNS,170552.80,4816.48421,N,01139.86914,E,AAAN,22,0.59,452.5,46.2,,,V*13
$GNGSA,A,3,01,08,21,32,22,03,27,10,14,,,,1.02,0.59,0.83,1*0C
$GNGSA,A,3,81,65,88,66,82,73,,,,,,,1.02,0.59,0.83,2*02
$GNGSA,A,3,34,15,05,03,09,21,36,,,,,,1.02,0.59,0.83,3*0D
$GNVTG,,T,,M,0.077,N,0.142,K,A*3A
$SMGPS,-0.0 m,-0.01 m/s,7.60 VRx,0.000 km,4 m,40.5 °,1:-- (  0.0 km/h),471.4 m*8A
$SMGPS2,-0.10 X,+0.35 Y,+0.89 Z,1 ENL,0 us,0.0 kmh,967.30 hPa,967.15 hPa,-0.01 m/s*0E
$GNRMC,170552.90,A,4816.48422,N,01139.86915,E,0.07,,080522,,,A,V*29
$GNGNS,170552.90,4816.48422,N,01139.86915,E,AAAN,22,0.59,452.5,46.2,,,V*10
$GNGSA,A,3,01,08,21,32,22,03,27,10,14,,,,1.02,0.59,0.83,1*0C
$GNGSA,A,3,81,65,88,66,82,73,,,,,,,1.02,0.59,0.83,2*02
$GNGSA,A,3,34,15,05,03,09,21,36,,,,,,1.02,0.59,0.83,3*0D
$GNVTG,,T,,M,0.071,N,0.131,K,A*38
$SMGPS,-0.0 m,-0.01 m/s,7.57 VRx,0.000 km,4 m,40.5 °,1:-- (  0.0 km/h),471.5 m*8F
$SMGPS2,-0.10 X,+0.35 Y,+0.90 Z,1 ENL,0 us,0.0 kmh,967.30 hPa,967.15 hPa,-0.01 m/s*06
$GNRMC,170553.00,A,4816.48423,N,01139.86916,E,0.14,,080522,,,A,V*21
$GNGNS,170553.00,4816.48423,N,01139.86916,E,AAAN,22,0.59,452.5,46.2,,,V*1A
$GNGSA,A,3,01,08,21,32,22,03,27,10,14,,,,1.02,0.59,0.83,1*0C
$GNGSA,A,3,81,65,88,66,82,73,,,,,,,1.02,0.59,0.83,2*02
$GNGSA,A,3,34,15,05,03,09,21,36,,,,,,1.02,0.59,0.83,3*0D
$GNVTG,,T,,M,0.137,N,0.254,K,A*3B
$SMGPS,-0.0 m,-0.01 m/s,7.60 VRx,0.000 km,4 m,40.5 °,1:-- (  0.0 km/h),471.5 m*8B
$SMGPS2,-0.10 X,+0.35 Y,+0.89 Z,0 ENL,0 us,0.0 kmh,967.30 hPa,967.15 hPa,-0.01 m/s*0F
$GNRMC,170553.10,A,4816.48424,N,01139.86917,E,0.03,,080522,,,A,V*20
$GNGNS,170553.10,4816.48424,N,01139.86917,E,AAAN,22,0.59,452.5,46.2,,,V*1D
$GNGSA,A,3,01,08,21,32,22,03,27,10,14,,,,1.02,0.59,0.83,1*0C
$GNGSA,A,3,81,65,88,66,82,73,,,,,,,1.02,0.59,0.83,2*02
$GNGSA,A,3,34,15,05,03,09,21,36,,,,,,1.02,0.59,0.83,3*0D
$GNVTG,,T,,M,0.029,N,0.053,K,A*30
$SMGPS,0.0 m,-0.01 m/s,7.58 VRx,0.000 km,4 m,40.5 °,1:-- (  0.0 km/h),471.5 m*AD
$SMGPS2,-0.10 X,+0.35 Y,+0.90 Z,0 ENL,0 us,0.0 kmh,967.30 hPa,967.15 hPa,-0.01 m/s*07
$GNRMC,170553.20,A,4816.48424,N,01139.86918,E,0.12,,080522,,,A,V*2C
$GNGNS,170553.20,4816.48424,N,01139.86918,E,AAAN,22,0.59,452.5,46.2,,,V*11
$GNGSA,A,3,01,08,21,32,22,03,27,10,14,,,,1.02,0.59,0.83,1*0C
$GNGSA,A,3,81,65,88,66,82,73,,,,,,,1.02,0.59,0.83,2*02
$GNGSA,A,3,34,15,05,03,09,21,36,,,,,,1.02,0.59,0.83,3*0D
$GNVTG,,T,,M,0.122,N,0.225,K,A*39
$SMGPS,-0.0 m,-0.01 m/s,7.61 VRx,0.000 km,4 m,40.5 °,1:-- (  0.0 km/h),471.5 m*8A
$SMGPS2,-0.10 X,+0.36 Y,+0.90 Z,0 ENL,0 us,0.0 kmh,967.30 hPa,967.15 hPa,-0.00 m/s*05
$GNRMC,170553.30,A,4816.48425,N,01139.86919,E,0.14,,080522,,,A,V*2B
$GNGNS,170553.30,4816.48425,N,01139.86919,E,AAAN,22,0.59,452.5,46.2,,,V*10
$GNGSA,A,3,01,08,21,32,22,03,27,10,14,,,,1.02,0.59,0.83,1*0C
$GNGSA,A,3,81,65,88,66,82,73,,,,,,,1.02,0.59,0.83,2*02
$GNGSA,A,3,34,15,05,03,09,21,36,,,,,,1.02,0.59,0.83,3*0D
$GNVTG,,T,,M,0.137,N,0.253,K,A*3C
$SMGPS,-0.0 m,-0.01 m/s,7.58 VRx,0.000 km,4 m,40.5 °,1:-- (  0.0 km/h),471.5 m*80
$SMGPS2,-0.10 X,+0.36 Y,+0.90 Z,0 ENL,0 us,0.0 kmh,967.30 hPa,967.15 hPa,-0.00 m/s*05
$GNRMC,170553.40,A,4816.48425,N,01139.86920,E,0.14,,080522,,,A,V*26
$GNGNS,170553.40,4816.48425,N,01139.86920,E,AAAN,22,0.59,452.5,46.2,,,V*1D
$GNGSA,A,3,01,08,21,32,22,03,27,10,14,,,,1.02,0.59,0.83,1*0C
$GNGSA,A,3,81,65,88,66,82,73,,,,,,,1.02,0.59,0.83,2*02
$GNGSA,A,3,34,15,05,03,09,21,36,,,,,,1.02,0.59,0.83,3*0D
$GNVTG,,T,,M,0.141,N,0.261,K,A*3C
$SMGPS,0.0 m,-0.01 m/s,7.61 VRx,0.000 km,4 m,40.5 °,1:-- (  0.0 km/h),471.5 m*A7
$SMGPS2,-0.09 X,+0.36 Y,+0.90 Z,1 ENL,0 us,0.0 kmh,967.30 hPa,967.15 hPa,-0.00 m/s*0C
$GNRMC,170553.50,A,4816.48426,N,01139.86921,E,0.07,,080522,,,A,V*27
$GNGNS,170553.50,4816.48426,N,01139.86921,E,AAAN,22,0.59,452.5,46.2,,,V*1E
$GNGSA,A,3,01,08,21,32,22,03,27,10,14,,,,1.02,0.59,0.83,1*0C
$GNGSA,A,3,81,65,88,66,82,73,,,,,,,1.02,0.59,0.83,2*02
$GNGSA,A,3,34,15,05,03,09,21,36,,,,,,1.02,0.59,0.83,3*0D
$GNVTG,,T,,M,0.066,N,0.122,K,A*3C
$SMGPS,0.0 m,-0.01 m/s,7.59 VRx,0.000 km,4 m,40.5 °,1:-- (  0.0 km/h),471.5 m*AC
$SMGPS2,-0.10 X,+0.35 Y,+0.89 Z,0 ENL,0 us,0.0 kmh,967.29 hPa,967.15 hPa,+0.00 m/s*00
$GNRMC,170553.60,A,4816.48427,N,01139.86922,E,0.11,,080522,,,A,V*21
$GNGNS,170553.60,4816.48427,N,01139.86922,E,AAAN,22,0.59,452.5,46.2,,,V*1F
$GNGSA,A,3,01,08,21,32,22,03,27,10,14,,,,1.02,0.59,0.83,1*0C
$GNGSA,A,3,81,65,88,66,82,73,,,,,,,1.02,0.59,0.83,2*02
$GNGSA,A,3,34,15,05,03,09,21,36,,,,,,1.02,0.59,0.83,3*0D
$GNVTG,,T,,M,0.105,N,0.195,K,A*34
$SMGPS,-0.0 m,-0.00 m/s,7.61 VRx,0.000 km,5 m,41.8 °,1:-- (  0.0 km/h),471.5 m*86
$SMGPS2,-0.10 X,+0.35 Y,+0.90 Z,0 ENL,0 us,0.0 kmh,967.30 hPa,967.15 hPa,+0.01 m/s*01
$GNRMC,170553.70,A,4816.48427,N,01139.86923,E,0.14,,080522,,,A,V*24
$GNGNS,170553.70,4816.48427,N,01139.86923,E,AAAN,22,0.59,452.5,46.2,,,V*1F
$GNGSA,A,3,01,08,21,32,22,03,27,10,14,,,,1.02,0.59,0.83,1*0C
$GNGSA,A,3,81,65,88,66,82,73,,,,,,,1.02,0.59,0.83,2*02
$GNGSA,A,3,34,15,05,03,09,21,36,,,,,,1.02,0.59,0.83,3*0D
$GNVTG,,T,,M,0.135,N,0.251,K,A*3C
$SMGPS,0.0 m,-0.00 m/s,7.59 VRx,0.000 km,5 m,41.8 °,1:-- (  0.0 km/h),471.5 m*A0
$SMGPS2,-0.10 X,+0.36 Y,+0.89 Z,0 ENL,0 us,0.0 kmh,967.30 hPa,967.15 hPa,+0.01 m/s*0A
$GNRMC,170553.80,A,4816.48428,N,01139.86923,E,0.01,,080522,,,A,V*20
$GNGNS,170553.80,4816.48428,N,01139.86923,E,AAAN,22,0.59,452.5,46.2,,,V*1F
$GNGSA,A,3,01,08,21,32,22,03,27,10,14,,,,1.02,0.59,0.83,1*0C
$GNGSA,A,3,81,65,88,66,82,73,,,,,,,1.02,0.59,0.83,2*02
$GNGSA,A,3,34,15,05,03,09,21,36,,,,,,1.02,0.59,0.83,3*0D
$GNVTG,,T,,M,0.014,N,0.026,K,A*3C
$SMGPS,0.0 m,+0.00 m/s,7.60 VRx,0.000 km,5 m,41.8 °,1:-- (  0.0 km/h),471.5 m*AC
$SMGPS2,-0.09 X,+0.35 Y,+0.89 Z,0 ENL,0 us,0.0 kmh,967.29 hPa,967.15 hPa,+0.01 m/s*09
$GNRMC,170553.90,A,4816.48428,N,01139.86923,E,0.15,,080522,,,A,V*24
$GNGNS,170553.90,4816.48428,N,01139.86923,E,AAAN,22,0.59,452.5,46.2,,,V*1E
$GNGSA,A,3,01,08,21,32,22,03,27,10,14,,,,1.02,0.59,0.83,1*0C
$GNGSA,A,3,81,65,88,66,82,73,,,,,,,1.02,0.59,0.83,2*02
$GNGSA,A,3,34,15,05,03,09,21,36,,,,,,1.02,0.59,0.83,3*0D
$GNVTG,,T,,M,0.147,N,0.272,K,A*38
$SMGPS,0.0 m,+0.00 m/s,7.59 VRx,0.000 km,5 m,41.8 °,1:-- (  0.0 km/h),471.5 m*A6
$SMGPS2,-0.10 X,+0.36 Y,+0.90 Z,0 ENL,0 us,0.0 kmh,967.30 hPa,967.15 hPa,+0.01 m/s*02
$GNRMC,170554.00,A,4816.48428,N,01139.86923,E,0.18,,080522,,,A,V*27
$GNGNS,170554.00,4816.48428,N,01139.86923,E,AAAN,22,0.59,452.5,46.2,,,V*10
$GNGSA,A,3,01,08,21,32,22,03,27,10,14,,,,1.02,0.59,0.83,1*0C
$GNGSA,A,3,81,65,88,66,82,73,,,,,,,1.02,0.59,0.83,2*02
$GNGSA,A,3,34,15,05,03,09,21,36,,,,,,1.02,0.59,0.83,3*0D
$GNVTG,,T,,M,0.175,N,0.325,K,A*3A
$SMGPS,0.0 m,+0.00 m/s,7.61 VRx,0.000 km,5 m,41.8 °,1:-- (  0.0 km/h),471.5 m*AD
$SMGPS2,-0.10 X,+0.35 Y,+0.89 Z,1 ENL,0 us,0.0 kmh,967.30 hPa,967.15 hPa,+0.01 m/s*08
$GNRMC,170554.10,A,4816.48428,N,01139.86923,E,0.07,,080522,,,A,V*28
$GNGNS,170554.10,4816.48428,N,01139.86923,E,AAAN,22,0.59,452.5,46.2,,,V*11
$GNGSA,A,3,01,08,21,32,22,03,27,10,14,,,,1.02,0.59,0.83,1*0C
$GNGSA,A,3,81,65,88,66,82,73,,,,,,,1.02,0.59,0.83,2*02
$GNGSA,A,3,34,15,05,03,09,21,36,,,,,,1.02,0.59,0.83,3*0D
$GNVTG,,T,,M,0.069,N,0.128,K,A*39
$SMGPS,0.0 m,+0.00 m/s,7.58 VRx,0.000 km,5 m,41.8 °,1:-- (  0.0 km/h),471.5 m*A7
$SMGPS2,-0.10 X,+0.35 Y,+0.90 Z,0 ENL,0 us,0.0 kmh,967.30 hPa,967.15 hPa,+0.01 m/s*01
$GNRMC,170554.20,A,4816.48428,N,01139.86923,E,0.16,,080522,,,A,V*2B
$GNGNS,170554.20,4816.48428,N,01139.86923,E,AAAN,22,0.59,452.5,46.2,,,V*12
$GNGSA,A,3,01,08,21,32,22,03,27,10,14,,,,1.02,0.59,0.83,1*0C
$GNGSA,A,3,81,65,88,66,82,73,,,,,,,1.02,0.59,0.83,2*02
$GNGSA,A,3,34,15,05,03,09,21,36,,,,,,1.02,0.59,0.83,3*0D
$GNVTG,,T,,M,0.159,N,0.294,K,A*3F
$SMGPS,-0.0 m,-0.00 m/s,7.60 VRx,0.000 km,5 m,41.8 °,1:-- (  0.0 km/h),471.5 m*87
$SMGPS2,-0.10 X,+0.36 Y,+0.90 Z,0 ENL,0 us,0.0 kmh,967.30 hPa,967.15 hPa,+0.01 m/s*02
$GNRMC,170554.30,A,4816.48428,N,01139.86923,E,0.07,,080522,,,A,V*2A
$GNGNS,170554.30,4816.48428,N,01139.86923,E,AAAN,22,0.59,452.5,46.2,,,V*13
$GNGSA,A,3,01,08,21,32,22,03,27,10,14,,,,1.02,0.59,0.83,1*0C
$GNGSA,A,3,81,65,88,66,82,73,,,,,,,1.02,0.59,0.83,2*02
$GNGSA,A,3,34,15,05,03,09,21,36,,,,,,1.02,0.59,0.83,3*0D
$GNVTG,,T,,M,0.067,N,0.125,K,A*3A
$SMGPS,-0.0 m,-0.01 m/s,7.57 VRx,0.000 km,5 m,41.8 °,1:-- (  0.0 km/h),471.5 m*82
$SMGPS2,-0.10 X,+0.35 Y,+0.90 Z,1 ENL,0 us,0.0 kmh,967.30 hPa,967.15 hPa,+0.00 m/s*01
$GNRMC,170554.40,A,4816.48429,N,01139.86923,E,0.14,,080522,,,A,V*2E
$GNGNS,170554.40,4816.48429,N,01139.86923,E,AAAN,22,0.59,452.5,46.2,,,V*15
$GNGSA,A,3,01,08,21,32,22,03,27,10,14,,,,1.02,0.59,0.83,1*0C
$GNGSA,A,3,81,65,88,66,82,73,,,,,,,1.02,0.59,0.83,2*02
$GNGSA,A,3,34,15,05,03,09,21,36,,,,,,1.02,0.59,0.83,3*0D
$GNVTG,,T,,M,0.140,N,0.259,K,A*36
$SMGPS,0.0 m,-0.01 m/s,7.60 VRx,0.000 km,5 m,41.8 °,1:-- (  0.0 km/h),471.6 m*A8
$SMGPS2,-0.09 X,+0.35 Y,+0.90 Z,0 ENL,0 us,0.0 kmh,967.30 hPa,967.15 hPa,-0.00 m/s*0E
$GNRMC,170554.50,A,4816.48429,N,01139.86923,E,0.09,,080522,,,A,V*23
$GNGNS,170554.50,4816.48429,N,01139.86923,E,AAAN,22,0.59,452.5,46.2,,,V*14
$GNGSA,A,3,01,08,21,32,22,03,27,10,14,,,,1.02,0.59,0.83,1*0C
$GNGSA,A,3,81,65,88,66,82,73,,,,,,,1.02,0.59,0.83,2*02
$GNGSA,A,3,34,15,05,03,09,21,36,,,,,,1.02,0.59,0.83,3*0D
$GNVTG,,T,,M,0.085,N,0.157,K,A*33
$SMGPS,-0.0 m,-0.01 m/s,7.56 VRx,0.000 km,5 m,41.8 °,1:-- (  0.0 km/h),471.6 m*80
$SMGPS2,-0.10 X,+0.35 Y,+0.90 Z,1 ENL,0 us,0.0 kmh,967.30 hPa,967.15 hPa,-0.00 m/s*07
$GNRMC,170554.60,A,4816.48428,N,01139.86922,E,0.12,,080522,,,A,V*2A
$GNGNS,170554.60,4816.48428,N,01139.86922,E,AAAN,22,0.59,452.5,46.2,,,V*17
$GNGSA,A,3,01,08,21,32,22,03,27,10,14,,,,1.02,0.59,0.83,1*0C
$GNGSA,A,3,81,65,88,66,82,73,,,,,,,1.02,0.59,0.83,2*02
$GNGSA,A,3,34,15,05,03,09,21,36,,,,,,1.02,0.59,0.83,3*0D
$GNVTG,,T,,M,0.117,N,0.217,K,A*3E
$SMGPS,-0.0 m,-0.01 m/s,7.60 VRx,0.000 km,5 m,41.8 °,1:-- (  0.0 km/h),471.6 m*85
$SMGPS2,-0.10 X,+0.35 Y,+0.90 Z,1 ENL,0 us,0.0 kmh,967.30 hPa,967.15 hPa,-0.00 m/s*07
$GNRMC,170554.70,A,4816.48428,N,01139.86922,E,0.05,,080522,,,A,V*2D
$GNGNS,170554.70,4816.48428,N,01139.86922,E,AAAN,22,0.59,452.5,46.2,,,V*16
$GNGSA,A,3,01,08,21,32,22,03,27,10,14,,,,1.02,0.59,0.83,1*0C
$GNGSA,A,3,81,65,88,66,82,73,,,,,,,1.02,0.59,0.83,2*02
$GNGSA,A,3,34,15,05,03,09,21,36,,,,,,1.02,0.59,0.83,3*0D
$GNVTG,,T,,M,0.041,N,0.076,K,A*39
$SMGPS,0.0 m,-0.02 m/s,7.58 VRx,0.000 km,5 m,41.8 °,1:-- (  0.0 km/h),471.6 m*A0
$SMGPS2,-0.10 X,+0.35 Y,+0.90 Z,0 ENL,0 us,0.0 kmh,967.30 hPa,967.15 hPa,+0.00 m/s*00
$GNRMC,170554.80,A,4816.48428,N,01139.86922,E,0.07,,080522,,,A,V*20
$GNGNS,170554.80,4816.48428,N,01139.86922,E,AAAN,22,0.59,452.5,46.2,,,V*19
$GNGSA,A,3,01,08,21,32,22,03,27,10,14,,,,1.02,0.59,0.83,1*0C
$GNGSA,A,3,81,65,88,66,82,73,,,,,,,1.02,0.59,0.83,2*02
$GNGSA,A,3,34,15,05,03,09,21,36,,,,,,1.02,0.59,0.83,3*0D
$GNVTG,,T,,M,0.060,N,0.112,K,A*39
$SMGPS,-0.0 m,-0.01 m/s,7.60 VRx,0.000 km,5 m,41.8 °,1:-- (  0.0 km/h),471.6 m*85
$SMGPS2,-0.10 X,+0.36 Y,+0.90 Z,0 ENL,0 us,0.0 kmh,967.30 hPa,967.15 hPa,-0.00 m/s*05
$GNRMC,170554.90,A,4816.48429,N,01139.86922,E,0.18,,080522,,,A,V*2E
$GNGNS,170554.90,4816.48429,N,01139.86922,E,AAAN,22,0.59,452.5,46.2,,,V*19
$GNGSA,A,3,01,08,21,32,22,03,27,10,14,,,,1.02,0.59,0.83,1*0C
$GNGSA,A,3,81,65,88,66,82,73,,,,,,,1.02,0.59,0.83,2*02
$GNGSA,A,3,34,15,05,03,09,21,36,,,,,,1.02,0.59,0.83,3*0D
$GNVTG,,T,,M,0.174,N,0.321,K,A*3F
$SMGPS,0.0 m,-0.01 m/s,7.59 VRx,0.000 km,5 m,41.8 °,1:-- (  0.0 km/h),471.6 m*A2
$SMGPS2,-0.10 X,+0.35 Y,+0.90 Z,1 ENL,0 us,0.0 kmh,967.30 hPa,967.15 hPa,+0.00 m/s*01
$GNRMC,170555.00,A,4816.48429,N,01139.86922,E,0.05,,080522,,,A,V*2A
$GNGNS,170555.00,4816.48429,N,01139.86922,E,AAAN,22,0.59,452.5,46.2,,,V*11
$GNGSA,A,3,01,08,21,32,22,03,27,10,14,,,,1.02,0.59,0.83,1*0C
$GNGSA,A,3,81,65,88,66,82,73,,,,,,,1.02,0.59,0.83,2*02
$GNGSA,A,3,34,15,05,03,09,21,36,,,,,,1.02,0.59,0.83,3*0D
$GNVTG,,T,,M,0.051,N,0.094,K,A*34
$SMGPS,0.0 m,-0.00 m/s,7.60 VRx,0.000 km,5 m,41.8 °,1:-- (  0.0 km/h),471.6 m*A9
$SMGPS2,-0.10 X,+0.35 Y,+0.89 Z,1 ENL,0 us,0.0 kmh,967.30 hPa,967.15 hPa,+0.00 m/s*09
$GNRMC,170555.10,A,4816.48429,N,01139.86922,E,0.08,,080522,,,A,V*26
$GNGNS,170555.10,4816.48429,N,01139.86922,E,AAAN,22,0.59,452.5,46.2,,,V*10
$GNGSA,A,3,01,08,21,32,22,03,27,10,14,,,,1.02,0.59,0.83,1*0C
$GNGSA,A,3,81,65,88,66,82,73,,,,,,,1.02,0.59,0.83,2*02
$GNGSA,A,3,34,15,05,03,09,21,36,,,,,,1.02,0.59,0.83,3*0D
$GNVTG,,T,,M,0.075,N,0.138,K,A*35
$SMGPS,0.0 m,+0.00 m/s,7.58 VRx,0.000 km,5 m,41.8 °,1:-- (  0.0 km/h),471.6 m*A4
$SMGPS2,-0.10 X,+0.36 Y,+0.90 Z,0 ENL,0 us,0.0 kmh,967.29 hPa,967.15 hPa,+0.00 m/s*0B
$GNRMC,170555.20,A,4816.48428,N,01139.86922,E,0.04,,080522,,,A,V*28
$GNGNS,170555.20,4816.48428,N,01139.86922,E,AAAN,22,0.59,452.5,46.2,,,V*12
$GNGSA,A,3,01,08,21,32,22,03,27,10,14,,,,1.02,0.59,0.83,1*0C
$GNGSA,A,3,81,65,88,66,82,73,,,,,,,1.02,0.59,0.83,2*02
$GNGSA,A,3,34,15,05,03,09,21,36,,,,,,1.02,0.59,0.83,3*0D
$GNVTG,,T,,M,0.038,N,0.070,K,A*31
$SMGPS,0.0 m,+0.00 m/s,7.60 VRx,0.000 km,5 m,41.8 °,1:-- (  0.0 km/h),471.6 m*AF
$SMGPS2,-0.10 X,+0.35 Y,+0.90 Z,0 ENL,0 us,0.0 kmh,967.30 hPa,967.15 hPa,+0.01 m/s*01
$GNRMC,170555.30,A,4816.48428,N,01139.86921,E,0.05,,080522,,,A,V*2B
$GNGNS,170555.30,4816.48428,N,01139.86921,E,AAAN,22,0.59,452.5,46.2,,,V*10
$GNGSA,A,3,01,08,21,32,22,03,27,10,14,,,,1.02,0.59,0.83,1*0C
$GNGSA,A,3,81,65,88,66,82,73,,,,,,,1.02,0.59,0.83,2*02
$GNGSA,A,3,34,15,05,03,09,21,36,,,,,,1.02,0.59,0.83,3*0D
$GNVTG,,T,,M,0.047,N,0.088,K,A*3E
$SMGPS,0.0 m,+0.01 m/s,7.59 VRx,0.000 km,5 m,41.8 °,1:-- (  0.0 km/h),471.6 m*A4
$SMGPS2,-0.10 X,+0.35 Y,+0.90 Z,0 ENL,0 us,0.0 kmh,967.30 hPa,967.15 hPa,+0.01 m/s*01
$GNRMC,170555.40,A,4816.48428,N,01139.86921,E,0.03,,080522,,,A,V*2A
$GNGNS,170555.40,4816.48428,N,01139.86921,E,AAAN,22,0.59,452.5,46.2,,,V*17
$GNGSA,A,3,01,08,21,32,22,03,27,10,14,,,,1.02,0.59,0.83,1*0C
$GNGSA,A,3,81,65,88,66,82,73,,,,,,,1.02,0.59,0.83,2*02
$GNGSA,A,3,34,15,05,03,09,21,36,,,,,,1.02,0.59,0.83,3*0D
$GNVTG,,T,,M,0.017,N,0.032,K,A*3A
$SMGPS,0.0 m,+0.01 m/s,7.61 VRx,0.000 km,5 m,41.8 °,1:-- (  0.0 km/h),471.6 m*AF
$SMGPS2,-0.10 X,+0.35 Y,+0.90 Z,1 ENL,0 us,0.0 kmh,967.30 hPa,967.15 hPa,+0.01 m/s*00
$GNRMC,170555.50,A,4816.48428,N,01139.86920,E,0.09,,080522,,,A,V*20
$GNGNS,170555.50,4816.48428,N,01139.86920,E,AAAN,22,0.59,452.5,46.2,,,V*17
$GNGSA,A,3,01,08,21,32,22,03,27,10,14,,,,1.02,0.59,0.83,1*0C
$GNGSA,A,3,81,65,88,66,82,73,,,,,,,1.02,0.59,0.83,2*02
$GNGSA,A,3,34,15,05,03,09,21,36,,,,,,1.02,0.59,0.83,3*0D
$GNVTG,,T,,M,0.081,N,0.150,K,A*30
$SMGPS,-0.0 m,+0.01 m/s,7.57 VRx,0.000 km,5 m,41.8 °,1:-- (  0.0 km/h),471.6 m*87
$SMGPS2,-0.09 X,+0.35 Y,+0.90 Z,1 ENL,0 us,0.0 kmh,967.30 hPa,967.15 hPa,+0.02 m/s*0B
$GNRMC,170555.60,A,4816.48428,N,01139.86920,E,0.17,,080522,,,A,V*2C
$GNGNS,170555.60,4816.48428,N,01139.86920,E,AAAN,22,0.59,452.5,46.2,,,V*14
$GNGSA,A,3,01,08,21,32,22,03,27,10,14,,,,1.02,0.59,0.83,1*0C
$GNGSA,A,3,81,65,88,66,82,73,,,,,,,1.02,0.59,0.83,2*02
$GNGSA,A,3,34,15,05,03,09,21,36,,,,,,1.02,0.59,0.83,3*0D
$GNVTG,,T,,M,0.169,N,0.313,K,A*32
$SMGPS,0.0 m,+0.02 m/s,7.61 VRx,0.000 km,4 m,40.5 °,1:-- (  0.0 km/h),471.6 m*A1
$SMGPS2,-0.10 X,+0.35 Y,+0.90 Z,0 ENL,0 us,0.0 kmh,967.29 hPa,967.15 hPa,+0.01 m/s*09
$GNRMC,170555.70,A,4816.48428,N,01139.86920,E,0.11,,080522,,,A,V*2B
$GNGNS,170555.70,4816.48428,N,01139.86920,E,AAAN,22,0.59,452.5,46.2,,,V*15
$GNGSA,A,3,01,08,21,32,22,03,27,10,14,,,,1.02,0.59,0.83,1*0C
$GNGSA,A,3,81,65,88,66,82,73,,,,,,,1.02,0.59,0.83,2*02
$GNGSA,A,3,34,15,05,03,09,21,36,,,,,,1.02,0.59,0.83,3*0D
$GNVTG,,T,,M,0.102,N,0.189,K,A*3E
$SMGPS,0.0 m,+0.02 m/s,7.58 VRx,0.000 km,4 m,40.5 °,1:-- (  0.0 km/h),471.6 m*AB
$SMGPS2,-0.10 X,+0.35 Y,+0.90 Z,1 ENL,0 us,0.0 kmh,967.29 hPa,967.15 hPa,+0.01 m/s*08
$GNRMC,170555.80,A,4816.48429,N,01139.86920,E,0.03,,080522,,,A,V*26
$GNGNS,170555.80,4816.48429,N,01139.86920,E,AAAN,22,0.59,452.5,46.2,,,V*1B
$GNGSA,A,3,01,08,21,32,22,03,27,10,14,,,,1.02,0.59,0.83,1*0C
$GNGSA,A,3,81,65,88,66,82,73,,,,,,,1.02,0.59,0.83,2*02
$GNGSA,A,3,34,15,05,03,09,21,36,,,,,,1.02,0.59,0.83,3*0D
$GNVTG,,T,,M,0.026,N,0.048,K,A*35
$SMGPS,-0.0 m,+0.01 m/s,7.61 VRx,0.000 km,4 m,40.5 °,1:-- (  0.0 km/h),471.6 m*8F
$SMGPS2,-0.10 X,+0.36 Y,+0.90 Z,0 ENL,0 us,0.0 kmh,967.30 hPa,967.15 hPa,+0.01 m/s*02
$GNRMC,170555.90,A,4816.48429,N,01139.86920,E,0.07,,080522,,,A,V*23
$GNGNS,170555.90,4816.48429,N,01139.86920,E,AAAN,22,0.59,452.5,46.2,,,V*1A
$GNGSA,A,3,01,08,21,32,22,03,27,10,14,,,,1.02,0.59,0.83,1*0C
$GNGSA,A,3,81,65,88,66,82,73,,,,,,,1.02,0.59,0.83,2*02
$GNGSA,A,3,34,15,05,03,09,21,36,,,,,,1.02,0.59,0.83,3*0D
$GNVTG,,T,,M,0.065,N,0.120,K,A*3D
$SMGPS,0.0 m,+0.01 m/s,7.59 VRx,0.000 km,4 m,40.5 °,1:-- (  0.0 km/h),471.6 m*A9
$SMGPS2,-0.10 X,+0.35 Y,+0.90 Z,1 ENL,0 us,0.0 kmh,967.29 hPa,967.15 hPa,+0.01 m/s*08
$GNRMC,170556.00,A,4816.48429,N,01139.86920,E,0.08,,080522,,,A,V*26
$GNGNS,170556.00,4816.48429,N,01139.86920,E,AAAN,22,0.59,452.5,46.2,,,V*10
$GNGSA,A,3,01,08,21,32,22,03,27,10,14,,,,1.02,0.59,0.83,1*0C
$GNGSA,A,3,81,65,88,66,82,73,,,,,,,1.02,0.59,0.83,2*02
$GNGSA,A,3,34,15,05,03,09,21,36,,,,,,1.02,0.59,0.83,3*0D
$GNVTG,,T,,M,0.076,N,0.141,K,A*38
$SMGPS,0.0 m,+0.01 m/s,7.66 VRx,0.000 km,4 m,40.5 °,1:-- (  0.0 km/h),471.6 m*A5
$SMGPS2,-0.10 X,+0.35 Y,+0.89 Z,1 ENL,0 us,0.0 kmh,967.29 hPa,967.15 hPa,+0.01 m/s*00
$GNRMC,170556.10,A,4816.48429,N,01139.86920,E,0.13,,080522,,,A,V*2D
$GNGNS,170556.10,4816.48429,N,01139.86920,E,AAAN,22,0.59,452.5,46.2,,,V*11
$GNGSA,A,3,01,08,21,32,22,03,27,10,14,,,,1.02,0.59,0.83,1*0C
$GNGSA,A,3,81,65,88,66,82,73,,,,,,,1.02,0.59,0.83,2*02
$GNGSA,A,3,34,15,05,03,09,21,36,,,,,,1.02,0.59,0.83,3*0D
$GNVTG,,T,,M,0.128,N,0.237,K,A*30
$SMGPS,0.0 m,+0.01 m/s,7.57 VRx,0.000 km,4 m,40.5 °,1:-- (  0.0 km/h),471.6 m*A7
$SMGPS2,-0.10 X,+0.35 Y,+0.89 Z,1 ENL,0 us,0.0 kmh,967.29 hPa,967.15 hPa,+0.00 m/s*01
$GNRMC,170556.20,A,4816.48429,N,01139.86921,E,0.10,,080522,,,A,V*2C
$GNGNS,170556.20,4816.48429,N,01139.86921,E,AAAN,22,0.59,452.5,46.2,,,V*13
$GNGSA,A,3,01,08,21,32,22,03,27,10,14,,,,1.02,0.59,0.83,1*0C
$GNGSA,A,3,81,65,88,66,82,73,,,,,,,1.02,0.59,0.83,2*02
$GNGSA,A,3,34,15,05,03,09,21,36,,,,,,1.02,0.59,0.83,3*0D
$GNVTG,,T,,M,0.096,N,0.177,K,A*33
$SMGPS,-0.0 m,+0.00 m/s,7.57 VRx,0.000 km,4 m,40.5 °,1:-- (  0.0 km/h),471.6 m*8B
$SMGPS2,-0.10 X,+0.36 Y,+0.90 Z,0 ENL,0 us,0.0 kmh,967.30 hPa,967.15 hPa,+0.00 m/s*03
$GNRMC,170556.30,A,4816.48429,N,01139.86921,E,0.03,,080522,,,A,V*2F
$GNGNS,170556.30,4816.48429,N,01139.86921,E,AAAN,22,0.59,452.5,46.2,,,V*12
$GNGSA,A,3,01,08,21,32,22,03,27,10,14,,,,1.02,0.59,0.83,1*0C
$GNGSA,A,3,81,65,88,66,82,73,,,,,,,1.02,0.59,0.83,2*02
