$GPSSETUP,8AE8,0,1,1,0,0,1,0,0,0,1,3,0,0,0,0,6,0,C8,C8,1F4,1C2,32,64,7C,64,7D0,5,1,1,1E,0,0,0,0,0,0,1003,4,10,5,6,10,10,10,10,10,10,10,10,10,BC10,0,80,0,108,302,604,0,20F,0,0,0,0,0,0,0,0,0,0,0,0,0,0,0,0,0,0,0,0,0,0,0,0,0,0,0,0,0,0,0,0,0,20,12C,1EC6*46
$GNRMC,171710.00,A,4816.48327,N,01139.86741,E,0.78,,080522,,,A,V*20
$GNGNS,171710.00,4816.48327,N,01139.86741,E,AAAN,11,1.17,464.5,46.2,,,V*1F
$GNGSA,A,3,01,32,03,14,17,,,,,,,,1.83,1.17,1.42,1*0B
$GNGSA,A,3,81,82,,,,,,,,,,,1.88,1.20,1.44,2*02
$GNGSA,A,3,15,34,27,,,,,,,,,,1.88,1.20,1.44,3*06
$GNVTG,,T,,M,0.779,N,1.443,K,A*36
$SMGPS,-0.0 m,-0.02 m/s,7.64 VRx,0.000 km,0 m,90.0 °,1:-- (  0.0 km/h),464.5 m*84
$SMGPS2,-0.10 X,+0.29 Y,+0.95 Z,5 ENL,0 us,0.0 kmh,967.31 hPa,967.19 hPa,-0.01 m/s*07
$GNRMC,171710.10,A,4816.48304,N,01139.86703,E,0.29,,080522,,,A,V*22
$GNGNS,171710.10,4816.48304,N,01139.86703,E,AAAN,12,1.09,464.5,46.2,,,V*15
$GNGSA,A,3,01,32,03,14,17,,,,,,,,1.77,1.09,1.39,1*03
$GNGSA,A,3,81,82,,,,,,,,,,,1.83,1.17,1.42,2*0B
$GNGSA,A,3,15,34,27,21,,,,,,,,,1.83,1.17,1.42,3*0C
$GNVTG,,T,,M,0.286,N,0.530,K,A*37
$SMGPS,-0.0 m,-0.03 m/s,7.65 VRx,0.000 km,1 m,90.0 °,1:-- (  0.0 km/h),466.2 m*80
$SMGPS2,-0.09 X,+0.30 Y,+0.96 Z,5 ENL,0 us,0.0 kmh,967.31 hPa,967.19 hPa,-0.01 m/s*04
$GNRMC,171710.20,A,4816.48290,N,01139.86669,E,0.39,,080522,,,A,V*21
$GNGNS,171710.20,4816.48290,N,01139.86669,E,AAAN,15,0.98,464.5,46.2,,,V*19
$GNGSA,A,3,01,32,03,22,14,17,,,,,,,1.65,0.98,1.33,1*03
$GNGSA,A,3,81,88,82,,,,,,,,,,1.77,1.09,1.39,2*03
$GNGSA,A,3,15,34,27,21,,,,,,,,,1.77,1.09,1.39,3*04
$GNVTG,,T,,M,0.385,N,0.713,K,A*36
$SMGPS,0.0 m,-0.03 m/s,7.59 VRx,0.000 km,1 m,170.6 °,1:-- (  0.0 km/h),468.2 m*95
$SMGPS2,-0.09 X,+0.29 Y,+0.93 Z,1 ENL,0 us,0.0 kmh,967.30 hPa,967.19 hPa,-0.01 m/s*0C
$GNRMC,171710.30,A,4816.48338,N,01139.86688,E,0.30,,080522,,,A,V*25
$GNGNS,171710.30,4816.48338,N,01139.86688,E,AAAN,17,0.88,464.5,46.2,,,V*17
$GNGSA,A,3,01,32,03,21,08,22,14,17,,,,,1.50,0.88,1.22,1*0F
$GNGSA,A,3,81,65,88,82,,,,,,,,,1.65,0.98,1.33,2*00
$GNGSA,A,3,15,34,05,27,21,,,,,,,,1.65,0.98,1.33,3*01
$GNVTG,,T,,M,0.296,N,0.549,K,A*38
$SMGPS,-0.0 m,-0.03 m/s,7.56 VRx,0.000 km,1 m,198.4 °,1:-- (  0.0 km/h),469.6 m*B6
$SMGPS2,-0.09 X,+0.29 Y,+0.92 Z,1 ENL,0 us,0.0 kmh,967.31 hPa,967.20 hPa,-0.01 m/s*06
$GNRMC,171710.40,A,4816.48385,N,01139.86701,E,0.30,,080522,,,A,V*24
$GNGNS,171710.40,4816.48385,N,01139.86701,E,AAAN,18,0.81,464.5,46.2,,,V*10
$GNGSA,A,3,01,32,03,21,08,22,14,17,,,,,1.44,0.81,1.19,1*0B
$GNGSA,A,3,81,65,88,82,,,,,,,,,1.50,0.88,1.22,2*07
$GNGSA,A,3,15,34,05,27,21,,,,,,,,1.50,0.88,1.22,3*06
$GNVTG,,T,,M,0.296,N,0.548,K,A*39
$SMGPS,-0.0 m,-0.03 m/s,7.58 VRx,0.000 km,0 m,270.0 °,1:-- (  0.0 km/h),469.5 m*BB
$SMGPS2,-0.09 X,+0.29 Y,+0.93 Z,0 ENL,0 us,0.0 kmh,967.31 hPa,967.19 hPa,-0.01 m/s*0C
$GNRMC,171710.50,A,4816.48397,N,01139.86705,E,0.23,,080522,,,A,V*20
$GNGNS,171710.50,4816.48397,N,01139.86705,E,AAAN,18,0.81,464.5,46.2,,,V*16
$GNGSA,A,3,01,32,03,21,08,22,14,17,,,,,1.44,0.81,1.19,1*0B
$GNGSA,A,3,81,65,88,82,,,,,,,,,1.44,0.81,1.19,2*03
$GNGSA,A,3,15,34,05,03,27,21,,,,,,,1.44,0.81,1.19,3*01
$GNVTG,,T,,M,0.221,N,0.409,K,A*31
$SMGPS,0.0 m,-0.03 m/s,7.55 VRx,0.000 km,1 m,9.4 °,1:-- (  0.0 km/h),470.7 m*98
$SMGPS2,-0.09 X,+0.29 Y,+0.92 Z,0 ENL,0 us,0.0 kmh,967.30 hPa,967.20 hPa,-0.02 m/s*05
$GNRMC,171710.60,A,4816.48390,N,01139.86710,E,0.18,,080522,,,A,V*28
$GNGNS,171710.60,4816.48390,N,01139.86710,E,AAAN,18,0.81,464.5,46.2,,,V*16
$GNGSA,A,3,01,32,03,21,08,22,14,17,,,,,1.44,0.81,1.19,1*0B
$GNGSA,A,3,81,65,88,82,,,,,,,,,1.44,0.81,1.19,2*03
$GNGSA,A,3,15,34,05,03,27,21,,,,,,,1.44,0.81,1.19,3*01
$GNVTG,,T,,M,0.176,N,0.326,K,A*3A
$SMGPS,-0.0 m,-0.02 m/s,7.59 VRx,0.000 km,1 m,9.4 °,1:-- (  0.0 km/h),470.7 m*B8
$SMGPS2,-0.10 X,+0.29 Y,+0.93 Z,0 ENL,0 us,0.0 kmh,967.31 hPa,967.20 hPa,-0.02 m/s*0D
$GNRMC,171710.70,A,4816.48374,N,01139.86711,E,0.06,,080522,,,A,V*2D
$GNGNS,171710.70,4816.48374,N,01139.86711,E,AAAN,20,0.72,464.5,46.2,,,V*1B
$GNGSA,A,3,01,32,03,21,08,22,14,27,17,,,,1.26,0.72,1.03,1*0D
$GNGSA,A,3,81,65,88,82,,,,,,,,,1.44,0.81,1.19,2*03
$GNGSA,A,3,15,34,05,03,27,21,,,,,,,1.44,0.81,1.19,3*01
$GNVTG,,T,,M,0.035,N,0.065,K,A*38
$SMGPS,0.0 m,-0.02 m/s,7.55 VRx,0.000 km,1 m,9.4 °,1:-- (  0.0 km/h),470.0 m*9E
$SMGPS2,-0.09 X,+0.29 Y,+0.93 Z,0 ENL,0 us,0.0 kmh,967.30 hPa,967.20 hPa,-0.03 m/s*05
$GNRMC,171710.80,A,4816.48364,N,01139.86724,E,0.10,,080522,,,A,V*22
$GNGNS,171710.80,4816.48364,N,01139.86724,E,AAAN,21,0.65,464.5,46.2,,,V*14
$GNGSA,A,3,01,32,03,21,08,22,14,27,17,,,,1.13,0.65,0.93,1*05
$GNGSA,A,3,81,65,66,88,82,,,,,,,,1.26,0.72,1.03,2*00
$GNGSA,A,3,15,34,05,03,27,21,,,,,,,1.26,0.72,1.03,3*02
$GNVTG,,T,,M,0.091,N,0.168,K,A*3A
$SMGPS,-0.0 m,-0.02 m/s,7.58 VRx,0.000 km,1 m,9.4 °,1:-- (  0.0 km/h),469.3 m*B5
$SMGPS2,-0.09 X,+0.29 Y,+0.92 Z,1 ENL,0 us,0.0 kmh,967.31 hPa,967.20 hPa,-0.03 m/s*04
$GNRMC,171710.90,A,4816.48384,N,01139.86738,E,0.18,,080522,,,A,V*28
$GNGNS,171710.90,4816.48384,N,01139.86738,E,AAAN,21,0.65,464.5,46.2,,,V*16
$GNGSA,A,3,01,32,03,21,08,22,14,27,17,,,,1.13,0.65,0.93,1*05
$GNGSA,A,3,81,65,66,88,82,,,,,,,,1.13,0.65,0.93,2*08
$GNGSA,A,3,15,34,05,03,27,09,21,,,,,,1.13,0.65,0.93,3*03
$GNVTG,,T,,M,0.175,N,0.325,K,A*3A
$SMGPS,0.0 m,-0.02 m/s,7.56 VRx,0.000 km,0 m,90.0 °,1:-- (  0.0 km/h),469.0 m*A0
$SMGPS2,-0.09 X,+0.29 Y,+0.92 Z,0 ENL,0 us,0.0 kmh,967.31 hPa,967.19 hPa,-0.03 m/s*0F
$GNRMC,171711.00,A,4816.48385,N,01139.86740,E,0.14,,080522,,,A,V*22
$GNGNS,171711.00,4816.48385,N,01139.86740,E,AAAN,21,0.65,464.5,46.2,,,V*10
$GNGSA,A,3,01,32,03,21,08,22,14,27,17,,,,1.13,0.65,0.93,1*05
$GNGSA,A,3,81,65,66,88,82,,,,,,,,1.13,0.65,0.93,2*08
$GNGSA,A,3,15,34,05,03,27,09,21,,,,,,1.13,0.65,0.93,3*03
$GNVTG,,T,,M,0.135,N,0.250,K,A*3D
$SMGPS,0.0 m,-0.01 m/s,7.58 VRx,0.000 km,1 m,36.8 °,1:-- (  0.0 km/h),468.6 m*AF
$SMGPS2,-0.10 X,+0.29 Y,+0.93 Z,0 ENL,0 us,0.0 kmh,967.31 hPa,967.19 hPa,-0.02 m/s*07
$GNRMC,171711.10,A,4816.48381,N,01139.86744,E,0.18,,080522,,,A,V*2F
$GNGNS,171711.10,4816.48381,N,01139.86744,E,AAAN,21,0.65,464.5,46.2,,,V*11
$GNGSA,A,3,01,32,03,21,08,22,14,27,17,,,,1.13,0.65,0.93,1*05
$GNGSA,A,3,81,65,66,88,82,,,,,,,,1.13,0.65,0.93,2*08
$GNGSA,A,3,15,34,05,03,27,09,21,,,,,,1.13,0.65,0.93,3*03
$GNVTG,,T,,M,0.174,N,0.323,K,A*3D
$SMGPS,-0.0 m,-0.01 m/s,7.57 VRx,0.000 km,1 m,36.8 °,1:-- (  0.0 km/h),468.2 m*89
$SMGPS2,-0.09 X,+0.29 Y,+0.92 Z,1 ENL,0 us,0.0 kmh,967.31 hPa,967.20 hPa,-0.02 m/s*05
$GNRMC,171711.20,A,4816.48380,N,01139.86739,E,0.15,,080522,,,A,V*2A
$GNGNS,171711.20,4816.48380,N,01139.86739,E,AAAN,22,0.61,464.5,46.2,,,V*1E
$GNGSA,A,3,01,32,03,21,08,22,14,27,10,17,,,1.07,0.61,0.88,1*0F
$GNGSA,A,3,81,65,66,88,82,,,,,,,,1.13,0.65,0.93,2*08
$GNGSA,A,3,15,34,05,03,27,09,21,,,,,,1.13,0.65,0.93,3*03
$GNVTG,,T,,M,0.151,N,0.279,K,A*34
$SMGPS,-0.0 m,-0.01 m/s,7.58 VRx,0.000 km,1 m,36.8 °,1:-- (  0.0 km/h),468.2 m*86
$SMGPS2,-0.09 X,+0.28 Y,+0.93 Z,1 ENL,0 us,0.0 kmh,967.31 hPa,967.20 hPa,-0.01 m/s*06
$GNRMC,171711.30,A,4816.48383,N,01139.86746,E,0.15,,080522,,,A,V*20
$GNGNS,171711.30,4816.48383,N,01139.86746,E,AAAN,22,0.61,464.5,46.2,,,V*14
$GNGSA,A,3,01,32,03,21,08,22,14,27,10,17,,,1.07,0.61,0.88,1*0F
$GNGSA,A,3,81,65,66,88,82,,,,,,,,1.07,0.61,0.88,2*03
$GNGSA,A,3,15,34,05,03,27,09,21,,,,,,1.07,0.61,0.88,3*08
$GNVTG,,T,,M,0.148,N,0.275,K,A*30
$SMGPS,-0.0 m,-0.01 m/s,7.56 VRx,0.000 km,1 m,36.8 °,1:-- (  0.0 km/h),468.3 m*89
$SMGPS2,-0.10 X,+0.29 Y,+0.93 Z,0 ENL,0 us,0.0 kmh,967.31 hPa,967.20 hPa,-0.01 m/s*0E
$GNRMC,171711.40,A,4816.48388,N,01139.86752,E,0.26,,080522,,,A,V*29
$GNGNS,171711.40,4816.48388,N,01139.86752,E,AAAN,22,0.61,464.5,46.2,,,V*1D
$GNGSA,A,3,01,32,03,21,08,22,14,27,10,17,,,1.07,0.61,0.88,1*0F
$GNGSA,A,3,81,65,66,88,82,,,,,,,,1.07,0.61,0.88,2*03
$GNGSA,A,3,15,34,05,03,27,09,21,,,,,,1.07,0.61,0.88,3*08
$GNVTG,,T,,M,0.258,N,0.477,K,A*36
$SMGPS,0.0 m,-0.01 m/s,7.57 VRx,0.000 km,1 m,36.8 °,1:-- (  0.0 km/h),468.4 m*A2
$SMGPS2,-0.09 X,+0.29 Y,+0.92 Z,0 ENL,0 us,0.0 kmh,967.31 hPa,967.20 hPa,-0.01 m/s*07
$GNRMC,171711.50,A,4816.48383,N,01139.86753,E,0.21,,080522,,,A,V*25
$GNGNS,171711.50,4816.48383,N,01139.86753,E,AAAN,22,0.61,464.5,46.2,,,V*16
$GNGSA,A,3,01,32,03,21,08,22,14,27,10,17,,,1.07,0.61,0.88,1*0F
$GNGSA,A,3,81,65,66,88,82,,,,,,,,1.07,0.61,0.88,2*03
$GNGSA,A,3,15,34,05,03,27,09,21,,,,,,1.07,0.61,0.88,3*08
$GNVTG,,T,,M,0.206,N,0.381,K,A*33
$SMGPS,0.0 m,-0.01 m/s,7.55 VRx,0.000 km,1 m,42.5 °,1:-- (  0.0 km/h),468.7 m*AD
$SMGPS2,-0.09 X,+0.29 Y,+0.92 Z,0 ENL,0 us,0.0 kmh,967.31 hPa,967.20 hPa,-0.01 m/s*07
$GNRMC,171711.60,A,4816.48386,N,01139.86754,E,0.35,,080522,,,A,V*21
$GNGNS,171711.60,4816.48386,N,01139.86754,E,AAAN,22,0.61,464.5,46.2,,,V*17
$GNGSA,A,3,01,32,03,21,08,22,14,27,10,17,,,1.07,0.61,0.88,1*0F
$GNGSA,A,3,81,65,66,88,82,,,,,,,,1.07,0.61,0.88,2*03
$GNGSA,A,3,15,34,05,03,27,09,21,,,,,,1.07,0.61,0.88,3*08
$GNVTG,,T,,M,0.347,N,0.644,K,A*3B
$SMGPS,-0.0 m,-0.01 m/s,7.57 VRx,0.000 km,1 m,42.5 °,1:-- (  0.0 km/h),468.7 m*82
$SMGPS2,-0.10 X,+0.28 Y,+0.93 Z,1 ENL,0 us,0.0 kmh,967.31 hPa,967.19 hPa,-0.01 m/s*04
$GNRMC,171711.70,A,4816.48374,N,01139.86756,E,0.51,,080522,,,A,V*2D
$GNGNS,171711.70,4816.48374,N,01139.86756,E,AAAN,22,0.61,464.5,46.2,,,V*19
$GNGSA,A,3,01,32,03,21,08,22,14,27,10,17,,,1.07,0.61,0.88,1*0F
$GNGSA,A,3,81,65,66,88,82,,,,,,,,1.07,0.61,0.88,2*03
$GNGSA,A,3,15,34,05,03,27,09,21,,,,,,1.07,0.61,0.88,3*08
$GNVTG,,T,,M,0.505,N,0.935,K,A*32
$SMGPS,-0.0 m,-0.02 m/s,7.55 VRx,0.000 km,1 m,42.5 °,1:-- (  0.0 km/h),468.9 m*8D
$SMGPS2,-0.10 X,+0.29 Y,+0.92 Z,0 ENL,0 us,0.0 kmh,967.31 hPa,967.20 hPa,-0.01 m/s*0F
$GNRMC,171711.80,A,4816.48375,N,01139.86759,E,0.20,,080522,,,A,V*2A
$GNGNS,171711.80,4816.48375,N,01139.86759,E,AAAN,22,0.61,464.5,46.2,,,V*18
$GNGSA,A,3,01,32,03,21,08,22,14,27,10,17,,,1.07,0.61,0.88,1*0F
$GNGSA,A,3,81,65,66,88,82,,,,,,,,1.07,0.61,0.88,2*03
$GNGSA,A,3,15,34,05,03,27,09,21,,,,,,1.07,0.61,0.88,3*08
$GNVTG,,T,,M,0.199,N,0.368,K,A*31
$SMGPS,0.0 m,-0.01 m/s,7.57 VRx,0.000 km,1 m,42.5 °,1:-- (  0.0 km/h),469.0 m*A9
$SMGPS2,-0.10 X,+0.29 Y,+0.93 Z,0 ENL,0 us,0.0 kmh,967.31 hPa,967.19 hPa,-0.01 m/s*04
$GNRMC,171711.90,A,4816.48372,N,01139.86762,E,0.13,,080522,,,A,V*24
$GNGNS,171711.90,4816.48372,N,01139.86762,E,AAAN,22,0.61,464.5,46.2,,,V*16
$GNGSA,A,3,01,32,03,21,08,22,14,27,10,17,,,1.07,0.61,0.88,1*0F
$GNGSA,A,3,81,65,66,88,82,,,,,,,,1.07,0.61,0.88,2*03
$GNGSA,A,3,15,34,05,03,27,09,21,,,,,,1.07,0.61,0.88,3*08
$GNVTG,,T,,M,0.124,N,0.230,K,A*3B
$SMGPS,-0.0 m,-0.02 m/s,7.54 VRx,0.000 km,1 m,42.5 °,1:-- (  0.0 km/h),469.0 m*84
$SMGPS2,-0.09 X,+0.30 Y,+0.92 Z,0 ENL,0 us,0.0 kmh,967.31 hPa,967.19 hPa,-0.00 m/s*04
$GNRMC,171712.00,A,4816.48369,N,01139.86763,E,0.13,,080522,,,A,V*25
$GNGNS,171712.00,4816.48369,N,01139.86763,E,AAAN,22,0.61,464.5,46.2,,,V*17
$GNGSA,A,3,01,32,03,21,08,22,14,27,10,17,,,1.07,0.61,0.88,1*0F
$GNGSA,A,3,81,65,66,88,82,,,,,,,,1.07,0.61,0.88,2*03
$GNGSA,A,3,15,34,05,03,27,09,21,,,,,,1.07,0.61,0.88,3*08
$GNVTG,,T,,M,0.127,N,0.235,K,A*3D
$SMGPS,-0.0 m,-0.01 m/s,7.59 VRx,0.000 km,1 m,47.2 °,1:-- (  0.0 km/h),469.0 m*88
$SMGPS2,-0.09 X,+0.29 Y,+0.93 Z,0 ENL,0 us,0.0 kmh,967.31 hPa,967.19 hPa,-0.00 m/s*0D
$GNRMC,171712.10,A,4816.48366,N,01139.86761,E,0.17,,080522,,,A,V*2D
$GNGNS,171712.10,4816.48366,N,01139.86761,E,AAAN,22,0.61,464.5,46.2,,,V*1B
$GNGSA,A,3,01,32,03,21,08,22,14,27,10,17,,,1.07,0.61,0.88,1*0F
$GNGSA,A,3,81,65,66,88,82,,,,,,,,1.07,0.61,0.88,2*03
$GNGSA,A,3,15,34,05,03,27,09,21,,,,,,1.07,0.61,0.88,3*08
$GNVTG,,T,,M,0.165,N,0.305,K,A*39
$SMGPS,0.0 m,-0.01 m/s,7.54 VRx,0.000 km,1 m,47.2 °,1:-- (  0.0 km/h),468.9 m*A0
$SMGPS2,-0.10 X,+0.29 Y,+0.93 Z,0 ENL,0 us,0.0 kmh,967.30 hPa,967.19 hPa,+0.00 m/s*02
$GNRMC,171712.20,A,4816.48364,N,01139.86758,E,0.07,,080522,,,A,V*27
$GNGNS,171712.20,4816.48364,N,01139.86758,E,AAAN,22,0.61,464.5,46.2,,,V*10
$GNGSA,A,3,01,32,03,21,08,22,14,27,10,17,,,1.07,0.61,0.88,1*0F
$GNGSA,A,3,81,65,66,88,82,,,,,,,,1.07,0.61,0.88,2*03
$GNGSA,A,3,15,34,05,03,27,09,21,,,,,,1.07,0.61,0.88,3*08
$GNVTG,,T,,M,0.069,N,0.127,K,A*36
$SMGPS,0.0 m,-0.01 m/s,7.58 VRx,0.000 km,1 m,42.5 °,1:-- (  0.0 km/h),468.9 m*AE
$SMGPS2,-0.09 X,+0.29 Y,+0.92 Z,0 ENL,0 us,0.0 kmh,967.30 hPa,967.19 hPa,+0.01 m/s*0A
$GNRMC,171712.30,A,4816.48361,N,01139.86756,E,0.48,,080522,,,A,V*26
$GNGNS,171712.30,4816.48361,N,01139.86756,E,AAAN,22,0.61,464.5,46.2,,,V*1A
$GNGSA,A,3,01,32,03,21,08,22,14,27,10,17,,,1.07,0.61,0.88,1*0F
$GNGSA,A,3,81,65,66,88,82,,,,,,,,1.07,0.61,0.88,2*03
$GNGSA,A,3,15,34,05,03,27,09,21,,,,,,1.07,0.61,0.88,3*08
$GNVTG,,T,,M,0.481,N,0.892,K,A*33
$SMGPS,0.0 m,-0.01 m/s,7.54 VRx,0.000 km,1 m,90.0 °,1:-- (  0.0 km/h),468.7 m*A6
$SMGPS2,-0.09 X,+0.29 Y,+0.92 Z,0 ENL,0 us,0.0 kmh,967.30 hPa,967.19 hPa,+0.01 m/s*0A
$GNRMC,171712.40,A,4816.48361,N,01139.86757,E,0.07,,080522,,,A,V*2B
$GNGNS,171712.40,4816.48361,N,01139.86757,E,AAAN,22,0.61,464.5,46.2,,,V*1C
$GNGSA,A,3,01,32,03,21,08,22,14,27,10,17,,,1.07,0.61,0.88,1*0F
$GNGSA,A,3,81,65,66,88,82,,,,,,,,1.07,0.61,0.88,2*03
$GNGSA,A,3,15,34,05,03,27,09,21,,,,,,1.07,0.61,0.88,3*08
$GNVTG,,T,,M,0.072,N,0.134,K,A*3E
$SMGPS,-0.0 m,-0.01 m/s,7.57 VRx,0.000 km,1 m,90.0 °,1:-- (  0.0 km/h),468.7 m*88
$SMGPS2,-0.09 X,+0.29 Y,+0.92 Z,1 ENL,0 us,0.0 kmh,967.31 hPa,967.19 hPa,+0.01 m/s*0A
$GNRMC,171712.50,A,4816.48364,N,01139.86759,E,0.04,,080522,,,A,V*22
$GNGNS,171712.50,4816.48364,N,01139.86759,E,AAAN,22,0.61,464.5,46.2,,,V*16
$GNGSA,A,3,01,32,03,21,08,22,14,27,10,17,,,1.07,0.61,0.88,1*0F
$GNGSA,A,3,81,65,66,88,82,,,,,,,,1.07,0.61,0.88,2*03
$GNGSA,A,3,15,34,05,03,27,09,21,,,,,,1.07,0.61,0.88,3*08
$GNVTG,,T,,M,0.041,N,0.076,K,A*39
$SMGPS,-0.0 m,-0.00 m/s,7.55 VRx,0.000 km,1 m,90.0 °,1:-- (  0.0 km/h),468.7 m*8B
$SMGPS2,-0.10 X,+0.29 Y,+0.92 Z,0 ENL,0 us,0.0 kmh,967.31 hPa,967.20 hPa,+0.00 m/s*08
$GNRMC,171712.60,A,4816.48365,N,01139.86760,E,0.17,,080522,,,A,V*28
$GNGNS,171712.60,4816.48365,N,01139.86760,E,AAAN,22,0.61,464.5,46.2,,,V*1E
$GNGSA,A,3,01,32,03,21,08,22,14,27,10,17,,,1.07,0.61,0.88,1*0F
$GNGSA,A,3,81,65,66,88,82,,,,,,,,1.07,0.61,0.88,2*03
$GNGSA,A,3,15,34,05,03,27,09,21,,,,,,1.07,0.61,0.88,3*08
$GNVTG,,T,,M,0.166,N,0.308,K,A*37
$SMGPS,0.0 m,-0.00 m/s,7.57 VRx,0.000 km,1 m,90.0 °,1:-- (  0.0 km/h),468.6 m*A5
$SMGPS2,-0.10 X,+0.29 Y,+0.93 Z,0 ENL,0 us,0.0 kmh,967.31 hPa,967.19 hPa,+0.00 m/s*03
$GNRMC,171712.70,A,4816.48359,N,01139.86764,E,0.15,,080522,,,A,V*20
$GNGNS,171712.70,4816.48359,N,01139.86764,E,AAAN,22,0.61,464.5,46.2,,,V*14
$GNGSA,A,3,01,32,03,21,08,22,14,27,10,17,,,1.07,0.61,0.88,1*0F
$GNGSA,A,3,81,65,66,88,82,,,,,,,,1.07,0.61,0.88,2*03
$GNGSA,A,3,15,34,05,03,27,09,21,,,,,,1.07,0.61,0.88,3*08
$GNVTG,,T,,M,0.152,N,0.282,K,A*33
$SMGPS,0.0 m,-0.00 m/s,7.56 VRx,0.000 km,1 m,42.5 °,1:-- (  0.0 km/h),468.7 m*AF
$SMGPS2,-0.09 X,+0.28 Y,+0.93 Z,0 ENL,0 us,0.0 kmh,967.31 hPa,967.19 hPa,+0.00 m/s*0A
$GNRMC,171712.80,A,4816.48354,N,01139.86768,E,0.19,,080522,,,A,V*22
$GNGNS,171712.80,4816.48354,N,01139.86768,E,AAAN,22,0.61,464.5,46.2,,,V*1A
$GNGSA,A,3,01,32,03,21,08,22,14,27,10,17,,,1.07,0.61,0.88,1*0F
$GNGSA,A,3,81,65,66,88,82,,,,,,,,1.07,0.61,0.88,2*03
$GNGSA,A,3,15,34,05,03,27,09,21,,,,,,1.07,0.61,0.88,3*08
$GNVTG,,T,,M,0.186,N,0.345,K,A*30
$SMGPS,0.0 m,+0.00 m/s,7.57 VRx,0.000 km,1 m,90.0 °,1:-- (  0.0 km/h),468.7 m*A2
$SMGPS2,-0.10 X,+0.29 Y,+0.93 Z,0 ENL,0 us,0.0 kmh,967.31 hPa,967.19 hPa,-0.00 m/s*05
$GNRMC,171712.90,A,4816.48355,N,01139.86771,E,0.23,,080522,,,A,V*23
$GNGNS,171712.90,4816.48355,N,01139.86771,E,AAAN,22,0.61,464.4,46.2,,,V*13
$GNGSA,A,3,01,32,03,21,08,22,14,27,10,17,,,1.07,0.61,0.88,1*0F
$GNGSA,A,3,81,65,66,88,82,,,,,,,,1.07,0.61,0.88,2*03
$GNGSA,A,3,15,34,05,03,27,09,21,,,,,,1.07,0.61,0.88,3*08
$GNVTG,,T,,M,0.233,N,0.432,K,A*3A
$SMGPS,-0.1 m,-0.01 m/s,7.56 VRx,0.000 km,1 m,90.0 °,1:-- (  0.0 km/h),468.7 m*88
$SMGPS2,-0.09 X,+0.29 Y,+0.93 Z,0 ENL,0 us,0.0 kmh,967.31 hPa,967.19 hPa,+0.00 m/s*0B
$GNRMC,171713.00,A,4816.48351,N,01139.86775,E,0.06,,080522,,,A,V*2C
$GNGNS,171713.00,4816.48351,N,01139.86775,E,AAAN,22,0.61,464.5,46.2,,,V*1A
$GNGSA,A,3,01,32,03,21,08,22,14,27,10,17,,,1.07,0.61,0.88,1*0F
$GNGSA,A,3,81,65,66,88,82,,,,,,,,1.07,0.61,0.88,2*03
$GNGSA,A,3,15,34,05,03,27,09,21,,,,,,1.07,0.61,0.88,3*08
$GNVTG,,T,,M,0.057,N,0.106,K,A*38
$SMGPS,-0.0 m,-0.01 m/s,7.58 VRx,0.000 km,1 m,90.0 °,1:-- (  0.0 km/h),468.8 m*88
$SMGPS2,-0.10 X,+0.29 Y,+0.92 Z,0 ENL,0 us,0.0 kmh,967.31 hPa,967.20 hPa,-0.00 m/s*0E
$GNRMC,171713.10,A,4816.48347,N,01139.86780,E,0.13,,080522,,,A,V*24
$GNGNS,171713.10,4816.48347,N,01139.86780,E,AAAN,22,0.61,464.5,46.2,,,V*16
$GNGSA,A,3,01,32,03,21,08,22,14,27,10,17,,,1.07,0.61,0.88,1*0F
$GNGSA,A,3,81,65,66,88,82,,,,,,,,1.07,0.61,0.88,2*03
$GNGSA,A,3,15,34,05,03,27,09,21,,,,,,1.07,0.61,0.88,3*08
$GNVTG,,T,,M,0.128,N,0.237,K,A*30
$SMGPS,0.0 m,-0.01 m/s,7.56 VRx,0.000 km,1 m,90.0 °,1:-- (  0.0 km/h),468.9 m*AA
$SMGPS2,-0.10 X,+0.29 Y,+0.92 Z,0 ENL,0 us,0.0 kmh,967.30 hPa,967.19 hPa,-0.01 m/s*04
$GNRMC,171713.20,A,4816.48343,N,01139.86783,E,0.10,,080522,,,A,V*23
$GNGNS,171713.20,4816.48343,N,01139.86783,E,AAAN,22,0.61,464.5,46.2,,,V*12
$GNGSA,A,3,01,32,03,21,08,22,14,27,10,17,,,1.07,0.61,0.88,1*0F
$GNGSA,A,3,81,65,66,88,82,,,,,,,,1.07,0.61,0.88,2*03
$GNGSA,A,3,15,34,05,03,27,09,21,,,,,,1.07,0.61,0.88,3*08
$GNVTG,,T,,M,0.096,N,0.177,K,A*33
$SMGPS,-0.0 m,-0.01 m/s,7.58 VRx,0.000 km,1 m,90.0 °,1:-- (  0.0 km/h),469.0 m*81
$SMGPS2,-0.10 X,+0.29 Y,+0.92 Z,0 ENL,0 us,0.0 kmh,967.31 hPa,967.19 hPa,-0.00 m/s*04
$GNRMC,171713.30,A,4816.48343,N,01139.86787,E,0.06,,080522,,,A,V*21
$GNGNS,171713.30,4816.48343,N,01139.86787,E,AAAN,22,0.61,464.5,46.2,,,V*17
$GNGSA,A,3,01,32,03,21,08,22,14,27,10,17,,,1.07,0.61,0.88,1*0F
$GNGSA,A,3,81,65,66,88,82,,,,,,,,1.07,0.61,0.88,2*03
$GNGSA,A,3,15,34,05,03,27,09,21,,,,,,1.07,0.61,0.88,3*08
$GNVTG,,T,,M,0.052,N,0.096,K,A*35
$SMGPS,0.0 m,-0.01 m/s,7.54 VRx,0.000 km,1 m,90.0 °,1:-- (  0.0 km/h),469.0 m*A0
$SMGPS2,-0.10 X,+0.30 Y,+0.92 Z,0 ENL,0 us,0.0 kmh,967.31 hPa,967.20 hPa,-0.01 m/s*07
$GNRMC,171713.40,A,4816.48336,N,01139.86790,E,0.16,,080522,,,A,V*23
$GNGNS,171713.40,4816.48336,N,01139.86790,E,AAAN,23,0.58,464.5,46.2,,,V*1F
$GNGSA,A,3,01,32,03,21,08,22,14,27,10,17,,,0.97,0.58,0.77,1*0D
$GNGSA,A,3,81,65,66,88,82,,,,,,,,1.07,0.61,0.88,2*03
$GNGSA,A,3,15,34,05,03,27,09,21,,,,,,1.07,0.61,0.88,3*08
$GNVTG,,T,,M,0.156,N,0.290,K,A*34
$SMGPS,0.0 m,-0.02 m/s,7.58 VRx,0.000 km,1 m,90.0 °,1:-- (  0.0 km/h),469.2 m*AD
$SMGPS2,-0.10 X,+0.29 Y,+0.93 Z,1 ENL,0 us,0.0 kmh,967.31 hPa,967.19 hPa,-0.01 m/s*05
$GNRMC,171713.50,A,4816.48333,N,01139.86792,E,0.08,,080522,,,A,V*2A
$GNGNS,171713.50,4816.48333,N,01139.86792,E,AAAN,24,0.56,464.5,46.2,,,V*10
$GNGSA,A,3,01,32,03,21,08,22,14,27,10,17,,,0.92,0.56,0.72,1*03
$GNGSA,A,3,81,65,66,88,82,87,,,,,,,0.97,0.58,0.77,2*0E
$GNGSA,A,3,15,34,05,03,27,09,21,,,,,,0.97,0.58,0.77,3*0A
$GNVTG,,T,,M,0.079,N,0.147,K,A*31
$SMGPS,-0.0 m,-0.02 m/s,7.55 VRx,0.000 km,1 m,90.0 °,1:-- (  0.0 km/h),469.3 m*8C
$SMGPS2,-0.09 X,+0.29 Y,+0.92 Z,0 ENL,0 us,0.0 kmh,967.31 hPa,967.20 hPa,-0.01 m/s*07
$GNRMC,171713.60,A,4816.48331,N,01139.86794,E,0.08,,080522,,,A,V*2D
$GNGNS,171713.60,4816.48331,N,01139.86794,E,AAAN,24,0.56,464.5,46.2,,,V*17
$GNGSA,A,3,01,32,03,21,08,22,14,27,10,17,,,0.92,0.56,0.72,1*03
$GNGSA,A,3,81,65,66,88,82,87,,,,,,,0.92,0.56,0.72,2*00
$GNGSA,A,3,15,34,05,03,27,09,21,36,,,,,0.92,0.56,0.72,3*01
$GNVTG,,T,,M,0.077,N,0.142,K,A*3A
$SMGPS,-0.0 m,-0.01 m/s,7.58 VRx,0.000 km,1 m,90.0 °,1:-- (  0.0 km/h),469.4 m*85
$SMGPS2,-0.09 X,+0.29 Y,+0.92 Z,0 ENL,0 us,0.0 kmh,967.31 hPa,967.20 hPa,-0.02 m/s*04
$GNRMC,171713.70,A,4816.48332,N,01139.86794,E,0.12,,080522,,,A,V*24
$GNGNS,171713.70,4816.48332,N,01139.86794,E,AAAN,24,0.56,464.5,46.2,,,V*15
$GNGSA,A,3,01,32,03,21,08,22,14,27,10,17,,,0.92,0.56,0.72,1*03
$GNGSA,A,3,81,65,66,88,82,87,,,,,,,0.92,0.56,0.72,2*00
$GNGSA,A,3,15,34,05,03,27,09,21,36,,,,,0.92,0.56,0.72,3*01
$GNVTG,,T,,M,0.123,N,0.228,K,A*35
$SMGPS,0.0 m,-0.01 m/s,7.56 VRx,0.000 km,1 m,90.0 °,1:-- (  0.0 km/h),469.6 m*A4
$SMGPS2,-0.09 X,+0.29 Y,+0.92 Z,0 ENL,0 us,0.0 kmh,967.31 hPa,967.20 hPa,-0.03 m/s*05
$GNRMC,171713.80,A,4816.48333,N,01139.86793,E,0.09,,080522,,,A,V*27
$GNGNS,171713.80,4816.48333,N,01139.86793,E,AAAN,24,0.56,464.5,46.2,,,V*1C
$GNGSA,A,3,01,32,03,21,08,22,14,27,10,17,,,0.92,0.56,0.72,1*03
$GNGSA,A,3,81,65,66,88,82,87,,,,,,,0.92,0.56,0.72,2*00
$GNGSA,A,3,15,34,05,03,27,09,21,36,,,,,0.92,0.56,0.72,3*01
$GNVTG,,T,,M,0.092,N,0.170,K,A*30
$SMGPS,0.0 m,-0.01 m/s,7.56 VRx,0.000 km,1 m,90.0 °,1:-- (  0.0 km/h),469.7 m*A5
$SMGPS2,-0.10 X,+0.29 Y,+0.92 Z,1 ENL,0 us,0.0 kmh,967.31 hPa,967.20 hPa,-0.03 m/s*0C
$GNRMC,171713.90,A,4816.48336,N,01139.86794,E,0.09,,080522,,,A,V*24
$GNGNS,171713.90,4816.48336,N,01139.86794,E,AAAN,24,0.56,464.5,46.2,,,V*1F
$GNGSA,A,3,01,32,03,21,08,22,14,27,10,17,,,0.92,0.56,0.72,1*03
$GNGSA,A,3,81,65,66,88,82,87,,,,,,,0.92,0.56,0.72,2*00
$GNGSA,A,3,15,34,05,03,27,09,21,36,,,,,0.92,0.56,0.72,3*01
$GNVTG,,T,,M,0.092,N,0.171,K,A*31
$SMGPS,-0.0 m,-0.00 m/s,7.56 VRx,0.000 km,1 m,90.0 °,1:-- (  0.0 km/h),469.9 m*87
$SMGPS2,-0.09 X,+0.29 Y,+0.93 Z,0 ENL,0 us,0.0 kmh,967.31 hPa,967.20 hPa,-0.03 m/s*04
$GNRMC,171714.00,A,4816.48339,N,01139.86794,E,0.09,,080522,,,A,V*25
$GNGNS,171714.00,4816.48339,N,01139.86794,E,AAAN,24,0.56,464.5,46.2,,,V*1E
$GNGSA,A,3,01,32,03,21,08,22,14,27,10,17,,,0.92,0.56,0.72,1*03
$GNGSA,A,3,81,65,66,88,82,87,,,,,,,0.92,0.56,0.72,2*00
$GNGSA,A,3,15,34,05,03,27,09,21,36,,,,,0.92,0.56,0.72,3*01
$GNVTG,,T,,M,0.093,N,0.173,K,A*32
$SMGPS,-0.0 m,-0.01 m/s,7.57 VRx,0.000 km,1 m,90.0 °,1:-- (  0.0 km/h),470.0 m*86
$SMGPS2,-0.10 X,+0.29 Y,+0.92 Z,0 ENL,0 us,0.0 kmh,967.31 hPa,967.20 hPa,-0.02 m/s*0C
$GNRMC,171714.10,A,4816.48344,N,01139.86793,E,0.05,,080522,,,A,V*25
$GNGNS,171714.10,4816.48344,N,01139.86793,E,AAAN,24,0.56,464.5,46.2,,,V*12
$GNGSA,A,3,01,32,03,21,08,22,14,27,10,17,,,0.92,0.56,0.72,1*03
$GNGSA,A,3,81,65,66,88,82,87,,,,,,,0.92,0.56,0.72,2*00
$GNGSA,A,3,15,34,05,03,27,09,21,36,,,,,0.92,0.56,0.72,3*01
$GNVTG,,T,,M,0.052,N,0.096,K,A*35
$SMGPS,-0.0 m,-0.01 m/s,7.56 VRx,0.000 km,1 m,90.0 °,1:-- (  0.0 km/h),470.0 m*87
$SMGPS2,-0.09 X,+0.29 Y,+0.92 Z,0 ENL,0 us,0.0 kmh,967.31 hPa,967.20 hPa,-0.02 m/s*04
$GNRMC,171714.20,A,4816.48347,N,01139.86792,E,0.05,,080522,,,A,V*24
$GNGNS,171714.20,4816.48347,N,01139.86792,E,AAAN,24,0.56,464.5,46.2,,,V*13
$GNGSA,A,3,01,32,03,21,08,22,14,27,10,17,,,0.92,0.56,0.72,1*03
$GNGSA,A,3,81,65,66,88,82,87,,,,,,,0.92,0.56,0.72,2*00
$GNGSA,A,3,15,34,05,03,27,09,21,36,,,,,0.92,0.56,0.72,3*01
$GNVTG,,T,,M,0.047,N,0.087,K,A*31
$SMGPS,0.0 m,-0.01 m/s,7.59 VRx,0.000 km,1 m,90.0 °,1:-- (  0.0 km/h),469.9 m*A4
$SMGPS2,-0.10 X,+0.29 Y,+0.93 Z,0 ENL,0 us,0.0 kmh,967.31 hPa,967.20 hPa,-0.02 m/s*0D
$GNRMC,171714.30,A,4816.48350,N,01139.86791,E,0.13,,080522,,,A,V*27
$GNGNS,171714.30,4816.48350,N,01139.86791,E,AAAN,24,0.56,464.5,46.2,,,V*17
$GNGSA,A,3,01,32,03,21,08,22,14,27,10,17,,,0.92,0.56,0.72,1*03
$GNGSA,A,3,81,65,66,88,82,87,,,,,,,0.92,0.56,0.72,2*00
$GNGSA,A,3,15,34,05,03,27,09,21,36,,,,,0.92,0.56,0.72,3*01
$GNVTG,,T,,M,0.124,N,0.230,K,A*3B
$SMGPS,0.0 m,-0.01 m/s,7.53 VRx,0.000 km,1 m,90.0 °,1:-- (  0.0 km/h),469.9 m*AE
$SMGPS2,-0.09 X,+0.29 Y,+0.92 Z,2 ENL,0 us,0.0 kmh,967.31 hPa,967.20 hPa,-0.02 m/s*06
$GNRMC,171714.40,A,4816.48351,N,01139.86792,E,0.17,,080522,,,A,V*26
$GNGNS,171714.40,4816.48351,N,01139.86792,E,AAAN,24,0.56,464.5,46.2,,,V*12
$GNGSA,A,3,01,32,03,21,08,22,14,27,10,17,,,0.92,0.56,0.72,1*03
$GNGSA,A,3,81,65,66,88,82,87,,,,,,,0.92,0.56,0.72,2*00
$GNGSA,A,3,15,34,05,03,27,09,21,36,,,,,0.92,0.56,0.72,3*01
$GNVTG,,T,,M,0.170,N,0.315,K,A*3C
$SMGPS,-0.0 m,-0.01 m/s,7.58 VRx,0.000 km,1 m,90.0 °,1:-- (  0.0 km/h),470.0 m*89
$SMGPS2,-0.10 X,+0.29 Y,+0.92 Z,0 ENL,0 us,0.0 kmh,967.31 hPa,967.20 hPa,-0.01 m/s*0F
$GNRMC,171714.50,A,4816.48351,N,01139.86791,E,0.08,,080522,,,A,V*2A
$GNGNS,171714.50,4816.48351,N,01139.86791,E,AAAN,24,0.56,464.5,46.2,,,V*10
$GNGSA,A,3,01,32,03,21,08,22,14,27,10,17,,,0.92,0.56,0.72,1*03
$GNGSA,A,3,81,65,66,88,82,87,,,,,,,0.92,0.56,0.72,2*00
$GNGSA,A,3,15,34,05,03,27,09,21,36,,,,,0.92,0.56,0.72,3*01
$GNVTG,,T,,M,0.072,N,0.133,K,A*39
$SMGPS,-0.0 m,-0.01 m/s,7.57 VRx,0.000 km,1 m,90.0 °,1:-- (  0.0 km/h),469.9 m*87
$SMGPS2,-0.09 X,+0.29 Y,+0.93 Z,1 ENL,0 us,0.0 kmh,967.31 hPa,967.20 hPa,-0.01 m/s*07
$GNRMC,171714.60,A,4816.48351,N,01139.86791,E,0.14,,080522,,,A,V*24
$GNGNS,171714.60,4816.48351,N,01139.86791,E,AAAN,24,0.56,464.5,46.2,,,V*13
$GNGSA,A,3,01,32,03,21,08,22,14,27,10,17,,,0.92,0.56,0.72,1*03
$GNGSA,A,3,81,65,66,88,82,87,,,,,,,0.92,0.56,0.72,2*00
$GNGSA,A,3,15,34,05,03,27,09,21,36,,,,,0.92,0.56,0.72,3*01
$GNVTG,,T,,M,0.138,N,0.255,K,A*35
$SMGPS,0.0 m,-0.01 m/s,7.59 VRx,0.000 km,1 m,90.0 °,1:-- (  0.0 km/h),469.9 m*A4
$SMGPS2,-0.09 X,+0.29 Y,+0.92 Z,0 ENL,0 us,0.0 kmh,967.31 hPa,967.20 hPa,-0.01 m/s*07
$GNRMC,171714.70,A,4816.48351,N,01139.86793,E,0.08,,080522,,,A,V*2A
$GNGNS,171714.70,4816.48351,N,01139.86793,E,AAAN,24,0.56,464.5,46.2,,,V*10
$GNGSA,A,3,01,32,03,21,08,22,14,27,10,17,,,0.92,0.56,0.72,1*03
$GNGSA,A,3,81,65,66,88,82,87,,,,,,,0.92,0.56,0.72,2*00
$GNGSA,A,3,15,34,05,03,27,09,21,36,,,,,0.92,0.56,0.72,3*01
$GNVTG,,T,,M,0.083,N,0.154,K,A*36
$SMGPS,0.0 m,-0.00 m/s,7.55 VRx,0.000 km,1 m,90.0 °,1:-- (  0.0 km/h),469.9 m*A9
$SMGPS2,-0.10 X,+0.29 Y,+0.93 Z,1 ENL,0 us,0.0 kmh,967.31 hPa,967.20 hPa,-0.01 m/s*0F
$GNRMC,171714.80,A,4816.48351,N,01139.86794,E,0.19,,080522,,,A,V*22
$GNGNS,171714.80,4816.48351,N,01139.86794,E,AAAN,24,0.56,464.5,46.2,,,V*18
$GNGSA,A,3,01,32,03,21,08,22,14,27,10,17,,,0.92,0.56,0.72,1*03
$GNGSA,A,3,81,65,66,88,82,87,,,,,,,0.92,0.56,0.72,2*00
$GNGSA,A,3,15,34,05,03,27,09,21,36,,,,,0.92,0.56,0.72,3*01
$GNVTG,,T,,M,0.193,N,0.358,K,A*38
$SMGPS,0.0 m,-0.00 m/s,7.60 VRx,0.000 km,1 m,90.0 °,1:-- (  0.0 km/h),470.0 m*AE
$SMGPS2,-0.09 X,+0.29 Y,+0.92 Z,0 ENL,0 us,0.0 kmh,967.30 hPa,967.20 hPa,-0.01 m/s*06
$GNRMC,171714.90,A,4816.48351,N,01139.86794,E,0.04,,080522,,,A,V*2F
$GNGNS,171714.90,4816.48351,N,01139.86794,E,AAAN,24,0.56,464.5,46.2,,,V*19
$GNGSA,A,3,01,32,03,21,08,22,14,27,10,17,,,0.92,0.56,0.72,1*03
$GNGSA,A,3,81,65,66,88,82,87,,,,,,,0.92,0.56,0.72,2*00
$GNGSA,A,3,15,34,05,03,27,09,21,36,,,,,0.92,0.56,0.72,3*01
$GNVTG,,T,,M,0.040,N,0.074,K,A*3A
$SMGPS,0.0 m,-0.00 m/s,7.58 VRx,0.000 km,1 m,90.0 °,1:-- (  0.0 km/h),470.0 m*A5
$SMGPS2,-0.09 X,+0.29 Y,+0.92 Z,0 ENL,0 us,0.0 kmh,967.31 hPa,967.20 hPa,-0.01 m/s*07
$GNRMC,171715.00,A,4816.48349,N,01139.86795,E,0.08,,080522,,,A,V*23
$GNGNS,171715.00,4816.48349,N,01139.86795,E,AAAN,24,0.56,464.5,46.2,,,V*19
$GNGSA,A,3,01,32,03,21,08,22,14,27,10,17,,,0.92,0.56,0.72,1*03
$GNGSA,A,3,81,65,66,88,82,87,,,,,,,0.92,0.56,0.72,2*00
$GNGSA,A,3,15,34,05,03,27,09,21,36,,,,,0.92,0.56,0.72,3*01
$GNVTG,,T,,M,0.079,N,0.146,K,A*30
$SMGPS,0.0 m,-0.00 m/s,7.60 VRx,0.000 km,1 m,90.0 °,1:-- (  0.0 km/h),470.0 m*AE
$SMGPS2,-0.10 X,+0.29 Y,+0.92 Z,0 ENL,0 us,0.0 kmh,967.31 hPa,967.20 hPa,-0.01 m/s*0F
$GNRMC,171715.10,A,4816.48349,N,01139.86796,E,0.11,,080522,,,A,V*29
$GNGNS,171715.10,4816.48349,N,01139.86796,E,AAAN,24,0.56,464.5,46.2,,,V*1B
$GNGSA,A,3,01,32,03,21,08,22,14,27,10,17,,,0.92,0.56,0.72,1*03
$GNGSA,A,3,81,65,66,88,82,87,,,,,,,0.92,0.56,0.72,2*00
$GNGSA,A,3,15,34,05,03,27,09,21,36,,,,,0.92,0.56,0.72,3*01
$GNVTG,,T,,M,0.106,N,0.197,K,A*35
$SMGPS,0.0 m,-0.00 m/s,7.58 VRx,0.000 km,1 m,90.0 °,1:-- (  0.0 km/h),470.0 m*A5
$SMGPS2,-0.10 X,+0.29 Y,+0.93 Z,0 ENL,0 us,0.0 kmh,967.31 hPa,967.20 hPa,-0.01 m/s*0E
$GNRMC,171715.20,A,4816.48349,N,01139.86795,E,0.06,,080522,,,A,V*2F
$GNGNS,171715.20,4816.48349,N,01139.86795,E,AAAN,24,0.56,464.5,46.2,,,V*1B
$GNGSA,A,3,01,32,03,21,08,22,14,27,10,17,,,0.92,0.56,0.72,1*03
$GNGSA,A,3,81,65,66,88,82,87,,,,,,,0.92,0.56,0.72,2*00
$GNGSA,A,3,15,34,05,03,27,09,21,36,,,,,0.92,0.56,0.72,3*01
$GNVTG,,T,,M,0.056,N,0.104,K,A*3B
$SMGPS,0.0 m,+0.00 m/s,7.59 VRx,0.000 km,1 m,90.0 °,1:-- (  0.0 km/h),470.0 m*A2
$SMGPS2,-0.09 X,+0.29 Y,+0.92 Z,0 ENL,0 us,0.0 kmh,967.31 hPa,967.20 hPa,-0.01 m/s*07
$GNRMC,171715.30,A,4816.48350,N,01139.86796,E,0.06,,080522,,,A,V*25
$GNGNS,171715.30,4816.48350,N,01139.86796,E,AAAN,24,0.56,464.5,46.2,,,V*11
$GNGSA,A,3,01,32,03,21,08,22,14,27,10,17,,,0.92,0.56,0.72,1*03
$GNGSA,A,3,81,65,66,88,82,87,,,,,,,0.92,0.56,0.72,2*00
$GNGSA,A,3,15,34,05,03,27,09,21,36,,,,,0.92,0.56,0.72,3*01
$GNVTG,,T,,M,0.057,N,0.105,K,A*3B
$SMGPS,0.0 m,-0.00 m/s,7.58 VRx,0.000 km,1 m,90.0 °,1:-- (  0.0 km/h),470.0 m*A5
$SMGPS2,-0.10 X,+0.29 Y,+0.93 Z,0 ENL,0 us,0.0 kmh,967.31 hPa,967.20 hPa,-0.01 m/s*0E
$GNRMC,171715.40,A,4816.48351,N,01139.86796,E,0.15,,080522,,,A,V*21
$GNGNS,171715.40,4816.48351,N,01139.86796,E,AAAN,24,0.56,464.5,46.2,,,V*17
$GNGSA,A,3,01,32,03,21,08,22,14,27,10,17,,,0.92,0.56,0.72,1*03
$GNGSA,A,3,81,65,66,88,82,87,,,,,,,0.92,0.56,0.72,2*00
$GNGSA,A,3,15,34,05,03,27,09,21,36,,,,,0.92,0.56,0.72,3*01
$GNVTG,,T,,M,0.147,N,0.272,K,A*38
$SMGPS,0.0 m,-0.00 m/s,7.60 VRx,0.000 km,1 m,90.0 °,1:-- (  0.0 km/h),470.1 m*AF
$SMGPS2,-0.10 X,+0.28 Y,+0.92 Z,0 ENL,0 us,0.0 kmh,967.31 hPa,967.20 hPa,-0.01 m/s*0E
$GNRMC,171715.50,A,4816.48353,N,01139.86796,E,0.09,,080522,,,A,V*2F
$GNGNS,171715.50,4816.48353,N,01139.86796,E,AAAN,24,0.56,464.5,46.2,,,V*14
$GNGSA,A,3,01,32,03,21,08,22,14,27,10,17,,,0.92,0.56,0.72,1*03
$GNGSA,A,3,81,65,66,88,82,87,,,,,,,0.92,0.56,0.72,2*00
$GNGSA,A,3,15,34,05,03,27,09,21,36,,,,,0.92,0.56,0.72,3*01
$GNVTG,,T,,M,0.089,N,0.165,K,A*3E
$SMGPS,-0.0 m,-0.00 m/s,7.57 VRx,0.000 km,1 m,90.0 °,1:-- (  0.0 km/h),470.1 m*86
$SMGPS2,-0.09 X,+0.28 Y,+0.93 Z,1 ENL,0 us,0.0 kmh,967.31 hPa,967.20 hPa,-0.01 m/s*06
$GNRMC,171715.60,A,4816.48354,N,01139.86796,E,0.03,,080522,,,A,V*21
$GNGNS,171715.60,4816.48354,N,01139.86796,E,AAAN,24,0.56,464.5,46.2,,,V*10
$GNGSA,A,3,01,32,03,21,08,22,14,27,10,17,,,0.92,0.56,0.72,1*03
$GNGSA,A,3,81,65,66,88,82,87,,,,,,,0.92,0.56,0.72,2*00
$GNGSA,A,3,15,34,05,03,27,09,21,36,,,,,0.92,0.56,0.72,3*01
$GNVTG,,T,,M,0.026,N,0.049,K,A*34
$SMGPS,0.0 m,-0.00 m/s,7.59 VRx,0.000 km,1 m,90.0 °,1:-- (  0.0 km/h),470.1 m*A5
$SMGPS2,-0.09 X,+0.29 Y,+0.93 Z,0 ENL,0 us,0.0 kmh,967.31 hPa,967.20 hPa,-0.01 m/s*06
$GNRMC,171715.70,A,4816.48354,N,01139.86796,E,0.08,,080522,,,A,V*2B
$GNGNS,171715.70,4816.48354,N,01139.86796,E,AAAN,24,0.56,464.5,46.2,,,V*11
$GNGSA,A,3,01,32,03,21,08,22,14,27,10,17,,,0.92,0.56,0.72,1*03
$GNGSA,A,3,81,65,66,88,82,87,,,,,,,0.92,0.56,0.72,2*00
$GNGSA,A,3,15,34,05,03,27,09,21,36,,,,,0.92,0.56,0.72,3*01
$GNVTG,,T,,M,0.077,N,0.143,K,A*3B
$SMGPS,0.0 m,+0.00 m/s,7.54 VRx,0.000 km,1 m,90.0 °,1:-- (  0.0 km/h),470.1 m*AE
$SMGPS2,-0.09 X,+0.29 Y,+0.92 Z,0 ENL,0 us,0.0 kmh,967.31 hPa,967.20 hPa,-0.01 m/s*07
$GNRMC,171715.80,A,4816.48355,N,01139.86797,E,0.06,,080522,,,A,V*2A
$GNGNS,171715.80,4816.48355,N,01139.86797,E,AAAN,24,0.56,464.5,46.2,,,V*1E
$GNGSA,A,3,01,32,03,21,08,22,14,27,10,17,,,0.92,0.56,0.72,1*03
$GNGSA,A,3,81,65,66,88,82,87,,,,,,,0.92,0.56,0.72,2*00
$GNGSA,A,3,15,34,05,03,27,09,21,36,,,,,0.92,0.56,0.72,3*01
$GNVTG,,T,,M,0.063,N,0.116,K,A*3E
$SMGPS,-0.0 m,-0.00 m/s,7.60 VRx,0.000 km,1 m,90.0 °,1:-- (  0.0 km/h),470.2 m*81
$SMGPS2,-0.10 X,+0.29 Y,+0.92 Z,0 ENL,0 us,0.0 kmh,967.31 hPa,967.19 hPa,+0.00 m/s*02
$GNRMC,171715.90,A,4816.48355,N,01139.86797,E,0.05,,080522,,,A,V*28
$GNGNS,171715.90,4816.48355,N,01139.86797,E,AAAN,24,0.56,464.5,46.2,,,V*1F
$GNGSA,A,3,01,32,03,21,08,22,14,27,10,17,,,0.92,0.56,0.72,1*03
$GNGSA,A,3,81,65,66,88,82,87,,,,,,,0.92,0.56,0.72,2*00
$GNGSA,A,3,15,34,05,03,27,09,21,36,,,,,0.92,0.56,0.72,3*01
$GNVTG,,T,,M,0.045,N,0.084,K,A*30
$SMGPS,0.0 m,-0.00 m/s,7.57 VRx,0.000 km,1 m,90.0 °,1:-- (  0.0 km/h),470.1 m*AB
$SMGPS2,-0.09 X,+0.29 Y,+0.92 Z,0 ENL,0 us,0.0 kmh,967.30 hPa,967.20 hPa,-0.00 m/s*07
$GNRMC,171716.00,A,4816.48356,N,01139.86798,E,0.10,,080522,,,A,V*2A
$GNGNS,171716.00,4816.48356,N,01139.86798,E,AAAN,24,0.56,464.5,46.2,,,V*19
$GNGSA,A,3,01,32,03,21,08,22,14,27,10,17,,,0.92,0.56,0.72,1*03
$GNGSA,A,3,81,65,66,88,82,87,,,,,,,0.92,0.56,0.72,2*00
$GNGSA,A,3,15,34,05,03,27,09,21,36,,,,,0.92,0.56,0.72,3*01
$GNVTG,,T,,M,0.101,N,0.188,K,A*3C
$SMGPS,-0.0 m,-0.00 m/s,7.59 VRx,0.000 km,1 m,90.0 °,1:-- (  0.0 km/h),470.1 m*88
$SMGPS2,-0.09 X,+0.29 Y,+0.92 Z,1 ENL,0 us,0.0 kmh,967.31 hPa,967.20 hPa,+0.00 m/s*01
$GNRMC,171716.10,A,4816.48358,N,01139.86798,E,0.06,,080522,,,A,V*22
$GNGNS,171716.10,4816.48358,N,01139.86798,E,AAAN,24,0.56,464.5,46.2,,,V*16
$GNGSA,A,3,01,32,03,21,08,22,14,27,10,17,,,0.92,0.56,0.72,1*03
$GNGSA,A,3,81,65,66,88,82,87,,,,,,,0.92,0.56,0.72,2*00
$GNGSA,A,3,15,34,05,03,27,09,21,36,,,,,0.92,0.56,0.72,3*01
$GNVTG,,T,,M,0.059,N,0.108,K,A*38
$SMGPS,-0.0 m,-0.01 m/s,7.58 VRx,0.000 km,1 m,90.0 °,1:-- (  0.0 km/h),470.1 m*88
$SMGPS2,-0.09 X,+0.29 Y,+0.93 Z,0 ENL,0 us,0.0 kmh,967.31 hPa,967.20 hPa,-0.00 m/s*07
$GNRMC,171716.20,A,4816.48360,N,01139.86797,E,0.06,,080522,,,A,V*25
$GNGNS,171716.20,4816.48360,N,01139.86797,E,AAAN,24,0.56,464.5,46.2,,,V*11
$GNGSA,A,3,01,32,03,21,08,22,14,27,10,17,,,0.92,0.56,0.72,1*03
$GNGSA,A,3,81,65,66,88,82,87,,,,,,,0.92,0.56,0.72,2*00
$GNGSA,A,3,15,34,05,03,27,09,21,36,,,,,0.92,0.56,0.72,3*01
$GNVTG,,T,,M,0.056,N,0.103,K,A*3C
$SMGPS,-0.0 m,-0.01 m/s,7.59 VRx,0.000 km,1 m,90.0 °,1:-- (  0.0 km/h),470.1 m*89
$SMGPS2,-0.09 X,+0.29 Y,+0.92 Z,1 ENL,0 us,0.0 kmh,967.31 hPa,967.20 hPa,-0.00 m/s*07
$GNRMC,171716.30,A,4816.48362,N,01139.86798,E,0.04,,080522,,,A,V*2B
$GNGNS,171716.30,4816.48362,N,01139.86798,E,AAAN,24,0.56,464.5,46.2,,,V*1D
$GNGSA,A,3,01,32,03,21,08,22,14,27,10,17,,,0.92,0.56,0.72,1*03
$GNGSA,A,3,81,65,66,88,82,87,,,,,,,0.92,0.56,0.72,2*00
$GNGSA,A,3,15,34,05,03,27,09,21,36,,,,,0.92,0.56,0.72,3*01
$GNVTG,,T,,M,0.037,N,0.068,K,A*37
$SMGPS,0.0 m,-0.01 m/s,7.58 VRx,0.000 km,1 m,90.0 °,1:-- (  0.0 km/h),470.1 m*A5
$SMGPS2,-0.09 X,+0.29 Y,+0.92 Z,1 ENL,0 us,0.0 kmh,967.31 hPa,967.20 hPa,+0.00 m/s*01
$GNRMC,171716.40,A,4816.48364,N,01139.86798,E,0.02,,080522,,,A,V*2C
$GNGNS,171716.40,4816.48364,N,01139.86798,E,AAAN,24,0.56,464.5,46.2,,,V*1C
$GNGSA,A,3,01,32,03,21,08,22,14,27,10,17,,,0.92,0.56,0.72,1*03
$GNGSA,A,3,81,65,66,88,82,87,,,,,,,0.92,0.56,0.72,2*00
$GNGSA,A,3,15,34,05,03,27,09,21,36,,,,,0.92,0.56,0.72,3*01
$GNVTG,,T,,M,0.016,N,0.030,K,A*39
$SMGPS,0.0 m,-0.01 m/s,7.59 VRx,0.000 km,1 m,90.0 °,1:-- (  0.0 km/h),470.1 m*A4
$SMGPS2,-0.09 X,+0.28 Y,+0.93 Z,0 ENL,0 us,0.0 kmh,967.31 hPa,967.20 hPa,+0.00 m/s*00
$GNRMC,171716.50,A,4816.48366,N,01139.86798,E,0.03,,080522,,,A,V*2E
$GNGNS,171716.50,4816.48366,N,01139.86798,E,AAAN,24,0.56,464.5,46.2,,,V*1F
$GNGSA,A,3,01,32,03,21,08,22,14,27,10,17,,,0.92,0.56,0.72,1*03
$GNGSA,A,3,81,65,66,88,82,87,,,,,,,0.92,0.56,0.72,2*00
$GNGSA,A,3,15,34,05,03,27,09,21,36,,,,,0.92,0.56,0.72,3*01
$GNVTG,,T,,M,0.033,N,0.062,K,A*39
$SMGPS,0.0 m,-0.00 m/s,7.56 VRx,0.000 km,1 m,90.0 °,1:-- (  0.0 km/h),470.1 m*AA
$SMGPS2,-0.10 X,+0.29 Y,+0.92 Z,0 ENL,0 us,0.0 kmh,967.31 hPa,967.20 hPa,-0.01 m/s*0F
$GNRMC,171716.60,A,4816.48367,N,01139.86798,E,0.26,,080522,,,A,V*2B
$GNGNS,171716.60,4816.48367,N,01139.86798,E,AAAN,24,0.56,464.5,46.2,,,V*1D
$GNGSA,A,3,01,32,03,21,08,22,14,27,10,17,,,0.92,0.56,0.72,1*03
$GNGSA,A,3,81,65,66,88,82,87,,,,,,,0.92,0.56,0.72,2*00
$GNGSA,A,3,15,34,05,03,27,09,21,36,,,,,0.92,0.56,0.72,3*01
$GNVTG,,T,,M,0.260,N,0.481,K,A*34
$SMGPS,0.0 m,-0.01 m/s,7.58 VRx,0.000 km,1 m,54.7 °,1:-- (  0.0 km/h),470.1 m*AA
$SMGPS2,-0.09 X,+0.29 Y,+0.93 Z,0 ENL,0 us,0.0 kmh,967.31 hPa,967.20 hPa,-0.01 m/s*06
$GNRMC,171716.70,A,4816.48369,N,01139.86798,E,0.15,,080522,,,A,V*24
$GNGNS,171716.70,4816.48369,N,01139.86798,E,AAAN,24,0.56,464.5,46.2,,,V*12
$GNGSA,A,3,01,32,03,21,08,22,14,27,10,17,,,0.92,0.56,0.72,1*03
$GNGSA,A,3,81,65,66,88,82,87,,,,,,,0.92,0.56,0.72,2*00
$GNGSA,A,3,15,34,05,03,27,09,21,36,,,,,0.92,0.56,0.72,3*01
$GNVTG,,T,,M,0.152,N,0.282,K,A*33
$SMGPS,-0.0 m,-0.00 m/s,7.56 VRx,0.000 km,1 m,54.7 °,1:-- (  0.0 km/h),470.0 m*89
$SMGPS2,-0.09 X,+0.29 Y,+0.92 Z,0 ENL,0 us,0.0 kmh,967.31 hPa,967.20 hPa,-0.01 m/s*07
$GNRMC,171716.80,A,4816.48371,N,01139.86798,E,0.12,,080522,,,A,V*25
$GNGNS,171716.80,4816.48371,N,01139.86798,E,AAAN,24,0.56,464.5,46.2,,,V*14
$GNGSA,A,3,01,32,03,21,08,22,14,27,10,17,,,0.92,0.56,0.72,1*03
$GNGSA,A,3,81,65,66,88,82,87,,,,,,,0.92,0.56,0.72,2*00
$GNGSA,A,3,15,34,05,03,27,09,21,36,,,,,0.92,0.56,0.72,3*01
$GNVTG,,T,,M,0.115,N,0.213,K,A*38
$SMGPS,0.0 m,-0.00 m/s,7.59 VRx,0.000 km,1 m,54.7 °,1:-- (  0.0 km/h),470.0 m*AB
$SMGPS2,-0.10 X,+0.29 Y,+0.93 Z,1 ENL,0 us,0.0 kmh,967.31 hPa,967.20 hPa,-0.01 m/s*0F
$GNRMC,171716.90,A,4816.48373,N,01139.86797,E,0.07,,080522,,,A,V*2D
$GNGNS,171716.90,4816.48373,N,01139.86797,E,AAAN,24,0.56,464.5,46.2,,,V*18
$GNGSA,A,3,01,32,03,21,08,22,14,27,10,17,,,0.92,0.56,0.72,1*03
$GNGSA,A,3,81,65,66,88,82,87,,,,,,,0.92,0.56,0.72,2*00
$GNGSA,A,3,15,34,05,03,27,09,21,36,,,,,0.92,0.56,0.72,3*01
$GNVTG,,T,,M,0.072,N,0.133,K,A*39
$SMGPS,-0.0 m,-0.00 m/s,7.55 VRx,0.000 km,1 m,54.7 °,1:-- (  0.0 km/h),470.0 m*8A
$SMGPS2,-0.09 X,+0.29 Y,+0.92 Z,0 ENL,0 us,0.0 kmh,967.31 hPa,967.20 hPa,-0.01 m/s*07
$GNRMC,171717.00,A,4816.48374,N,01139.86798,E,0.08,,080522,,,A,V*22
$GNGNS,171717.00,4816.48374,N,01139.86798,E,AAAN,24,0.56,464.5,46.2,,,V*18
$GNGSA,A,3,01,32,03,21,08,22,14,27,10,17,,,0.92,0.56,0.72,1*03
$GNGSA,A,3,81,65,66,88,82,87,,,,,,,0.92,0.56,0.72,2*00
$GNGSA,A,3,15,34,05,03,27,09,21,36,,,,,0.92,0.56,0.72,3*01
$GNVTG,,T,,M,0.084,N,0.156,K,A*33
$SMGPS,0.0 m,+0.00 m/s,7.58 VRx,0.000 km,1 m,54.7 °,1:-- (  0.0 km/h),470.0 m*AC
$SMGPS2,-0.09 X,+0.29 Y,+0.92 Z,1 ENL,0 us,0.0 kmh,967.31 hPa,967.20 hPa,-0.01 m/s*06
$GNRMC,171717.10,A,4816.48375,N,01139.86798,E,0.18,,080522,,,A,V*23
$GNGNS,171717.10,4816.48375,N,01139.86798,E,AAAN,24,0.56,464.5,46.2,,,V*18
$GNGSA,A,3,01,32,03,21,08,22,14,27,10,17,,,0.92,0.56,0.72,1*03
$GNGSA,A,3,81,65,66,88,82,87,,,,,,,0.92,0.56,0.72,2*00
$GNGSA,A,3,15,34,05,03,27,09,21,36,,,,,0.92,0.56,0.72,3*01
$GNVTG,,T,,M,0.176,N,0.326,K,A*3A
$SMGPS,-0.0 m,-0.00 m/s,7.56 VRx,0.000 km,1 m,54.7 °,1:-- (  0.0 km/h),470.0 m*89
$SMGPS2,-0.09 X,+0.29 Y,+0.93 Z,0 ENL,0 us,0.0 kmh,967.31 hPa,967.20 hPa,-0.01 m/s*06
$GNRMC,171717.20,A,4816.48376,N,01139.86798,E,0.09,,080522,,,A,V*23
$GNGNS,171717.20,4816.48376,N,01139.86798,E,AAAN,24,0.56,464.4,46.2,,,V*19
$GNGSA,A,3,01,32,03,21,08,22,14,27,10,17,,,0.92,0.56,0.72,1*03
$GNGSA,A,3,81,65,66,88,82,87,,,,,,,0.92,0.56,0.72,2*00
$GNGSA,A,3,15,34,05,03,27,09,21,36,,,,,0.92,0.56,0.72,3*01
$GNVTG,,T,,M,0.087,N,0.162,K,A*37
$SMGPS,-0.1 m,-0.00 m/s,7.58 VRx,0.000 km,1 m,54.7 °,1:-- (  0.0 km/h),470.0 m*86
$SMGPS2,-0.10 X,+0.29 Y,+0.92 Z,1 ENL,0 us,0.0 kmh,967.32 hPa,967.20 hPa,-0.01 m/s*0D
$GNRMC,171717.30,A,4816.48377,N,01139.86797,E,0.09,,080522,,,A,V*2C
$GNGNS,171717.30,4816.48377,N,01139.86797,E,AAAN,24,0.56,464.5,46.2,,,V*17
$GNGSA,A,3,01,32,03,21,08,22,14,27,10,17,,,0.92,0.56,0.72,1*03
$GNGSA,A,3,81,65,66,88,82,87,,,,,,,0.92,0.56,0.72,2*00
$GNGSA,A,3,15,34,05,03,27,09,21,36,,,,,0.92,0.56,0.72,3*01
$GNVTG,,T,,M,0.088,N,0.163,K,A*39
$SMGPS,-0.0 m,-0.01 m/s,7.55 VRx,0.000 km,1 m,54.7 °,1:-- (  0.0 km/h),470.0 m*8B
$SMGPS2,-0.10 X,+0.29 Y,+0.92 Z,1 ENL,0 us,0.0 kmh,967.31 hPa,967.20 hPa,-0.01 m/s*0E
$GNRMC,171717.40,A,4816.48378,N,01139.86797,E,0.03,,080522,,,A,V*2E
$GNGNS,171717.40,4816.48378,N,01139.86797,E,AAAN,24,0.56,464.5,46.2,,,V*1F
$GNGSA,A,3,01,32,03,21,08,22,14,27,10,17,,,0.92,0.56,0.72,1*03
$GNGSA,A,3,81,65,66,88,82,87,,,,,,,0.92,0.56,0.72,2*00
$GNGSA,A,3,15,34,05,03,27,09,21,36,,,,,0.92,0.56,0.72,3*01
$GNVTG,,T,,M,0.026,N,0.048,K,A*35
$SMGPS,0.0 m,-0.01 m/s,7.58 VRx,0.000 km,1 m,54.7 °,1:-- (  0.0 km/h),470.0 m*AB
$SMGPS2,-0.09 X,+0.29 Y,+0.93 Z,0 ENL,0 us,0.0 kmh,967.31 hPa,967.20 hPa,-0.01 m/s*06
$GNRMC,171717.50,A,4816.48378,N,01139.86796,E,0.04,,080522,,,A,V*29
$GNGNS,171717.50,4816.48378,N,01139.86796,E,AAAN,24,0.56,464.5,46.2,,,V*1F
$GNGSA,A,3,01,32,03,21,08,22,14,27,10,17,,,0.92,0.56,0.72,1*03
$GNGSA,A,3,81,65,66,88,82,87,,,,,,,0.92,0.56,0.72,2*00
$GNGSA,A,3,15,34,05,03,27,09,21,36,,,,,0.92,0.56,0.72,3*01
$GNVTG,,T,,M,0.034,N,0.063,K,A*3F
$SMGPS,-0.0 m,-0.01 m/s,7.56 VRx,0.000 km,1 m,54.7 °,1:-- (  0.0 km/h),470.0 m*88
$SMGPS2,-0.09 X,+0.29 Y,+0.93 Z,1 ENL,0 us,0.0 kmh,967.31 hPa,967.19 hPa,-0.00 m/s*0C
$GNRMC,171717.60,A,4816.48378,N,01139.86795,E,0.07,,080522,,,A,V*2A
$GNGNS,171717.60,4816.48378,N,01139.86795,E,AAAN,24,0.56,464.5,46.2,,,V*1F
$GNGSA,A,3,01,32,03,21,08,22,14,27,10,17,,,0.92,0.56,0.72,1*03
$GNGSA,A,3,81,65,66,88,82,87,,,,,,,0.92,0.56,0.72,2*00
$GNGSA,A,3,15,34,05,03,27,09,21,36,,,,,0.92,0.56,0.72,3*01
$GNVTG,,T,,M,0.067,N,0.124,K,A*3B
$SMGPS,-0.0 m,-0.01 m/s,7.57 VRx,0.000 km,1 m,54.7 °,1:-- (  0.0 km/h),470.0 m*89
$SMGPS2,-0.09 X,+0.29 Y,+0.93 Z,0 ENL,0 us,0.0 kmh,967.31 hPa,967.20 hPa,-0.00 m/s*07
$GNRMC,171717.70,A,4816.48379,N,01139.86795,E,0.08,,080522,,,A,V*25
$GNGNS,171717.70,4816.48379,N,01139.86795,E,AAAN,24,0.56,464.5,46.2,,,V*1F
$GNGSA,A,3,01,32,03,21,08,22,14,27,10,17,,,0.92,0.56,0.72,1*03
$GNGSA,A,3,81,65,66,88,82,87,,,,,,,0.92,0.56,0.72,2*00
$GNGSA,A,3,15,34,05,03,27,09,21,36,,,,,0.92,0.56,0.72,3*01
$GNVTG,,T,,M,0.072,N,0.133,K,A*39
$SMGPS,-0.0 m,-0.01 m/s,7.56 VRx,0.000 km,1 m,54.7 °,1:-- (  0.0 km/h),469.9 m*89
$SMGPS2,-0.09 X,+0.28 Y,+0.92 Z,1 ENL,0 us,0.0 kmh,967.31 hPa,967.19 hPa,+0.00 m/s*0A
$GNRMC,171717.80,A,4816.48379,N,01139.86794,E,0.07,,080522,,,A,V*24
$GNGNS,171717.80,4816.48379,N,01139.86794,E,AAAN,24,0.56,464.5,46.2,,,V*11
$GNGSA,A,3,01,32,03,21,08,22,14,27,10,17,,,0.92,0.56,0.72,1*03
$GNGSA,A,3,81,65,66,88,82,87,,,,,,,0.92,0.56,0.72,2*00
$GNGSA,A,3,15,34,05,03,27,09,21,36,,,,,0.92,0.56,0.72,3*01
$GNVTG,,T,,M,0.066,N,0.122,K,A*3C
$SMGPS,0.0 m,-0.01 m/s,7.57 VRx,0.000 km,1 m,54.7 °,1:-- (  0.0 km/h),469.9 m*A5
$SMGPS2,-0.10 X,+0.29 Y,+0.92 Z,0 ENL,0 us,0.0 kmh,967.31 hPa,967.20 hPa,+0.01 m/s*09
$GNRMC,171717.90,A,4816.48379,N,01139.86794,E,0.04,,080522,,,A,V*26
$GNGNS,171717.90,4816.48379,N,01139.86794,E,AAAN,24,0.56,464.5,46.2,,,V*10
$GNGSA,A,3,01,32,03,21,08,22,14,27,10,17,,,0.92,0.56,0.72,1*03
$GNGSA,A,3,81,65,66,88,82,87,,,,,,,0.92,0.56,0.72,2*00
$GNGSA,A,3,15,34,05,03,27,09,21,36,,,,,0.92,0.56,0.72,3*01
$GNVTG,,T,,M,0.033,N,0.060,K,A*3B
$SMGPS,0.0 m,-0.01 m/s,7.56 VRx,0.000 km,1 m,54.7 °,1:-- (  0.0 km/h),469.9 m*A4
$SMGPS2,-0.09 X,+0.29 Y,+0.92 Z,0 ENL,0 us,0.0 kmh,967.31 hPa,967.20 hPa,+0.01 m/s*01
$GNRMC,171718.00,A,4816.48380,N,01139.86793,E,0.07,,080522,,,A,V*22
$GNGNS,171718.00,4816.48380,N,01139.86793,E,AAAN,24,0.56,464.5,46.2,,,V*17
$GNGSA,A,3,01,32,03,21,08,22,14,27,10,17,,,0.92,0.56,0.72,1*03
$GNGSA,A,3,81,65,66,88,82,87,,,,,,,0.92,0.56,0.72,2*00
$GNGSA,A,3,15,34,05,03,27,09,21,36,,,,,0.92,0.56,0.72,3*01
$GNVTG,,T,,M,0.066,N,0.122,K,A*3C
$SMGPS,0.0 m,-0.00 m/s,7.58 VRx,0.000 km,1 m,54.7 °,1:-- (  0.0 km/h),469.9 m*AB
$SMGPS2,-0.09 X,+0.29 Y,+0.92 Z,0 ENL,0 us,0.0 kmh,967.31 hPa,967.20 hPa,+0.01 m/s*01
$GNRMC,171718.10,A,4816.48380,N,01139.86793,E,0.07,,080522,,,A,V*23
$GNGNS,171718.10,4816.48380,N,01139.86793,E,AAAN,24,0.56,464.5,46.2,,,V*16
$GNGSA,A,3,01,32,03,21,08,22,14,27,10,17,,,0.92,0.56,0.72,1*03
$GNGSA,A,3,81,65,66,88,82,87,,,,,,,0.92,0.56,0.72,2*00
$GNGSA,A,3,15,34,05,03,27,09,21,36,,,,,0.92,0.56,0.72,3*01
$GNVTG,,T,,M,0.071,N,0.132,K,A*3B
$SMGPS,0.0 m,-0.01 m/s,7.55 VRx,0.000 km,1 m,54.7 °,1:-- (  0.0 km/h),469.9 m*A7
$SMGPS2,-0.10 X,+0.29 Y,+0.92 Z,0 ENL,0 us,0.0 kmh,967.31 hPa,967.20 hPa,+0.01 m/s*09
$GNRMC,171718.20,A,4816.48381,N,01139.86793,E,0.05,,080522,,,A,V*23
$GNGNS,171718.20,4816.48381,N,01139.86793,E,AAAN,24,0.56,464.5,46.2,,,V*14
$GNGSA,A,3,01,32,03,21,08,22,14,27,10,17,,,0.92,0.56,0.72,1*03
$GNGSA,A,3,81,65,66,88,82,87,,,,,,,0.92,0.56,0.72,2*00
$GNGSA,A,3,15,34,05,03,27,09,21,36,,,,,0.92,0.56,0.72,3*01
$GNVTG,,T,,M,0.052,N,0.097,K,A*34
$SMGPS,-0.0 m,-0.01 m/s,7.58 VRx,0.000 km,1 m,54.7 °,1:-- (  0.0 km/h),469.9 m*87
$SMGPS2,-0.09 X,+0.28 Y,+0.93 Z,1 ENL,0 us,0.0 kmh,967.32 hPa,967.20 hPa,+0.00 m/s*02
$GNRMC,171718.30,A,4816.48381,N,01139.86793,E,0.07,,080522,,,A,V*20
$GNGNS,171718.30,4816.48381,N,01139.86793,E,AAAN,24,0.56,464.5,46.2,,,V*15
$GNGSA,A,3,01,32,03,21,08,22,14,27,10,17,,,0.92,0.56,0.72,1*03
$GNGSA,A,3,81,65,66,88,82,87,,,,,,,0.92,0.56,0.72,2*00
$GNGSA,A,3,15,34,05,03,27,09,21,36,,,,,0.92,0.56,0.72,3*01
$GNVTG,,T,,M,0.066,N,0.121,K,A*3F
$SMGPS,0.0 m,-0.00 m/s,7.55 VRx,0.000 km,1 m,54.7 °,1:-- (  0.0 km/h),469.9 m*A6
$SMGPS2,-0.10 X,+0.29 Y,+0.92 Z,0 ENL,0 us,0.0 kmh,967.31 hPa,967.20 hPa,+0.00 m/s*08
$GNRMC,171718.40,A,4816.48382,N,01139.86792,E,0.11,,080522,,,A,V*22
$GNGNS,171718.40,4816.48382,N,01139.86792,E,AAAN,24,0.56,464.5,46.2,,,V*10
$GNGSA,A,3,01,32,03,21,08,22,14,27,10,17,,,0.92,0.56,0.72,1*03
$GNGSA,A,3,81,65,66,88,82,87,,,,,,,0.92,0.56,0.72,2*00
$GNGSA,A,3,15,34,05,03,27,09,21,36,,,,,0.92,0.56,0.72,3*01
$GNVTG,,T,,M,0.111,N,0.206,K,A*38
$SMGPS,-0.0 m,-0.00 m/s,7.58 VRx,0.000 km,1 m,54.7 °,1:-- (  0.0 km/h),469.9 m*86
$SMGPS2,-0.09 X,+0.29 Y,+0.93 Z,1 ENL,0 us,0.0 kmh,967.31 hPa,967.20 hPa,-0.00 m/s*06
$GNRMC,171718.50,A,4816.48382,N,01139.86792,E,0.05,,080522,,,A,V*26
$GNGNS,171718.50,4816.48382,N,01139.86792,E,AAAN,24,0.56,464.5,46.2,,,V*11
$GNGSA,A,3,01,32,03,21,08,22,14,27,10,17,,,0.92,0.56,0.72,1*03
$GNGSA,A,3,81,65,66,88,82,87,,,,,,,0.92,0.56,0.72,2*00
$GNGSA,A,3,15,34,05,03,27,09,21,36,,,,,0.92,0.56,0.72,3*01
$GNVTG,,T,,M,0.045,N,0.084,K,A*30
$SMGPS,-0.0 m,-0.01 m/s,7.58 VRx,0.000 km,1 m,54.7 °,1:-- (  0.0 km/h),469.9 m*87
$SMGPS2,-0.10 X,+0.29 Y,+0.93 Z,0 ENL,0 us,0.0 kmh,967.31 hPa,967.20 hPa,-0.01 m/s*0E
$GNRMC,171718.60,A,4816.48383,N,01139.86792,E,0.10,,080522,,,A,V*20
$GNGNS,171718.60,4816.48383,N,01139.86792,E,AAAN,24,0.56,464.5,46.2,,,V*13
$GNGSA,A,3,01,32,03,21,08,22,14,27,10,17,,,0.92,0.56,0.72,1*03
$GNGSA,A,3,81,65,66,88,82,87,,,,,,,0.92,0.56,0.72,2*00
$GNGSA,A,3,15,34,05,03,27,09,21,36,,,,,0.92,0.56,0.72,3*01
$GNVTG,,T,,M,0.096,N,0.177,K,A*33
$SMGPS,-0.0 m,-0.01 m/s,7.58 VRx,0.000 km,1 m,54.7 °,1:-- (  0.0 km/h),469.9 m*87
$SMGPS2,-0.10 X,+0.29 Y,+0.93 Z,1 ENL,0 us,0.0 kmh,967.31 hPa,967.20 hPa,-0.01 m/s*0F
$GNRMC,171718.70,A,4816.48383,N,01139.86791,E,0.09,,080522,,,A,V*2A
$GNGNS,171718.70,4816.48383,N,01139.86791,E,AAAN,24,0.56,464.5,46.2,,,V*11
$GNGSA,A,3,01,32,03,21,08,22,14,27,10,17,,,0.92,0.56,0.72,1*03
$GNGSA,A,3,81,65,66,88,82,87,,,,,,,0.92,0.56,0.72,2*00
$GNGSA,A,3,15,34,05,03,27,09,21,36,,,,,0.92,0.56,0.72,3*01
$GNVTG,,T,,M,0.088,N,0.162,K,A*38
$SMGPS,-0.0 m,-0.01 m/s,7.57 VRx,0.000 km,1 m,54.7 °,1:-- (  0.0 km/h),469.9 m*88
$SMGPS2,-0.10 X,+0.28 Y,+0.92 Z,1 ENL,0 us,0.0 kmh,967.31 hPa,967.20 hPa,-0.01 m/s*0F
$GNRMC,171718.80,A,4816.48384,N,01139.86791,E,0.08,,080522,,,A,V*23
$GNGNS,171718.80,4816.48384,N,01139.86791,E,AAAN,24,0.56,464.5,46.2,,,V*19
$GNGSA,A,3,01,32,03,21,08,22,14,27,10,17,,,0.92,0.56,0.72,1*03
$GNGSA,A,3,81,65,66,88,82,87,,,,,,,0.92,0.56,0.72,2*00
$GNGSA,A,3,15,34,05,03,27,09,21,36,,,,,0.92,0.56,0.72,3*01
$GNVTG,,T,,M,0.083,N,0.153,K,A*31
$SMGPS,-0.0 m,-0.01 m/s,7.58 VRx,0.000 km,1 m,54.7 °,1:-- (  0.0 km/h),469.9 m*87
$SMGPS2,-0.10 X,+0.29 Y,+0.92 Z,1 ENL,0 us,0.0 kmh,967.31 hPa,967.20 hPa,-0.01 m/s*0E
$GNRMC,171718.90,A,4816.48385,N,01139.86791,E,0.11,,080522,,,A,V*2B
$GNGNS,171718.90,4816.48385,N,01139.86791,E,AAAN,24,0.56,464.5,46.2,,,V*19
$GNGSA,A,3,01,32,03,21,08,22,14,27,10,17,,,0.92,0.56,0.72,1*03
$GNGSA,A,3,81,65,66,88,82,87,,,,,,,0.92,0.56,0.72,2*00
$GNGSA,A,3,15,34,05,03,27,09,21,36,,,,,0.92,0.56,0.72,3*01
$GNVTG,,T,,M,0.113,N,0.209,K,A*35
$SMGPS,-0.0 m,-0.00 m/s,7.57 VRx,0.000 km,1 m,54.7 °,1:-- (  0.0 km/h),469.9 m*89
$SMGPS2,-0.10 X,+0.29 Y,+0.92 Z,0 ENL,0 us,0.0 kmh,967.31 hPa,967.20 hPa,-0.01 m/s*0F
$GNRMC,171719.00,A,4816.48385,N,01139.86791,E,0.09,,080522,,,A,V*2A
$GNGNS,171719.00,4816.48385,N,01139.86791,E,AAAN,24,0.56,464.5,46.2,,,V*11
$GNGSA,A,3,01,32,03,21,08,22,14,27,10,17,,,0.92,0.56,0.72,1*03
$GNGSA,A,3,81,65,66,88,82,87,,,,,,,0.92,0.56,0.72,2*00
$GNGSA,A,3,15,34,05,03,27,09,21,36,,,,,0.92,0.56,0.72,3*01
$GNVTG,,T,,M,0.088,N,0.162,K,A*38
$SMGPS,-0.0 m,-0.01 m/s,7.59 VRx,0.000 km,1 m,54.7 °,1:-- (  0.0 km/h),469.9 m*86
$SMGPS2,-0.10 X,+0.28 Y,+0.92 Z,1 ENL,0 us,0.0 kmh,967.31 hPa,967.20 hPa,-0.01 m/s*0F
$GNRMC,171719.10,A,4816.48386,N,01139.86790,E,0.08,,080522,,,A,V*28
$GNGNS,171719.10,4816.48386,N,01139.86790,E,AAAN,24,0.56,464.5,46.2,,,V*12
$GNGSA,A,3,01,32,03,21,08,22,14,27,10,17,,,0.92,0.56,0.72,1*03
$GNGSA,A,3,81,65,66,88,82,87,,,,,,,0.92,0.56,0.72,2*00
$GNGSA,A,3,15,34,05,03,27,09,21,36,,,,,0.92,0.56,0.72,3*01
$GNVTG,,T,,M,0.078,N,0.144,K,A*33
$SMGPS,-0.0 m,-0.01 m/s,7.58 VRx,0.000 km,1 m,54.7 °,1:-- (  0.0 km/h),469.9 m*87
$SMGPS2,-0.10 X,+0.29 Y,+0.93 Z,1 ENL,0 us,0.0 kmh,967.31 hPa,967.20 hPa,-0.01 m/s*0F
$GNRMC,171719.20,A,4816.48387,N,01139.86790,E,0.03,,080522,,,A,V*21
$GNGNS,171719.20,4816.48387,N,01139.86790,E,AAAN,24,0.56,464.5,46.2,,,V*10
$GNGSA,A,3,01,32,03,21,08,22,14,27,10,17,,,0.92,0.56,0.72,1*03
$GNGSA,A,3,81,65,66,88,82,87,,,,,,,0.92,0.56,0.72,2*00
$GNGSA,A,3,15,34,05,03,27,09,21,36,,,,,0.92,0.56,0.72,3*01
$GNVTG,,T,,M,0.028,N,0.051,K,A*33
$SMGPS,0.0 m,-0.01 m/s,7.60 VRx,0.000 km,1 m,54.7 °,1:-- (  0.0 km/h),469.9 m*A1
$SMGPS2,-0.10 X,+0.28 Y,+0.92 Z,1 ENL,0 us,0.0 kmh,967.31 hPa,967.20 hPa,-0.01 m/s*0F
$GNRMC,171719.30,A,4816.48387,N,01139.86790,E,0.08,,080522,,,A,V*2B
$GNGNS,171719.30,4816.48387,N,01139.86790,E,AAAN,24,0.56,464.5,46.2,,,V*11
$GNGSA,A,3,01,32,03,21,08,22,14,27,10,17,,,0.92,0.56,0.72,1*03
$GNGSA,A,3,81,65,66,88,82,87,,,,,,,0.92,0.56,0.72,2*00
$GNGSA,A,3,15,34,05,03,27,09,21,36,,,,,0.92,0.56,0.72,3*01
$GNVTG,,T,,M,0.082,N,0.152,K,A*31
$SMGPS,-0.0 m,-0.01 m/s,7.57 VRx,0.000 km,1 m,54.7 °,1:-- (  0.0 km/h),469.9 m*88
$SMGPS2,-0.09 X,+0.29 Y,+0.92 Z,1 ENL,0 us,0.0 kmh,967.31 hPa,967.20 hPa,-0.01 m/s*06
$GNRMC,171719.40,A,4816.48388,N,01139.86790,E,0.10,,080522,,,A,V*2A
$GNGNS,171719.40,4816.48388,N,01139.86790,E,AAAN,24,0.56,464.5,46.2,,,V*19
$GNGSA,A,3,01,32,03,21,08,22,14,27,10,17,,,0.92,0.56,0.72,1*03
$GNGSA,A,3,81,65,66,88,82,87,,,,,,,0.92,0.56,0.72,2*00
$GNGSA,A,3,15,34,05,03,27,09,21,36,,,,,0.92,0.56,0.72,3*01
$GNVTG,,T,,M,0.104,N,0.192,K,A*32
$SMGPS,-0.0 m,-0.01 m/s,7.60 VRx,0.000 km,1 m,54.7 °,1:-- (  0.0 km/h),469.9 m*8C
$SMGPS2,-0.09 X,+0.29 Y,+0.92 Z,1 ENL,0 us,0.0 kmh,967.31 hPa,967.21 hPa,-0.01 m/s*07
$GNRMC,171719.50,A,4816.48388,N,01139.86790,E,0.06,,080522,,,A,V*2C
$GNGNS,171719.50,4816.48388,N,01139.86790,E,AAAN,24,0.56,464.5,46.2,,,V*18
$GNGSA,A,3,01,32,03,21,08,22,14,27,10,17,,,0.92,0.56,0.72,1*03
$GNGSA,A,3,81,65,66,88,82,87,,,,,,,0.92,0.56,0.72,2*00
$GNGSA,A,3,15,34,05,03,27,09,21,36,,,,,0.92,0.56,0.72,3*01
$GNVTG,,T,,M,0.054,N,0.101,K,A*3C
$SMGPS,-0.0 m,-0.01 m/s,7.56 VRx,0.000 km,1 m,54.7 °,1:-- (  0.0 km/h),469.9 m*89
$SMGPS2,-0.09 X,+0.29 Y,+0.93 Z,0 ENL,0 us,0.0 kmh,967.31 hPa,967.20 hPa,-0.01 m/s*06
$GNRMC,171719.60,A,4816.48388,N,01139.86789,E,0.02,,080522,,,A,V*23
$GNGNS,171719.60,4816.48388,N,01139.86789,E,AAAN,24,0.56,464.5,46.2,,,V*13
$GNGSA,A,3,01,32,03,21,08,22,14,27,10,17,,,0.92,0.56,0.72,1*03
$GNGSA,A,3,81,65,66,88,82,87,,,,,,,0.92,0.56,0.72,2*00
$GNGSA,A,3,15,34,05,03,27,09,21,36,,,,,0.92,0.56,0.72,3*01
$GNVTG,,T,,M,0.004,N,0.008,K,A*31
$SMGPS,-0.0 m,-0.01 m/s,7.60 VRx,0.000 km,1 m,54.7 °,1:-- (  0.0 km/h),469.9 m*8C
$SMGPS2,-0.10 X,+0.29 Y,+0.93 Z,1 ENL,0 us,0.0 kmh,967.31 hPa,967.20 hPa,-0.00 m/s*0E
$GNRMC,171719.70,A,4816.48389,N,01139.86789,E,0.08,,080522,,,A,V*29
$GNGNS,171719.70,4816.48389,N,01139.86789,E,AAAN,24,0.56,464.5,46.2,,,V*13
$GNGSA,A,3,01,32,03,21,08,22,14,27,10,17,,,0.92,0.56,0.72,1*03
$GNGSA,A,3,81,65,66,88,82,87,,,,,,,0.92,0.56,0.72,2*00
$GNGSA,A,3,15,34,05,03,27,09,21,36,,,,,0.92,0.56,0.72,3*01
$GNVTG,,T,,M,0.079,N,0.146,K,A*30
$SMGPS,-0.0 m,-0.01 m/s,7.57 VRx,0.000 km,1 m,54.7 °,1:-- (  0.0 km/h),469.9 m*88
$SMGPS2,-0.09 X,+0.29 Y,+0.93 Z,1 ENL,0 us,0.0 kmh,967.32 hPa,967.20 hPa,-0.00 m/s*05
$GNRMC,171719.80,A,4816.48389,N,01139.86789,E,0.07,,080522,,,A,V*29
$GNGNS,171719.80,4816.48389,N,01139.86789,E,AAAN,24,0.56,464.5,46.2,,,V*1C
$GNGSA,A,3,01,32,03,21,08,22,14,27,10,17,,,0.92,0.56,0.72,1*03
$GNGSA,A,3,81,65,66,88,82,87,,,,,,,0.92,0.56,0.72,2*00
$GNGSA,A,3,15,34,05,03,27,09,21,36,,,,,0.92,0.56,0.72,3*01
$GNVTG,,T,,M,0.065,N,0.121,K,A*3C
$SMGPS,-0.0 m,-0.01 m/s,7.59 VRx,0.000 km,1 m,54.7 °,1:-- (  0.0 km/h),469.9 m*86
$SMGPS2,-0.10 X,+0.29 Y,+0.92 Z,0 ENL,0 us,0.0 kmh,967.31 hPa,967.20 hPa,-0.00 m/s*0E
$GNRMC,171719.90,A,4816.48390,N,01139.86788,E,0.04,,080522,,,A,V*22
$GNGNS,171719.90,4816.48390,N,01139.86788,E,AAAN,24,0.56,464.5,46.2,,,V*14
$GNGSA,A,3,01,32,03,21,08,22,14,27,10,17,,,0.92,0.56,0.72,1*03
$GNGSA,A,3,81,65,66,88,82,87,,,,,,,0.92,0.56,0.72,2*00
$GNGSA,A,3,15,34,05,03,27,09,21,36,,,,,0.92,0.56,0.72,3*01
$GNVTG,,T,,M,0.037,N,0.069,K,A*36
$SMGPS,0.0 m,-0.01 m/s,7.57 VRx,0.000 km,1 m,54.7 °,1:-- (  0.0 km/h),469.9 m*A5
$SMGPS2,-0.09 X,+0.29 Y,+0.92 Z,0 ENL,0 us,0.0 kmh,967.31 hPa,967.20 hPa,-0.00 m/s*06
$GNRMC,171720.00,A,4816.48390,N,01139.86788,E,0.11,,080522,,,A,V*25
$GNGNS,171720.00,4816.48390,N,01139.86788,E,AAAN,24,0.56,464.5,46.2,,,V*17
$GNGSA,A,3,01,32,03,21,08,22,14,27,10,17,,,0.92,0.56,0.72,1*03
$GNGSA,A,3,81,65,66,88,82,87,,,,,,,0.92,0.56,0.72,2*00
$GNGSA,A,3,15,34,05,03,27,09,21,36,,,,,0.92,0.56,0.72,3*01
$GNVTG,,T,,M,0.108,N,0.200,K,A*36
$SMGPS,0.0 m,-0.01 m/s,7.59 VRx,0.000 km,1 m,54.7 °,1:-- (  0.0 km/h),469.8 m*AA
$SMGPS2,-0.09 X,+0.30 Y,+0.97 Z,1 ENL,0 us,0.0 kmh,967.31 hPa,967.20 hPa,-0.00 m/s*0A
$GNRMC,171720.10,A,4816.48390,N,01139.86787,E,0.06,,080522,,,A,V*2D
$GNGNS,171720.10,4816.48390,N,01139.86787,E,AAAN,24,0.56,464.5,46.2,,,V*19
$GNGSA,A,3,01,32,03,21,08,22,14,27,10,17,,,0.92,0.56,0.72,1*03
$GNGSA,A,3,81,65,66,88,82,87,,,,,,,0.92,0.56,0.72,2*00
$GNGSA,A,3,15,34,05,03,27,09,21,36,,,,,0.92,0.56,0.72,3*01
$GNVTG,,T,,M,0.056,N,0.104,K,A*3B
$SMGPS,0.0 m,-0.01 m/s,7.58 VRx,0.000 km,1 m,54.7 °,1:-- (  0.0 km/h),469.8 m*AB
$SMGPS2,-0.09 X,+0.29 Y,+0.93 Z,0 ENL,0 us,0.0 kmh,967.31 hPa,967.20 hPa,+0.00 m/s*01
$GNRMC,171720.20,A,4816.48391,N,01139.86787,E,0.07,,080522,,,A,V*2E
$GNGNS,171720.20,4816.48391,N,01139.86787,E,AAAN,24,0.56,464.5,46.2,,,V*1B
$GNGSA,A,3,01,32,03,21,08,22,14,27,10,17,,,0.92,0.56,0.72,1*03
$GNGSA,A,3,81,65,66,88,82,87,,,,,,,0.92,0.56,0.72,2*00
$GNGSA,A,3,15,34,05,03,27,09,21,36,,,,,0.92,0.56,0.72,3*01
$GNVTG,,T,,M,0.065,N,0.119,K,A*37
$SMGPS,-0.0 m,-0.01 m/s,7.59 VRx,0.000 km,1 m,54.7 °,1:-- (  0.0 km/h),469.8 m*87
$SMGPS2,-0.10 X,+0.29 Y,+0.93 Z,0 ENL,0 us,0.0 kmh,967.31 hPa,967.20 hPa,+0.00 m/s*09
$GNRMC,171720.30,A,4816.48392,N,01139.86787,E,0.06,,080522,,,A,V*2D
$GNGNS,171720.30,4816.48392,N,01139.86787,E,AAAN,24,0.56,464.5,46.2,,,V*19
$GNGSA,A,3,01,32,03,21,08,22,14,27,10,17,,,0.92,0.56,0.72,1*03
$GNGSA,A,3,81,65,66,88,82,87,,,,,,,0.92,0.56,0.72,2*00
$GNGSA,A,3,15,34,05,03,27,09,21,36,,,,,0.92,0.56,0.72,3*01
$GNVTG,,T,,M,0.051,N,0.095,K,A*35
$SMGPS,-0.0 m,-0.02 m/s,7.57 VRx,0.000 km,1 m,54.7 °,1:-- (  0.0 km/h),469.8 m*8A
$SMGPS2,-0.10 X,+0.29 Y,+0.92 Z,1 ENL,0 us,0.0 kmh,967.32 hPa,967.20 hPa,-0.00 m/s*0C
$GNRMC,171720.40,A,4816.48392,N,01139.86787,E,0.12,,080522,,,A,V*2F
$GNGNS,171720.40,4816.48392,N,01139.86787,E,AAAN,24,0.56,464.5,46.2,,,V*1E
$GNGSA,A,3,01,32,03,21,08,22,14,27,10,17,,,0.92,0.56,0.72,1*03
$GNGSA,A,3,81,65,66,88,82,87,,,,,,,0.92,0.56,0.72,2*00
$GNGSA,A,3,15,34,05,03,27,09,21,36,,,,,0.92,0.56,0.72,3*01
$GNVTG,,T,,M,0.120,N,0.222,K,A*3C
$SMGPS,-0.0 m,-0.01 m/s,7.60 VRx,0.000 km,1 m,54.7 °,1:-- (  0.0 km/h),469.8 m*8D
$SMGPS2,-0.09 X,+0.29 Y,+0.93 Z,0 ENL,0 us,0.0 kmh,967.32 hPa,967.20 hPa,-0.00 m/s*04
$GNRMC,171720.50,A,4816.48393,N,01139.86787,E,0.08,,080522,,,A,V*24
$GNGNS,171720.50,4816.48393,N,01139.86787,E,AAAN,24,0.56,464.5,46.2,,,V*1E
$GNGSA,A,3,01,32,03,21,08,22,14,27,10,17,,,0.92,0.56,0.72,1*03
$GNGSA,A,3,81,65,66,88,82,87,,,,,,,0.92,0.56,0.72,2*00
$GNGSA,A,3,15,34,05,03,27,09,21,36,,,,,0.92,0.56,0.72,3*01
$GNVTG,,T,,M,0.074,N,0.138,K,A*34
$SMGPS,0.0 m,-0.01 m/s,7.56 VRx,0.000 km,1 m,54.7 °,1:-- (  0.0 km/h),469.8 m*A5
$SMGPS2,-0.10 X,+0.29 Y,+0.92 Z,0 ENL,0 us,0.0 kmh,967.31 hPa,967.20 hPa,-0.00 m/s*0E
$GNRMC,171720.60,A,4816.48393,N,01139.86786,E,0.12,,080522,,,A,V*2D
$GNGNS,171720.60,4816.48393,N,01139.86786,E,AAAN,24,0.56,464.5,46.2,,,V*1C
$GNGSA,A,3,01,32,03,21,08,22,14,27,10,17,,,0.92,0.56,0.72,1*03
$GNGSA,A,3,81,65,66,88,82,87,,,,,,,0.92,0.56,0.72,2*00
$GNGSA,A,3,15,34,05,03,27,09,21,36,,,,,0.92,0.56,0.72,3*01
$GNVTG,,T,,M,0.124,N,0.230,K,A*3B
$SMGPS,0.0 m,-0.01 m/s,7.60 VRx,0.000 km,1 m,54.7 °,1:-- (  0.0 km/h),469.8 m*A0
$SMGPS2,-0.09 X,+0.29 Y,+0.92 Z,0 ENL,0 us,0.0 kmh,967.31 hPa,967.20 hPa,-0.00 m/s*06
$GNRMC,171720.70,A,4816.48394,N,01139.86786,E,0.07,,080522,,,A,V*2F
$GNGNS,171720.70,4816.48394,N,01139.86786,E,AAAN,24,0.56,464.5,46.2,,,V*1A
$GNGSA,A,3,01,32,03,21,08,22,14,27,10,17,,,0.92,0.56,0.72,1*03
$GNGSA,A,3,81,65,66,88,82,87,,,,,,,0.92,0.56,0.72,2*00
$GNGSA,A,3,15,34,05,03,27,09,21,36,,,,,0.92,0.56,0.72,3*01
$GNVTG,,T,,M,0.064,N,0.118,K,A*37
$SMGPS,-0.0 m,-0.01 m/s,7.57 VRx,0.000 km,1 m,54.7 °,1:-- (  0.0 km/h),469.9 m*88
$SMGPS2,-0.09 X,+0.29 Y,+0.92 Z,1 ENL,0 us,0.0 kmh,967.31 hPa,967.20 hPa,-0.01 m/s*06
$GNRMC,171720.80,A,4816.48395,N,01139.86786,E,0.05,,080522,,,A,V*23
$GNGNS,171720.80,4816.48395,N,01139.86786,E,AAAN,24,0.56,464.5,46.2,,,V*14
$GNGSA,A,3,01,32,03,21,08,22,14,27,10,17,,,0.92,0.56,0.72,1*03
$GNGSA,A,3,81,65,66,88,82,87,,,,,,,0.92,0.56,0.72,2*00
$GNGSA,A,3,15,34,05,03,27,09,21,36,,,,,0.92,0.56,0.72,3*01
$GNVTG,,T,,M,0.052,N,0.096,K,A*35
$SMGPS,0.0 m,-0.01 m/s,7.60 VRx,0.000 km,1 m,54.7 °,1:-- (  0.0 km/h),469.9 m*A1
$SMGPS2,-0.09 X,+0.29 Y,+0.93 Z,1 ENL,0 us,0.0 kmh,967.31 hPa,967.21 hPa,-0.01 m/s*06
$GNRMC,171720.90,A,4816.48396,N,01139.86786,E,0.14,,080522,,,A,V*21
$GNGNS,171720.90,4816.48396,N,01139.86786,E,AAAN,24,0.56,464.5,46.2,,,V*16
$GNGSA,A,3,01,32,03,21,08,22,14,27,10,17,,,0.92,0.56,0.72,1*03
$GNGSA,A,3,81,65,66,88,82,87,,,,,,,0.92,0.56,0.72,2*00
$GNGSA,A,3,15,34,05,03,27,09,21,36,,,,,0.92,0.56,0.72,3*01
$GNVTG,,T,,M,0.135,N,0.251,K,A*3C
$SMGPS,-0.0 m,-0.01 m/s,7.57 VRx,0.000 km,1 m,54.7 °,1:-- (  0.0 km/h),469.9 m*88
$SMGPS2,-0.10 X,+0.29 Y,+0.92 Z,0 ENL,0 us,0.0 kmh,967.32 hPa,967.20 hPa,-0.01 m/s*0C
$GNRMC,171721.00,A,4816.48397,N,01139.86787,E,0.03,,080522,,,A,V*2F
$GNGNS,171721.00,4816.48397,N,01139.86787,E,AAAN,24,0.56,464.5,46.2,,,V*1E
$GNGSA,A,3,01,32,03,21,08,22,14,27,10,17,,,0.92,0.56,0.72,1*03
$GNGSA,A,3,81,65,66,88,82,87,,,,,,,0.92,0.56,0.72,2*00
$GNGSA,A,3,15,34,05,03,27,09,21,36,,,,,0.92,0.56,0.72,3*01
$GNVTG,,T,,M,0.027,N,0.051,K,A*3C
$SMGPS,-0.0 m,-0.00 m/s,7.59 VRx,0.000 km,1 m,54.7 °,1:-- (  0.0 km/h),469.9 m*87
$SMGPS2,-0.10 X,+0.29 Y,+0.93 Z,1 ENL,0 us,0.0 kmh,967.32 hPa,967.20 hPa,-0.00 m/s*0D
$GNRMC,171721.10,A,4816.48397,N,01139.86787,E,0.06,,080522,,,A,V*2B
$GNGNS,171721.10,4816.48397,N,01139.86787,E,AAAN,24,0.56,464.5,46.2,,,V*1F
$GNGSA,A,3,01,32,03,21,08,22,14,27,10,17,,,0.92,0.56,0.72,1*03
$GNGSA,A,3,81,65,66,88,82,87,,,,,,,0.92,0.56,0.72,2*00
$GNGSA,A,3,15,34,05,03,27,09,21,36,,,,,0.92,0.56,0.72,3*01
$GNVTG,,T,,M,0.061,N,0.112,K,A*38
$SMGPS,-0.0 m,+0.00 m/s,7.56 VRx,0.000 km,1 m,54.7 °,1:-- (  0.0 km/h),469.9 m*8E
$SMGPS2,-0.09 X,+0.29 Y,+0.92 Z,0 ENL,0 us,0.0 kmh,967.31 hPa,967.20 hPa,-0.00 m/s*06
$GNRMC,171721.20,A,4816.48398,N,01139.86787,E,0.08,,080522,,,A,V*29
$GNGNS,171721.20,4816.48398,N,01139.86787,E,AAAN,24,0.56,464.5,46.2,,,V*13
$GNGSA,A,3,01,32,03,21,08,22,14,27,10,17,,,0.92,0.56,0.72,1*03
$GNGSA,A,3,81,65,66,88,82,87,,,,,,,0.92,0.56,0.72,2*00
$GNGSA,A,3,15,34,05,03,27,09,21,36,,,,,0.92,0.56,0.72,3*01
$GNVTG,,T,,M,0.078,N,0.145,K,A*32
$SMGPS,-0.0 m,-0.00 m/s,7.59 VRx,0.000 km,1 m,54.7 °,1:-- (  0.0 km/h),469.9 m*87
$SMGPS2,-0.10 X,+0.29 Y,+0.92 Z,0 ENL,0 us,0.0 kmh,967.31 hPa,967.20 hPa,+0.00 m/s*08
$GNRMC,171721.30,A,4816.48398,N,01139.86787,E,0.10,,080522,,,A,V*21
$GNGNS,171721.30,4816.48398,N,01139.86787,E,AAAN,24,0.56,464.5,46.2,,,V*12
$GNGSA,A,3,01,32,03,21,08,22,14,27,10,17,,,0.92,0.56,0.72,1*03
$GNGSA,A,3,81,65,66,88,82,87,,,,,,,0.92,0.56,0.72,2*00
$GNGSA,A,3,15,34,05,03,27,09,21,36,,,,,0.92,0.56,0.72,3*01
$GNVTG,,T,,M,0.095,N,0.176,K,A*31
$SMGPS,-0.0 m,-0.01 m/s,7.57 VRx,0.000 km,1 m,54.7 °,1:-- (  0.0 km/h),469.9 m*88
$SMGPS2,-0.09 X,+0.29 Y,+0.92 Z,1 ENL,0 us,0.0 kmh,967.31 hPa,967.20 hPa,-0.00 m/s*07
$GNRMC,171721.40,A,4816.48398,N,01139.86787,E,0.08,,080522,,,A,V*2F
$GNGNS,171721.40,4816.48398,N,01139.86787,E,AAAN,24,0.56,464.5,46.2,,,V*15
$GNGSA,A,3,01,32,03,21,08,22,14,27,10,17,,,0.92,0.56,0.72,1*03
$GNGSA,A,3,81,65,66,88,82,87,,,,,,,0.92,0.56,0.72,2*00
$GNGSA,A,3,15,34,05,03,27,09,21,36,,,,,0.92,0.56,0.72,3*01
$GNVTG,,T,,M,0.076,N,0.140,K,A*39
$SMGPS,0.0 m,-0.01 m/s,7.58 VRx,0.000 km,1 m,54.7 °,1:-- (  0.0 km/h),469.9 m*AA
$SMGPS2,-0.09 X,+0.29 Y,+0.93 Z,1 ENL,0 us,0.0 kmh,967.31 hPa,967.20 hPa,+0.00 m/s*00
