$GPSSETUP,8A9B,0,1,1,0,0,1,0,0,0,1,3,0,0,0,0,6,0,C8,C8,1F4,1C2,32,64,7C,64,7D0,5,1,1,1E,0,0,0,0,0,0,1003,4,10,5,6,10,10,10,10,10,10,10,10,10,BC10,0,7C,0,108,302,604,0,20F,0,0,0,0,0,0,0,0,0,0,0,0,0,0,0,0,0,0,0,0,0,0,0,0,0,0,0,0,0,0,0,0,0,20,12C,6A8A*33
$GNRMC,183218.50,A,4805.81719,N,01117.58637,E,0.21,,190422,,,A*53
$GNGGA,183218.50,4805.81719,N,01117.58637,E,1,09,1.38,577.0,M,46.5,M,,*41
$GNGSA,A,3,27,01,08,14,21,03,,,,,,,2.37,1.38,1.93*12
$GNVTG,,T,,M,0.205,N,0.380,K,A*31
$SMGPS,0.0 m,+0.01 m/s,8.11 VRx,0.000 km,1 m,186.4 °,1:-- (  0.0 km/h)*DE
$SMGPS2,-0.14 X,-0.02 Y,+0.98 Z,0 ENL,0 us*4D
$GNRMC,183218.60,A,4805.81707,N,01117.58633,E,0.08,,190422,,,A*50
$GNGGA,183218.60,4805.81707,N,01117.58633,E,1,09,1.38,577.0,M,46.5,M,,*49
$GNGSA,A,3,27,01,08,14,21,03,,,,,,,2.37,1.38,1.93*12
$GNVTG,,T,,M,0.079,N,0.145,K,A*33
$SMGPS,0.0 m,+0.01 m/s,8.11 VRx,0.000 km,1 m,18.5 °,1:-- (  0.0 km/h)*E9
$SMGPS2,-0.13 X,-0.02 Y,+0.98 Z,0 ENL,0 us*4A
$GNRMC,183218.70,A,4805.81697,N,01117.58630,E,0.08,,190422,,,A*5A
$GNGGA,183218.70,4805.81697,N,01117.58630,E,1,09,1.38,577.0,M,46.5,M,,*43
$GNGSA,A,3,27,01,08,14,21,03,,,,,,,2.37,1.38,1.93*12
$GNVTG,,T,,M,0.082,N,0.152,K,A*31
$SMGPS,0.0 m,+0.01 m/s,8.11 VRx,0.000 km,0 m,90.0 °,1:-- (  0.0 km/h)*ED
$SMGPS2,-0.13 X,-0.02 Y,+0.98 Z,0 ENL,0 us*4A
$GNRMC,183218.80,A,4805.81691,N,01117.58628,E,0.09,,190422,,,A*5B
$GNGGA,183218.80,4805.81691,N,01117.58628,E,1,09,1.38,577.0,M,46.5,M,,*43
$GNGSA,A,3,27,01,08,14,21,03,,,,,,,2.37,1.38,1.93*12
$GNVTG,,T,,M,0.094,N,0.173,K,A*35
$SMGPS,0.0 m,+0.00 m/s,8.11 VRx,0.000 km,0 m,90.0 °,1:-- (  0.0 km/h)*EC
$SMGPS2,-0.14 X,-0.02 Y,+0.98 Z,0 ENL,0 us*4D
$GNRMC,183218.90,A,4805.81687,N,01117.58628,E,0.15,,190422,,,A*50
$GNGGA,183218.90,4805.81687,N,01117.58628,E,1,09,1.38,577.0,M,46.5,M,,*45
$GNGSA,A,3,27,01,08,14,21,03,,,,,,,2.37,1.38,1.93*12
$GNVTG,,T,,M,0.150,N,0.278,K,A*34
$SMGPS,0.0 m,-0.00 m/s,8.10 VRx,0.000 km,0 m,90.0 °,1:-- (  0.0 km/h)*EB
$SMGPS2,-0.14 X,-0.01 Y,+0.99 Z,0 ENL,0 us*4F
$GNRMC,183219.00,A,4805.81682,N,01117.58628,E,0.19,,190422,,,A*51
$GNGGA,183219.00,4805.81682,N,01117.58628,E,1,09,1.38,577.1,M,46.5,M,,*49
$GNGSA,A,3,27,01,08,14,21,03,,,,,,,2.37,1.38,1.93*12
$GNVTG,,T,,M,0.184,N,0.342,K,A*35
$SMGPS,0.1 m,-0.00 m/s,8.10 VRx,0.000 km,0 m,90.0 °,1:-- (  0.0 km/h)*EA
$SMGPS2,-0.13 X,-0.01 Y,+0.98 Z,0 ENL,0 us*49
$GNRMC,183219.10,A,4805.81677,N,01117.58626,E,0.16,,190422,,,A*5B
$GNGGA,183219.10,4805.81677,N,01117.58626,E,1,09,1.38,577.1,M,46.5,M,,*4C
$GNGSA,A,3,27,01,08,14,21,03,,,,,,,2.37,1.38,1.93*12
$GNVTG,,T,,M,0.145,N,0.268,K,A*31
$SMGPS,0.1 m,-0.01 m/s,8.10 VRx,0.000 km,0 m,90.0 °,1:-- (  0.0 km/h)*EB
$SMGPS2,-0.14 X,-0.02 Y,+0.98 Z,0 ENL,0 us*4D
$GNRMC,183219.20,A,4805.81673,N,01117.58625,E,0.15,,190422,,,A*5C
$GNGGA,183219.20,4805.81673,N,01117.58625,E,1,09,1.38,577.1,M,46.5,M,,*48
$GNGSA,A,3,27,01,08,14,21,03,,,,,,,2.37,1.38,1.93*12
$GNVTG,,T,,M,0.127,N,0.236,K,A*3E
$SMGPS,0.1 m,-0.00 m/s,8.10 VRx,0.000 km,0 m,90.0 °,1:-- (  0.0 km/h)*EA
$SMGPS2,-0.14 X,-0.02 Y,+0.98 Z,0 ENL,0 us*4D
$GNRMC,183219.30,A,4805.81668,N,01117.58623,E,0.16,,190422,,,A*52
$GNGGA,183219.30,4805.81668,N,01117.58623,E,1,09,1.38,577.0,M,46.5,M,,*44
$GNGSA,A,3,27,01,08,14,21,03,,,,,,,2.37,1.38,1.93*12
$GNVTG,,T,,M,0.129,N,0.238,K,A*3E
$SMGPS,0.0 m,-0.01 m/s,8.10 VRx,0.000 km,0 m,90.0 °,1:-- (  0.0 km/h)*EA
$SMGPS2,-0.13 X,-0.01 Y,+0.98 Z,0 ENL,0 us*49
$GNRMC,183219.40,A,4805.81664,N,01117.58622,E,0.23,,190422,,,A*5E
$GNGGA,183219.40,4805.81664,N,01117.58622,E,1,09,1.38,577.1,M,46.5,M,,*4F
$GNGSA,A,3,27,01,08,14,21,03,,,,,,,2.37,1.38,1.93*12
$GNVTG,,T,,M,0.200,N,0.370,K,A*3B
$SMGPS,0.1 m,-0.00 m/s,8.10 VRx,0.000 km,0 m,90.0 °,1:-- (  0.0 km/h)*EA
$SMGPS2,-0.13 X,-0.02 Y,+0.98 Z,0 ENL,0 us*4A
$GNRMC,183219.50,A,4805.81661,N,01117.58621,E,0.14,,190422,,,A*5D
$GNGGA,183219.50,4805.81661,N,01117.58621,E,1,09,1.38,577.0,M,46.5,M,,*49
$GNGSA,A,3,27,01,08,14,21,03,,,,,,,2.37,1.38,1.93*12
$GNVTG,,T,,M,0.091,N,0.168,K,A*3A
$SMGPS,0.0 m,+0.00 m/s,8.10 VRx,0.000 km,1 m,170.5 °,1:-- (  0.0 km/h)*D6
$SMGPS2,-0.14 X,-0.02 Y,+0.98 Z,0 ENL,0 us*4D
$GNRMC,183219.60,A,4805.81660,N,01117.58622,E,0.21,,190422,,,A*5A
$GNGGA,183219.60,4805.81660,N,01117.58622,E,1,09,1.38,577.1,M,46.5,M,,*49
$GNGSA,A,3,27,01,08,14,21,03,,,,,,,2.37,1.38,1.93*12
$GNVTG,,T,,M,0.173,N,0.320,K,A*39
$SMGPS,0.1 m,+0.01 m/s,8.10 VRx,0.000 km,1 m,170.5 °,1:-- (  0.0 km/h)*D6
$SMGPS2,-0.14 X,-0.02 Y,+0.98 Z,0 ENL,0 us*4D
$GNRMC,183219.70,A,4805.81660,N,01117.58622,E,0.22,,190422,,,A*58
$GNGGA,183219.70,4805.81660,N,01117.58622,E,1,09,1.38,577.0,M,46.5,M,,*49
$GNGSA,A,3,27,01,08,14,21,03,,,,,,,2.37,1.38,1.93*12
$GNVTG,,T,,M,0.186,N,0.345,K,A*30
$SMGPS,0.0 m,+0.01 m/s,8.10 VRx,0.000 km,1 m,170.5 °,1:-- (  0.0 km/h)*D7
$SMGPS2,-0.14 X,-0.01 Y,+0.98 Z,0 ENL,0 us*4E
$GNRMC,183219.80,A,4805.81659,N,01117.58622,E,0.15,,190422,,,A*59
$GNGGA,183219.80,4805.81659,N,01117.58622,E,1,09,1.38,577.0,M,46.5,M,,*4C
$GNGSA,A,3,27,01,08,14,21,03,,,,,,,2.37,1.38,1.93*12
$GNVTG,,T,,M,0.110,N,0.204,K,A*3B
$SMGPS,0.0 m,+0.02 m/s,8.10 VRx,0.000 km,1 m,170.5 °,1:-- (  0.0 km/h)*D4
$SMGPS2,-0.14 X,-0.01 Y,+0.98 Z,0 ENL,0 us*4E
$GNRMC,183219.90,A,4805.81658,N,01117.58621,E,0.16,,190422,,,A*59
$GNGGA,183219.90,4805.81658,N,01117.58621,E,1,09,1.38,577.0,M,46.5,M,,*4F
$GNGSA,A,3,27,01,08,14,21,03,,,,,,,2.37,1.38,1.93*12
$GNVTG,,T,,M,0.138,N,0.256,K,A*36
$SMGPS,0.0 m,+0.02 m/s,8.10 VRx,0.000 km,1 m,170.5 °,1:-- (  0.0 km/h)*D4
$SMGPS2,-0.14 X,-0.01 Y,+0.98 Z,0 ENL,0 us*4E
$GNRMC,183220.00,A,4805.81657,N,01117.58620,E,0.11,,190422,,,A*53
$GNGGA,183220.00,4805.81657,N,01117.58620,E,1,09,1.38,576.9,M,46.5,M,,*4A
$GNGSA,A,3,27,01,08,14,21,03,,,,,,,2.37,1.38,1.93*12
$GNVTG,,T,,M,0.083,N,0.153,K,A*31
$SMGPS,-0.1 m,+0.02 m/s,8.10 VRx,0.000 km,1 m,170.5 °,1:-- (  0.0 km/h)*F8
$SMGPS2,-0.14 X,-0.02 Y,+0.98 Z,0 ENL,0 us*4D
$GNRMC,183220.10,A,4805.81656,N,01117.58620,E,0.08,,190422,,,A*5B
$GNGGA,183220.10,4805.81656,N,01117.58620,E,1,09,1.38,577.0,M,46.5,M,,*42
$GNGSA,A,3,27,01,08,14,21,03,,,,,,,2.37,1.38,1.93*12
$GNVTG,,T,,M,0.075,N,0.138,K,A*35
$SMGPS,-0.0 m,+0.01 m/s,8.10 VRx,0.000 km,1 m,170.5 °,1:-- (  0.0 km/h)*FA
$SMGPS2,-0.13 X,-0.01 Y,+0.98 Z,0 ENL,0 us*49
$GNRMC,183220.20,A,4805.81656,N,01117.58621,E,0.28,,190422,,,A*5B
$GNGGA,183220.20,4805.81656,N,01117.58621,E,1,09,1.38,577.0,M,46.5,M,,*40
$GNGSA,A,3,27,01,08,14,21,03,,,,,,,2.37,1.38,1.93*12
$GNVTG,,T,,M,0.278,N,0.515,K,A*31
$SMGPS,-0.0 m,-0.00 m/s,8.10 VRx,0.000 km,1 m,170.5 °,1:-- (  0.0 km/h)*FD
$SMGPS2,-0.14 X,-0.01 Y,+0.98 Z,0 ENL,0 us*4E
$GNRMC,183220.30,A,4805.81656,N,01117.58621,E,0.17,,190422,,,A*56
$GNGGA,183220.30,4805.81656,N,01117.58621,E,1,09,1.38,576.9,M,46.5,M,,*49
$GNGSA,A,3,27,01,08,14,21,03,,,,,,,2.37,1.38,1.93*12
$GNVTG,,T,,M,0.166,N,0.308,K,A*37
$SMGPS,-0.1 m,-0.01 m/s,8.10 VRx,0.000 km,1 m,170.5 °,1:-- (  0.0 km/h)*FD
$SMGPS2,-0.14 X,-0.01 Y,+0.98 Z,0 ENL,0 us*4E
$GNRMC,183220.40,A,4805.81655,N,01117.58621,E,0.18,,190422,,,A*5D
$GNGGA,183220.40,4805.81655,N,01117.58621,E,1,09,1.38,576.9,M,46.5,M,,*4D
$GNGSA,A,3,27,01,08,14,21,03,,,,,,,2.37,1.38,1.93*12
$GNVTG,,T,,M,0.167,N,0.309,K,A*37
$SMGPS,-0.1 m,-0.03 m/s,8.10 VRx,0.000 km,1 m,170.5 °,1:-- (  0.0 km/h)*FF
$SMGPS2,-0.13 X,-0.02 Y,+0.98 Z,0 ENL,0 us*4A
$GNRMC,183220.50,A,4805.81654,N,01117.58619,E,0.17,,190422,,,A*59
$GNGGA,183220.50,4805.81654,N,01117.58619,E,1,09,1.38,576.9,M,46.5,M,,*46
$GNGSA,A,3,27,01,08,14,21,03,,,,,,,2.37,1.38,1.93*12
$GNVTG,,T,,M,0.149,N,0.275,K,A*31
$SMGPS,-0.1 m,-0.04 m/s,8.10 VRx,0.000 km,1 m,170.5 °,1:-- (  0.0 km/h)*F8
$SMGPS2,-0.13 X,-0.02 Y,+0.98 Z,0 ENL,0 us*4A
$GNRMC,183220.60,A,4805.81653,N,01117.58617,E,0.23,,190422,,,A*54
$GNGGA,183220.60,4805.81653,N,01117.58617,E,1,09,1.38,576.9,M,46.5,M,,*4C
$GNGSA,A,3,27,01,08,14,21,03,,,,,,,2.37,1.38,1.93*12
$GNVTG,,T,,M,0.175,N,0.323,K,A*3C
$SMGPS,-0.1 m,-0.06 m/s,8.10 VRx,0.000 km,1 m,170.5 °,1:-- (  0.0 km/h)*FA
$SMGPS2,-0.14 X,-0.01 Y,+0.98 Z,0 ENL,0 us*4E
$GNRMC,183220.70,A,4805.81652,N,01117.58616,E,0.31,,190422,,,A*56
$GNGGA,183220.70,4805.81652,N,01117.58616,E,1,09,1.38,577.0,M,46.5,M,,*45
$GNGSA,A,3,27,01,08,14,21,03,,,,,,,2.37,1.38,1.93*12
$GNVTG,,T,,M,0.255,N,0.472,K,A*3E
$SMGPS,-0.0 m,-0.06 m/s,8.10 VRx,0.000 km,1 m,170.5 °,1:-- (  0.0 km/h)*FB
$SMGPS2,-0.14 X,-0.02 Y,+0.98 Z,0 ENL,0 us*4D
$GNRMC,183220.80,A,4805.81651,N,01117.58614,E,0.26,,190422,,,A*5E
$GNGGA,183220.80,4805.81651,N,01117.58614,E,1,09,1.38,576.9,M,46.5,M,,*43
$GNGSA,A,3,27,01,08,14,21,03,,,,,,,2.37,1.38,1.93*12
$GNVTG,,T,,M,0.162,N,0.300,K,A*3B
$SMGPS,-0.1 m,-0.07 m/s,8.10 VRx,0.000 km,1 m,170.5 °,1:-- (  0.0 km/h)*FB
$SMGPS2,-0.14 X,-0.02 Y,+0.98 Z,0 ENL,0 us*4D
$GNRMC,183220.90,A,4805.81649,N,01117.58612,E,0.38,,190422,,,A*5F
$GNGGA,183220.90,4805.81649,N,01117.58612,E,1,09,1.38,576.9,M,46.5,M,,*4D
$GNGSA,A,3,27,01,08,14,21,03,,,,,,,2.37,1.38,1.93*12
$GNVTG,,T,,M,0.313,N,0.580,K,A*31
$SMGPS,-0.1 m,-0.08 m/s,8.10 VRx,0.000 km,1 m,170.5 °,1:-- (  0.0 km/h)*F4
$SMGPS2,-0.14 X,-0.02 Y,+0.98 Z,0 ENL,0 us*4D
$GNRMC,183221.00,A,4805.81648,N,01117.58610,E,0.42,,190422,,,A*59
$GNGGA,183221.00,4805.81648,N,01117.58610,E,1,09,1.38,576.9,M,46.5,M,,*46
$GNGSA,A,3,27,01,08,14,21,03,,,,,,,2.37,1.38,1.93*12
$GNVTG,,T,,M,0.348,N,0.644,K,A*34
$SMGPS,-0.1 m,-0.08 m/s,8.10 VRx,0.000 km,1 m,180.0 °,1:-- (  0.0 km/h)*FE
$SMGPS2,-0.13 X,-0.01 Y,+0.97 Z,0 ENL,0 us*46
$GNRMC,183221.10,A,4805.81646,N,01117.58608,E,0.32,,190422,,,A*58
$GNGGA,183221.10,4805.81646,N,01117.58608,E,1,09,1.38,576.9,M,46.5,M,,*40
$GNGSA,A,3,27,01,08,14,21,03,,,,,,,2.37,1.38,1.93*12
$GNVTG,,T,,M,0.190,N,0.352,K,A*31
$SMGPS,-0.1 m,-0.09 m/s,8.10 VRx,0.000 km,1 m,180.0 °,1:-- (  0.0 km/h)*FF
$SMGPS2,-0.13 X,-0.02 Y,+0.98 Z,0 ENL,0 us*4A
$GNRMC,183221.20,A,4805.81645,N,01117.58607,E,0.41,,190422,,,A*53
$GNGGA,183221.20,4805.81645,N,01117.58607,E,1,09,1.38,576.9,M,46.5,M,,*4F
$GNGSA,A,3,27,01,08,14,21,03,,,,,,,2.37,1.38,1.93*12
$GNVTG,,T,,M,0.313,N,0.579,K,A*37
$SMGPS,-0.1 m,-0.10 m/s,8.10 VRx,0.000 km,1 m,180.0 °,1:-- (  0.0 km/h)*F7
$SMGPS2,-0.13 X,-0.02 Y,+0.98 Z,0 ENL,0 us*4A
$GNRMC,183221.30,A,4805.81644,N,01117.58605,E,0.31,,190422,,,A*56
$GNGGA,183221.30,4805.81644,N,01117.58605,E,1,09,1.38,576.9,M,46.5,M,,*4D
$GNGSA,A,3,27,01,08,14,21,03,,,,,,,2.37,1.38,1.93*12
$GNVTG,,T,,M,0.127,N,0.234,K,A*3C
$SMGPS,-0.1 m,-0.11 m/s,8.10 VRx,0.000 km,1 m,180.0 °,1:-- (  0.0 km/h)*F6
$SMGPS2,-0.13 X,-0.02 Y,+0.99 Z,0 ENL,0 us*4B
$GNRMC,183221.40,A,4805.81644,N,01117.58604,E,0.34,,190422,,,A*55
$GNGGA,183221.40,4805.81644,N,01117.58604,E,1,09,1.38,576.9,M,46.5,M,,*4B
$GNGSA,A,3,27,01,08,14,21,03,,,,,,,2.37,1.38,1.93*12
$GNVTG,,T,,M,0.168,N,0.311,K,A*31
$SMGPS,-0.1 m,-0.13 m/s,8.10 VRx,0.000 km,1 m,180.0 °,1:-- (  0.0 km/h)*F4
$SMGPS2,-0.14 X,-0.02 Y,+0.98 Z,0 ENL,0 us*4D
$GNRMC,183221.50,A,4805.81643,N,01117.58604,E,0.33,,190422,,,A*54
$GNGGA,183221.50,4805.81643,N,01117.58604,E,1,09,1.38,576.8,M,46.5,M,,*4C
$GNGSA,A,3,27,01,08,14,21,03,,,,,,,2.37,1.38,1.93*12
$GNVTG,,T,,M,0.131,N,0.242,K,A*3A
$SMGPS,-0.2 m,-0.14 m/s,8.10 VRx,0.000 km,1 m,180.0 °,1:-- (  0.0 km/h)*F0
$SMGPS2,-0.13 X,-0.02 Y,+0.99 Z,0 ENL,0 us*4B
$GNRMC,183221.60,A,4805.81642,N,01117.58603,E,0.33,,190422,,,A*51
$GNGGA,183221.60,4805.81642,N,01117.58603,E,1,09,1.38,576.8,M,46.5,M,,*49
$GNGSA,A,3,27,01,08,14,21,03,,,,,,,2.37,1.38,1.93*12
$GNVTG,,T,,M,0.016,N,0.030,K,A*39
$SMGPS,-0.2 m,-0.15 m/s,8.10 VRx,0.000 km,1 m,180.0 °,1:-- (  0.0 km/h)*F1
$SMGPS2,-0.14 X,-0.02 Y,+0.98 Z,0 ENL,0 us*4D
$GNRMC,183221.70,A,4805.81642,N,01117.58603,E,0.35,,190422,,,A*56
$GNGGA,183221.70,4805.81642,N,01117.58603,E,1,09,1.38,576.8,M,46.5,M,,*48
$GNGSA,A,3,27,01,08,14,21,03,,,,,,,2.37,1.38,1.93*12
$GNVTG,,T,,M,0.120,N,0.223,K,A*3D
$SMGPS,-0.2 m,-0.16 m/s,8.10 VRx,0.000 km,1 m,180.0 °,1:-- (  0.0 km/h)*F2
$SMGPS2,-0.14 X,-0.02 Y,+0.98 Z,0 ENL,0 us*4D
$GNRMC,183221.80,A,4805.81641,N,01117.58603,E,0.34,,190422,,,A*5B
$GNGGA,183221.80,4805.81641,N,01117.58603,E,1,09,1.38,576.8,M,46.5,M,,*44
$GNGSA,A,3,27,01,08,14,21,03,,,,,,,2.37,1.38,1.93*12
$GNVTG,,T,,M,0.085,N,0.157,K,A*33
$SMGPS,-0.2 m,-0.17 m/s,8.10 VRx,0.000 km,1 m,180.0 °,1:-- (  0.0 km/h)*F3
$SMGPS2,-0.13 X,-0.02 Y,+0.98 Z,0 ENL,0 us*4A
$GNRMC,183221.90,A,4805.81641,N,01117.58603,E,0.34,,190422,,,A*5A
$GNGGA,183221.90,4805.81641,N,01117.58603,E,1,09,1.38,576.9,M,46.5,M,,*44
$GNGSA,A,3,27,01,08,14,21,03,,,,,,,2.37,1.38,1.93*12
$GNVTG,,T,,M,0.107,N,0.199,K,A*3A
$SMGPS,-0.1 m,-0.17 m/s,8.10 VRx,0.000 km,1 m,180.0 °,1:-- (  0.0 km/h)*F0
$SMGPS2,-0.14 X,-0.02 Y,+0.98 Z,0 ENL,0 us*4D
$GNRMC,183222.00,A,4805.81641,N,01117.58605,E,0.30,,190422,,,A*52
$GNGGA,183222.00,4805.81641,N,01117.58605,E,1,09,1.38,576.9,M,46.5,M,,*48
$GNGSA,A,3,27,01,08,14,21,03,,,,,,,2.37,1.38,1.93*12
$GNVTG,,T,,M,0.084,N,0.155,K,A*30
$SMGPS,-0.1 m,-0.17 m/s,8.10 VRx,0.000 km,1 m,180.0 °,1:-- (  0.0 km/h)*F0
$SMGPS2,-0.13 X,-0.01 Y,+0.98 Z,0 ENL,0 us*49
$GNRMC,183222.10,A,4805.81641,N,01117.58605,E,0.28,,190422,,,A*5A
$GNGGA,183222.10,4805.81641,N,01117.58605,E,1,09,1.38,576.9,M,46.5,M,,*49
$GNGSA,A,3,27,01,08,14,21,03,,,,,,,2.37,1.38,1.93*12
$GNVTG,,T,,M,0.161,N,0.299,K,A*39
$SMGPS,-0.1 m,-0.14 m/s,8.10 VRx,0.000 km,1 m,180.0 °,1:-- (  0.0 km/h)*F3
$SMGPS2,-0.14 X,-0.02 Y,+0.98 Z,0 ENL,0 us*4D
$GNRMC,183222.20,A,4805.81640,N,01117.58605,E,0.20,,190422,,,A*50
$GNGGA,183222.20,4805.81640,N,01117.58605,E,1,09,1.38,577.0,M,46.5,M,,*43
$GNGSA,A,3,27,01,08,14,21,03,,,,,,,2.37,1.38,1.93*12
$GNVTG,,T,,M,0.064,N,0.118,K,A*37
$SMGPS,-0.0 m,-0.12 m/s,8.10 VRx,0.000 km,1 m,180.0 °,1:-- (  0.0 km/h)*F4
$SMGPS2,-0.14 X,-0.01 Y,+0.98 Z,0 ENL,0 us*4E
$GNRMC,183222.30,A,4805.81639,N,01117.58605,E,0.24,,190422,,,A*5B
$GNGGA,183222.30,4805.81639,N,01117.58605,E,1,09,1.38,577.0,M,46.5,M,,*4C
$GNGSA,A,3,27,01,08,14,21,03,,,,,,,2.37,1.38,1.93*12
$GNVTG,,T,,M,0.212,N,0.392,K,A*34
$SMGPS,0.0 m,-0.09 m/s,8.10 VRx,0.000 km,1 m,180.0 °,1:-- (  0.0 km/h)*D3
$SMGPS2,-0.13 X,-0.01 Y,+0.98 Z,0 ENL,0 us*49
$GNRMC,183222.40,A,4805.81638,N,01117.58605,E,0.10,,190422,,,A*5A
$GNGGA,183222.40,4805.81638,N,01117.58605,E,1,09,1.38,577.0,M,46.5,M,,*4A
$GNGSA,A,3,27,01,08,14,21,03,,,,,,,2.37,1.38,1.93*12
$GNVTG,,T,,M,0.084,N,0.156,K,A*33
$SMGPS,-0.0 m,-0.06 m/s,8.10 VRx,0.000 km,1 m,180.0 °,1:-- (  0.0 km/h)*F1
$SMGPS2,-0.13 X,-0.02 Y,+0.98 Z,0 ENL,0 us*4A
$GNRMC,183222.50,A,4805.81638,N,01117.58606,E,0.13,,190422,,,A*5B
$GNGGA,183222.50,4805.81638,N,01117.58606,E,1,09,1.38,577.0,M,46.5,M,,*48
$GNGSA,A,3,27,01,08,14,21,03,,,,,,,2.37,1.38,1.93*12
$GNVTG,,T,,M,0.124,N,0.230,K,A*3B
$SMGPS,-0.0 m,-0.03 m/s,8.10 VRx,0.000 km,1 m,180.0 °,1:-- (  0.0 km/h)*F4
$SMGPS2,-0.14 X,-0.02 Y,+0.98 Z,0 ENL,0 us*4D
$GNRMC,183222.60,A,4805.81637,N,01117.58607,E,0.22,,190422,,,A*54
$GNGGA,183222.60,4805.81637,N,01117.58607,E,1,09,1.38,577.0,M,46.5,M,,*45
$GNGSA,A,3,27,01,08,14,21,03,,,,,,,2.37,1.38,1.93*12
$GNVTG,,T,,M,0.221,N,0.409,K,A*31
$SMGPS,-0.0 m,+0.00 m/s,8.10 VRx,0.000 km,1 m,180.0 °,1:-- (  0.0 km/h)*F1
$SMGPS2,-0.13 X,-0.02 Y,+0.98 Z,0 ENL,0 us*4A
$GNRMC,183222.70,A,4805.81636,N,01117.58607,E,0.12,,190422,,,A*57
$GNGGA,183222.70,4805.81636,N,01117.58607,E,1,09,1.38,577.0,M,46.5,M,,*45
$GNGSA,A,3,27,01,08,14,21,03,,,,,,,2.37,1.38,1.93*12
$GNVTG,,T,,M,0.110,N,0.204,K,A*3B
$SMGPS,0.0 m,+0.04 m/s,8.10 VRx,0.000 km,1 m,180.0 °,1:-- (  0.0 km/h)*D8
$SMGPS2,-0.13 X,-0.02 Y,+0.98 Z,0 ENL,0 us*4A
$GNRMC,183222.80,A,4805.81635,N,01117.58608,E,0.19,,190422,,,A*5F
$GNGGA,183222.80,4805.81635,N,01117.58608,E,1,09,1.38,577.1,M,46.5,M,,*47
$GNGSA,A,3,27,01,08,14,21,03,,,,,,,2.37,1.38,1.93*12
$GNVTG,,T,,M,0.171,N,0.317,K,A*3F
$SMGPS,0.1 m,+0.06 m/s,8.10 VRx,0.000 km,1 m,180.0 °,1:-- (  0.0 km/h)*DB
$SMGPS2,-0.14 X,-0.01 Y,+0.98 Z,0 ENL,0 us*4E
$GNRMC,183222.90,A,4805.81634,N,01117.58608,E,0.23,,190422,,,A*56
$GNGGA,183222.90,4805.81634,N,01117.58608,E,1,09,1.38,577.1,M,46.5,M,,*47
$GNGSA,A,3,27,01,08,14,21,03,,,,,,,2.37,1.38,1.93*12
$GNVTG,,T,,M,0.190,N,0.352,K,A*31
$SMGPS,0.1 m,+0.08 m/s,8.10 VRx,0.000 km,1 m,180.0 °,1:-- (  0.0 km/h)*D5
$SMGPS2,-0.13 X,-0.02 Y,+0.98 Z,0 ENL,0 us*4A
$GNRMC,183223.00,A,4805.81633,N,01117.58609,E,0.34,,190422,,,A*5E
$GNGGA,183223.00,4805.81633,N,01117.58609,E,1,09,1.38,577.2,M,46.5,M,,*4A
$GNGSA,A,3,27,01,08,14,21,03,,,,,,,2.37,1.38,1.93*12
$GNVTG,,T,,M,0.305,N,0.566,K,A*3E
$SMGPS,0.2 m,+0.09 m/s,8.10 VRx,0.000 km,1 m,180.0 °,1:-- (  0.0 km/h)*D7
$SMGPS2,-0.14 X,-0.02 Y,+0.98 Z,0 ENL,0 us*4D
$GNRMC,183223.10,A,4805.81632,N,01117.58609,E,0.30,,190422,,,A*5A
$GNGGA,183223.10,4805.81632,N,01117.58609,E,1,09,1.38,577.2,M,46.5,M,,*4A
$GNGSA,A,3,27,01,08,14,21,03,,,,,,,2.37,1.38,1.93*12
$GNVTG,,T,,M,0.240,N,0.445,K,A*3E
$SMGPS,0.2 m,+0.10 m/s,8.10 VRx,0.000 km,1 m,180.0 °,1:-- (  0.0 km/h)*DF
$SMGPS2,-0.13 X,-0.02 Y,+0.98 Z,0 ENL,0 us*4A
$GNRMC,183223.20,A,4805.81632,N,01117.58610,E,0.30,,190422,,,A*51
$GNGGA,183223.20,4805.81632,N,01117.58610,E,1,09,1.38,577.2,M,46.5,M,,*41
$GNGSA,A,3,27,01,08,14,21,03,,,,,,,2.37,1.38,1.93*12
$GNVTG,,T,,M,0.198,N,0.367,K,A*3F
$SMGPS,0.2 m,+0.12 m/s,8.10 VRx,0.000 km,1 m,180.0 °,1:-- (  0.0 km/h)*DD
$SMGPS2,-0.13 X,-0.01 Y,+0.98 Z,0 ENL,0 us*49
$GNRMC,183223.30,A,4805.81630,N,01117.58610,E,0.35,,190422,,,A*57
$GNGGA,183223.30,4805.81630,N,01117.58610,E,1,09,1.38,577.2,M,46.5,M,,*42
$GNGSA,A,3,27,01,08,14,21,03,,,,,,,2.37,1.38,1.93*12
$GNVTG,,T,,M,0.249,N,0.460,K,A*30
$SMGPS,0.2 m,+0.13 m/s,8.10 VRx,0.000 km,1 m,180.0 °,1:-- (  0.0 km/h)*DC
$SMGPS2,-0.13 X,-0.01 Y,+0.98 Z,0 ENL,0 us*49
$GNRMC,183223.40,A,4805.81630,N,01117.58612,E,0.29,,190422,,,A*5F
$GNGGA,183223.40,4805.81630,N,01117.58612,E,1,09,1.38,577.2,M,46.5,M,,*47
$GNGSA,A,3,27,01,08,14,21,03,,,,,,,2.37,1.38,1.93*12
$GNVTG,,T,,M,0.135,N,0.250,K,A*3D
$SMGPS,0.2 m,+0.12 m/s,8.10 VRx,0.000 km,1 m,180.0 °,1:-- (  0.0 km/h)*DD
$SMGPS2,-0.13 X,-0.01 Y,+0.98 Z,0 ENL,0 us*49
$GNRMC,183223.50,A,4805.81630,N,01117.58614,E,0.33,,190422,,,A*53
$GNGGA,183223.50,4805.81630,N,01117.58614,E,1,09,1.38,577.1,M,46.5,M,,*43
$GNGSA,A,3,27,01,08,14,21,03,,,,,,,2.37,1.38,1.93*12
$GNVTG,,T,,M,0.206,N,0.381,K,A*33
$SMGPS,0.1 m,+0.13 m/s,8.10 VRx,0.000 km,1 m,180.0 °,1:-- (  0.0 km/h)*DF
$SMGPS2,-0.14 X,-0.02 Y,+0.98 Z,0 ENL,0 us*4D
$GNRMC,183223.60,A,4805.81630,N,01117.58616,E,0.40,,190422,,,A*56
$GNGGA,183223.60,4805.81630,N,01117.58616,E,1,09,1.38,577.1,M,46.5,M,,*42
$GNGSA,A,3,27,01,08,14,21,03,,,,,,,2.37,1.38,1.93*12
$GNVTG,,T,,M,0.320,N,0.593,K,A*33
$SMGPS,0.1 m,+0.13 m/s,8.10 VRx,0.000 km,1 m,170.5 °,1:-- (  0.0 km/h)*D5
$SMGPS2,-0.14 X,-0.02 Y,+0.98 Z,0 ENL,0 us*4D
$GNRMC,183223.70,A,4805.81630,N,01117.58618,E,0.29,,190422,,,A*56
$GNGGA,183223.70,4805.81630,N,01117.58618,E,1,09,1.38,577.1,M,46.5,M,,*4D
$GNGSA,A,3,27,01,08,14,21,03,,,,,,,2.37,1.38,1.93*12
$GNVTG,,T,,M,0.219,N,0.406,K,A*35
$SMGPS,0.1 m,+0.12 m/s,8.10 VRx,0.000 km,1 m,170.5 °,1:-- (  0.0 km/h)*D4
$SMGPS2,-0.14 X,-0.02 Y,+0.99 Z,0 ENL,0 us*4C
$GNRMC,183223.80,A,4805.81629,N,01117.58620,E,0.24,,190422,,,A*57
$GNGGA,183223.80,4805.81629,N,01117.58620,E,1,09,1.38,577.1,M,46.5,M,,*41
$GNGSA,A,3,27,01,08,14,21,03,,,,,,,2.37,1.38,1.93*12
$GNVTG,,T,,M,0.177,N,0.328,K,A*35
$SMGPS,0.1 m,+0.11 m/s,8.10 VRx,0.000 km,1 m,170.5 °,1:-- (  0.0 km/h)*D7
$SMGPS2,-0.14 X,-0.02 Y,+0.99 Z,0 ENL,0 us*4C
$GNRMC,183223.90,A,4805.81629,N,01117.58622,E,0.25,,190422,,,A*55
$GNGGA,183223.90,4805.81629,N,01117.58622,E,1,09,1.38,577.1,M,46.5,M,,*42
$GNGSA,A,3,27,01,08,14,21,03,,,,,,,2.37,1.38,1.93*12
$GNVTG,,T,,M,0.220,N,0.408,K,A*31
$SMGPS,0.1 m,+0.08 m/s,8.10 VRx,0.000 km,1 m,170.5 °,1:-- (  0.0 km/h)*DF
$SMGPS2,-0.14 X,-0.02 Y,+0.98 Z,0 ENL,0 us*4D
$GNRMC,183224.00,A,4805.81628,N,01117.58623,E,0.17,,190422,,,A*5A
$GNGGA,183224.00,4805.81628,N,01117.58623,E,1,09,1.38,577.0,M,46.5,M,,*4D
$GNGSA,A,3,27,01,08,14,21,03,,,,,,,2.37,1.38,1.93*12
$GNVTG,,T,,M,0.153,N,0.283,K,A*33
$SMGPS,0.0 m,+0.06 m/s,8.10 VRx,0.000 km,1 m,170.5 °,1:-- (  0.0 km/h)*D0
$SMGPS2,-0.14 X,-0.01 Y,+0.98 Z,0 ENL,0 us*4E
$GNRMC,183224.10,A,4805.81628,N,01117.58625,E,0.20,,190422,,,A*59
$GNGGA,183224.10,4805.81628,N,01117.58625,E,1,09,1.38,577.0,M,46.5,M,,*4A
$GNGSA,A,3,27,01,08,14,21,03,,,,,,,2.37,1.38,1.93*12
$GNVTG,,T,,M,0.200,N,0.371,K,A*3A
$SMGPS,0.0 m,+0.04 m/s,8.10 VRx,0.000 km,1 m,170.5 °,1:-- (  0.0 km/h)*D2
$SMGPS2,-0.14 X,-0.01 Y,+0.98 Z,0 ENL,0 us*4E
$GNRMC,183224.20,A,4805.81627,N,01117.58626,E,0.29,,190422,,,A*5F
$GNGGA,183224.20,4805.81627,N,01117.58626,E,1,09,1.38,577.1,M,46.5,M,,*44
$GNGSA,A,3,27,01,08,14,21,03,,,,,,,2.37,1.38,1.93*12
$GNVTG,,T,,M,0.287,N,0.531,K,A*37
$SMGPS,0.1 m,+0.02 m/s,8.10 VRx,0.000 km,1 m,161.5 °,1:-- (  0.0 km/h)*D5
$SMGPS2,-0.15 X,-0.02 Y,+1.05 Z,0 ENL,0 us*49
$GNRMC,183224.30,A,4805.81628,N,01117.58627,E,0.14,,190422,,,A*5E
$GNGGA,183224.30,4805.81628,N,01117.58627,E,1,09,1.38,577.0,M,46.5,M,,*4A
$GNGSA,A,3,27,01,08,14,21,03,,,,,,,2.37,1.38,1.93*12
$GNVTG,,T,,M,0.135,N,0.249,K,A*35
$SMGPS,0.0 m,-0.01 m/s,8.10 VRx,0.000 km,1 m,161.5 °,1:-- (  0.0 km/h)*D1
$SMGPS2,-0.14 X,-0.01 Y,+0.98 Z,0 ENL,0 us*4E
$GNRMC,183224.40,A,4805.81629,N,01117.58628,E,0.18,,190422,,,A*5B
$GNGGA,183224.40,4805.81629,N,01117.58628,E,1,09,1.38,577.1,M,46.5,M,,*42
$GNGSA,A,3,27,01,08,14,21,03,,,,,,,2.37,1.38,1.93*12
$GNVTG,,T,,M,0.175,N,0.324,K,A*3B
$SMGPS,0.1 m,-0.02 m/s,8.10 VRx,0.000 km,1 m,161.5 °,1:-- (  0.0 km/h)*D3
$SMGPS2,-0.14 X,-0.01 Y,+0.98 Z,0 ENL,0 us*4E
$GNRMC,183224.50,A,4805.81629,N,01117.58629,E,0.09,,190422,,,A*5B
$GNGGA,183224.50,4805.81629,N,01117.58629,E,1,09,1.38,577.0,M,46.5,M,,*43
$GNGSA,A,3,27,01,08,14,21,03,,,,,,,2.37,1.38,1.93*12
$GNVTG,,T,,M,0.065,N,0.120,K,A*3D
$SMGPS,-0.0 m,-0.03 m/s,8.10 VRx,0.000 km,1 m,161.5 °,1:-- (  0.0 km/h)*FE
$SMGPS2,-0.14 X,-0.02 Y,+0.99 Z,0 ENL,0 us*4C
$GNRMC,183224.60,A,4805.81628,N,01117.58630,E,0.07,,190422,,,A*5F
$GNGGA,183224.60,4805.81628,N,01117.58630,E,1,09,1.38,577.0,M,46.5,M,,*49
$GNGSA,A,3,27,01,08,14,21,03,,,,,,,2.37,1.38,1.93*12
$GNVTG,,T,,M,0.006,N,0.011,K,A*3B
$SMGPS,0.0 m,-0.02 m/s,8.10 VRx,0.000 km,1 m,161.5 °,1:-- (  0.0 km/h)*D2
$SMGPS2,-0.14 X,-0.02 Y,+0.98 Z,0 ENL,0 us*4D
$GNRMC,183224.70,A,4805.81628,N,01117.58629,E,0.11,,190422,,,A*51
$GNGGA,183224.70,4805.81628,N,01117.58629,E,1,09,1.38,577.1,M,46.5,M,,*41
$GNGSA,A,3,27,01,08,14,21,03,,,,,,,2.37,1.38,1.93*12
$GNVTG,,T,,M,0.090,N,0.167,K,A*34
$SMGPS,0.1 m,-0.02 m/s,8.10 VRx,0.000 km,1 m,161.5 °,1:-- (  0.0 km/h)*D3
$SMGPS2,-0.14 X,-0.02 Y,+0.98 Z,0 ENL,0 us*4D
$GNRMC,183224.80,A,4805.81628,N,01117.58628,E,0.10,,190422,,,A*5E
$GNGGA,183224.80,4805.81628,N,01117.58628,E,1,09,1.38,577.0,M,46.5,M,,*4E
$GNGSA,A,3,27,01,08,14,21,03,,,,,,,2.37,1.38,1.93*12
$GNVTG,,T,,M,0.083,N,0.154,K,A*36
$SMGPS,0.0 m,-0.01 m/s,8.10 VRx,0.000 km,1 m,161.5 °,1:-- (  0.0 km/h)*D1
$SMGPS2,-0.13 X,-0.02 Y,+0.98 Z,0 ENL,0 us*4A
$GNRMC,183224.90,A,4805.81628,N,01117.58628,E,0.14,,190422,,,A*5B
$GNGGA,183224.90,4805.81628,N,01117.58628,E,1,09,1.38,577.1,M,46.5,M,,*4E
$GNGSA,A,3,27,01,08,14,21,03,,,,,,,2.37,1.38,1.93*12
$GNVTG,,T,,M,0.129,N,0.239,K,A*3F
$SMGPS,0.1 m,-0.01 m/s,8.10 VRx,0.000 km,1 m,161.5 °,1:-- (  0.0 km/h)*D0
$SMGPS2,-0.14 X,-0.02 Y,+0.98 Z,0 ENL,0 us*4D
$GNRMC,183225.00,A,4805.81628,N,01117.58628,E,0.06,,190422,,,A*50
$GNGGA,183225.00,4805.81628,N,01117.58628,E,1,09,1.38,577.0,M,46.5,M,,*47
$GNGSA,A,3,27,01,08,14,21,03,,,,,,,2.37,1.38,1.93*12
$GNVTG,,T,,M,0.045,N,0.083,K,A*37
$SMGPS,0.0 m,-0.01 m/s,8.10 VRx,0.000 km,1 m,161.5 °,1:-- (  0.0 km/h)*D1
$SMGPS2,-0.14 X,-0.02 Y,+0.99 Z,0 ENL,0 us*4C
$GNRMC,183225.10,A,4805.81628,N,01117.58630,E,0.21,,190422,,,A*5D
$GNGGA,183225.10,4805.81628,N,01117.58630,E,1,09,1.38,577.0,M,46.5,M,,*4F
$GNGSA,A,3,27,01,08,14,21,03,,,,,,,2.37,1.38,1.93*12
$GNVTG,,T,,M,0.205,N,0.379,K,A*37
$SMGPS,0.0 m,-0.00 m/s,8.10 VRx,0.000 km,1 m,161.5 °,1:-- (  0.0 km/h)*D0
$SMGPS2,-0.14 X,-0.02 Y,+0.99 Z,0 ENL,0 us*4C
$GNRMC,183225.20,A,4805.81628,N,01117.58629,E,0.08,,190422,,,A*5D
$GNGGA,183225.20,4805.81628,N,01117.58629,E,1,09,1.38,577.0,M,46.5,M,,*44
$GNGSA,A,3,27,01,08,14,21,03,,,,,,,2.37,1.38,1.93*12
$GNVTG,,T,,M,0.076,N,0.141,K,A*38
$SMGPS,0.0 m,-0.00 m/s,8.10 VRx,0.000 km,1 m,161.5 °,1:-- (  0.0 km/h)*D0
$SMGPS2,-0.14 X,-0.02 Y,+0.98 Z,0 ENL,0 us*4D
$GNRMC,183225.30,A,4805.81627,N,01117.58629,E,0.11,,190422,,,A*5B
$GNGGA,183225.30,4805.81627,N,01117.58629,E,1,09,1.38,577.0,M,46.5,M,,*4A
$GNGSA,A,3,27,01,08,14,21,03,,,,,,,2.37,1.38,1.93*12
$GNVTG,,T,,M,0.107,N,0.197,K,A*34
$SMGPS,0.0 m,-0.00 m/s,8.10 VRx,0.000 km,1 m,161.5 °,1:-- (  0.0 km/h)*D0
$SMGPS2,-0.13 X,-0.01 Y,+0.99 Z,0 ENL,0 us*48
$GNRMC,183225.40,A,4805.81627,N,01117.58629,E,0.20,,190422,,,A*5E
$GNGGA,183225.40,4805.81627,N,01117.58629,E,1,09,1.38,577.0,M,46.5,M,,*4D
$GNGSA,A,3,27,01,08,14,21,03,,,,,,,2.37,1.38,1.93*12
$GNVTG,,T,,M,0.196,N,0.363,K,A*35
$SMGPS,0.0 m,-0.01 m/s,8.10 VRx,0.000 km,1 m,161.5 °,1:-- (  0.0 km/h)*D1
$SMGPS2,-0.13 X,-0.02 Y,+0.99 Z,0 ENL,0 us*4B
$GNRMC,183225.50,A,4805.81627,N,01117.58629,E,0.18,,190422,,,A*54
$GNGGA,183225.50,4805.81627,N,01117.58629,E,1,09,1.38,577.0,M,46.5,M,,*4C
$GNGSA,A,3,27,01,08,14,21,03,,,,,,,2.37,1.38,1.93*12
$GNVTG,,T,,M,0.174,N,0.322,K,A*3C
$SMGPS,0.0 m,-0.00 m/s,8.10 VRx,0.000 km,1 m,161.5 °,1:-- (  0.0 km/h)*D0
$SMGPS2,-0.14 X,-0.02 Y,+0.98 Z,0 ENL,0 us*4D
$GNRMC,183225.60,A,4805.81627,N,01117.58630,E,0.18,,190422,,,A*5F
$GNGGA,183225.60,4805.81627,N,01117.58630,E,1,09,1.38,577.0,M,46.5,M,,*47
$GNGSA,A,3,27,01,08,14,21,03,,,,,,,2.37,1.38,1.93*12
$GNVTG,,T,,M,0.176,N,0.326,K,A*3A
$SMGPS,-0.0 m,-0.01 m/s,8.10 VRx,0.000 km,1 m,161.5 °,1:-- (  0.0 km/h)*FC
$SMGPS2,-0.14 X,-0.02 Y,+0.98 Z,0 ENL,0 us*4D
$GNRMC,183225.70,A,4805.81627,N,01117.58631,E,0.04,,190422,,,A*52
$GNGGA,183225.70,4805.81627,N,01117.58631,E,1,09,1.38,577.0,M,46.5,M,,*47
$GNGSA,A,3,27,01,08,14,21,03,,,,,,,2.37,1.38,1.93*12
$GNVTG,,T,,M,0.007,N,0.013,K,A*38
$SMGPS,-0.0 m,-0.01 m/s,8.10 VRx,0.000 km,1 m,161.5 °,1:-- (  0.0 km/h)*FC
$SMGPS2,-0.14 X,-0.02 Y,+0.99 Z,0 ENL,0 us*4C
$GNRMC,183225.80,A,4805.81627,N,01117.58632,E,0.13,,190422,,,A*58
$GNGGA,183225.80,4805.81627,N,01117.58632,E,1,09,1.38,577.0,M,46.5,M,,*4B
$GNGSA,A,3,27,01,08,14,21,03,,,,,,,2.37,1.38,1.93*12
$GNVTG,,T,,M,0.119,N,0.220,K,A*34
$SMGPS,-0.0 m,-0.00 m/s,8.10 VRx,0.000 km,1 m,161.5 °,1:-- (  0.0 km/h)*FD
$SMGPS2,-0.14 X,-0.02 Y,+0.99 Z,0 ENL,0 us*4C
$GNRMC,183225.90,A,4805.81628,N,01117.58634,E,0.15,,190422,,,A*56
$GNGGA,183225.90,4805.81628,N,01117.58634,E,1,09,1.38,577.0,M,46.5,M,,*43
$GNGSA,A,3,27,01,08,14,21,03,,,,,,,2.37,1.38,1.93*12
$GNVTG,,T,,M,0.147,N,0.273,K,A*39
$SMGPS,0.0 m,-0.00 m/s,8.10 VRx,0.000 km,1 m,161.5 °,1:-- (  0.0 km/h)*D0
$SMGPS2,-0.13 X,-0.02 Y,+0.98 Z,0 ENL,0 us*4A
$GNRMC,183226.00,A,4805.81628,N,01117.58635,E,0.04,,190422,,,A*5D
$GNGGA,183226.00,4805.81628,N,01117.58635,E,1,09,1.38,577.0,M,46.5,M,,*48
$GNGSA,A,3,27,01,08,14,21,03,,,,,,,2.37,1.38,1.93*12
$GNVTG,,T,,M,0.034,N,0.062,K,A*3E
$SMGPS,0.0 m,+0.01 m/s,8.10 VRx,0.000 km,1 m,161.5 °,1:-- (  0.0 km/h)*D7
$SMGPS2,-0.13 X,-0.01 Y,+0.98 Z,0 ENL,0 us*49
$GNRMC,183226.10,A,4805.81628,N,01117.58636,E,0.25,,190422,,,A*5C
$GNGGA,183226.10,4805.81628,N,01117.58636,E,1,09,1.38,577.1,M,46.5,M,,*4B
$GNGSA,A,3,27,01,08,14,21,03,,,,,,,2.37,1.38,1.93*12
$GNVTG,,T,,M,0.247,N,0.457,K,A*3A
$SMGPS,0.1 m,+0.01 m/s,8.10 VRx,0.000 km,1 m,161.5 °,1:-- (  0.0 km/h)*D6
$SMGPS2,-0.14 X,-0.02 Y,+0.98 Z,0 ENL,0 us*4D
$GNRMC,183226.20,A,4805.81628,N,01117.58636,E,0.19,,190422,,,A*50
$GNGGA,183226.20,4805.81628,N,01117.58636,E,1,09,1.38,577.0,M,46.5,M,,*49
$GNGSA,A,3,27,01,08,14,21,03,,,,,,,2.37,1.38,1.93*12
$GNVTG,,T,,M,0.188,N,0.348,K,A*33
$SMGPS,0.0 m,+0.02 m/s,8.10 VRx,0.000 km,1 m,161.5 °,1:-- (  0.0 km/h)*D4
$SMGPS2,-0.14 X,-0.02 Y,+0.98 Z,0 ENL,0 us*4D
$GNRMC,183226.30,A,4805.81628,N,01117.58637,E,0.08,,190422,,,A*50
$GNGGA,183226.30,4805.81628,N,01117.58637,E,1,09,1.38,577.1,M,46.5,M,,*48
$GNGSA,A,3,27,01,08,14,21,03,,,,,,,2.37,1.38,1.92*13
$GNVTG,,T,,M,0.058,N,0.108,K,A*39
$SMGPS,0.1 m,+0.03 m/s,8.10 VRx,0.000 km,1 m,161.5 °,1:-- (  0.0 km/h)*D4
$SMGPS2,-0.13 X,-0.01 Y,+0.98 Z,0 ENL,0 us*49
$GNRMC,183226.40,A,4805.81628,N,01117.58638,E,0.32,,190422,,,A*51
$GNGGA,183226.40,4805.81628,N,01117.58638,E,1,09,1.38,577.0,M,46.5,M,,*41
$GNGSA,A,3,27,01,08,14,21,03,,,,,,,2.37,1.38,1.92*13
$GNVTG,,T,,M,0.314,N,0.581,K,A*37
$SMGPS,0.0 m,+0.04 m/s,8.10 VRx,0.000 km,1 m,153.4 °,1:-- (  0.0 km/h)*D2
$SMGPS2,-0.13 X,-0.02 Y,+0.98 Z,0 ENL,0 us*4A
$GNRMC,183226.50,A,4805.81628,N,01117.58638,E,0.13,,190422,,,A*53
$GNGGA,183226.50,4805.81628,N,01117.58638,E,1,09,1.38,577.0,M,46.5,M,,*40
$GNGSA,A,3,27,01,08,14,21,03,,,,,,,2.37,1.38,1.92*13
$GNVTG,,T,,M,0.093,N,0.173,K,A*32
$SMGPS,0.0 m,+0.05 m/s,8.10 VRx,0.000 km,1 m,153.4 °,1:-- (  0.0 km/h)*D3
$SMGPS2,-0.13 X,-0.02 Y,+0.99 Z,0 ENL,0 us*4B
$GNRMC,183226.60,A,4805.81628,N,01117.58639,E,0.15,,190422,,,A*57
$GNGGA,183226.60,4805.81628,N,01117.58639,E,1,09,1.38,577.0,M,46.5,M,,*42
$GNGSA,A,3,27,01,08,14,21,03,,,,,,,2.37,1.38,1.92*13
$GNVTG,,T,,M,0.091,N,0.169,K,A*3B
$SMGPS,0.0 m,+0.05 m/s,8.10 VRx,0.000 km,1 m,153.4 °,1:-- (  0.0 km/h)*D3
$SMGPS2,-0.14 X,-0.02 Y,+0.98 Z,0 ENL,0 us*4D
$GNRMC,183226.70,A,4805.81628,N,01117.58640,E,0.18,,190422,,,A*55
$GNGGA,183226.70,4805.81628,N,01117.58640,E,1,09,1.38,577.0,M,46.5,M,,*4D
$GNGSA,A,3,27,01,08,14,21,03,,,,,,,2.37,1.38,1.92*13
$GNVTG,,T,,M,0.138,N,0.256,K,A*36
$SMGPS,0.0 m,+0.06 m/s,8.10 VRx,0.000 km,1 m,153.4 °,1:-- (  0.0 km/h)*D0
$SMGPS2,-0.13 X,-0.02 Y,+0.98 Z,0 ENL,0 us*4A
$GNRMC,183226.80,A,4805.81628,N,01117.58640,E,0.29,,190422,,,A*58
$GNGGA,183226.80,4805.81628,N,01117.58640,E,1,09,1.38,577.0,M,46.5,M,,*42
$GNGSA,A,3,27,01,08,14,21,03,,,,,,,2.37,1.38,1.92*13
$GNVTG,,T,,M,0.263,N,0.487,K,A*31
$SMGPS,0.0 m,+0.06 m/s,8.10 VRx,0.000 km,1 m,153.4 °,1:-- (  0.0 km/h)*D0
$SMGPS2,-0.14 X,-0.02 Y,+0.98 Z,0 ENL,0 us*4D
$GNRMC,183226.90,A,4805.81627,N,01117.58641,E,0.13,,190422,,,A*5E
$GNGGA,183226.90,4805.81627,N,01117.58641,E,1,09,1.38,577.1,M,46.5,M,,*4C
$GNGSA,A,3,27,01,08,14,21,03,,,,,,,2.37,1.38,1.92*13
$GNVTG,,T,,M,0.060,N,0.112,K,A*39
$SMGPS,0.1 m,+0.06 m/s,8.10 VRx,0.000 km,1 m,153.4 °,1:-- (  0.0 km/h)*D1
$SMGPS2,-0.14 X,-0.02 Y,+0.99 Z,0 ENL,0 us*4C
$GNRMC,183227.00,A,4805.81627,N,01117.58641,E,0.12,,190422,,,A*57
$GNGGA,183227.00,4805.81627,N,01117.58641,E,1,09,1.38,577.0,M,46.5,M,,*45
$GNGSA,A,3,27,01,08,14,21,03,,,,,,,2.37,1.38,1.92*13
$GNVTG,,T,,M,0.059,N,0.109,K,A*39
$SMGPS,-0.0 m,+0.06 m/s,8.10 VRx,0.000 km,1 m,153.4 °,1:-- (  0.0 km/h)*FD
$SMGPS2,-0.14 X,-0.02 Y,+0.98 Z,0 ENL,0 us*4D
$GNRMC,183227.10,A,4805.81627,N,01117.58641,E,0.23,,190422,,,A*54
$GNGGA,183227.10,4805.81627,N,01117.58641,E,1,09,1.38,577.0,M,46.5,M,,*44
$GNGSA,A,3,27,01,08,14,21,03,,,,,,,2.37,1.38,1.92*13
$GNVTG,,T,,M,0.211,N,0.391,K,A*34
$SMGPS,-0.0 m,+0.06 m/s,8.10 VRx,0.000 km,1 m,153.4 °,1:-- (  0.0 km/h)*FD
$SMGPS2,-0.14 X,-0.02 Y,+0.98 Z,0 ENL,0 us*4D
$GNRMC,183227.20,A,4805.81627,N,01117.58642,E,0.10,,190422,,,A*54
$GNGGA,183227.20,4805.81627,N,01117.58642,E,1,09,1.38,577.0,M,46.5,M,,*44
$GNGSA,A,3,27,01,08,14,21,03,,,,,,,2.37,1.38,1.92*13
$GNVTG,,T,,M,0.033,N,0.061,K,A*3A
$SMGPS,0.0 m,+0.05 m/s,8.10 VRx,0.000 km,1 m,153.4 °,1:-- (  0.0 km/h)*D3
$SMGPS2,-0.14 X,-0.02 Y,+0.99 Z,0 ENL,0 us*4C
$GNRMC,183227.30,A,4805.81626,N,01117.58642,E,0.19,,190422,,,A*5D
$GNGGA,183227.30,4805.81626,N,01117.58642,E,1,09,1.38,577.0,M,46.5,M,,*44
$GNGSA,A,3,27,01,08,14,21,03,,,,,,,2.37,1.38,1.92*13
$GNVTG,,T,,M,0.165,N,0.306,K,A*3A
$SMGPS,0.0 m,+0.05 m/s,8.10 VRx,0.000 km,1 m,153.4 °,1:-- (  0.0 km/h)*D3
$SMGPS2,-0.14 X,-0.02 Y,+0.99 Z,0 ENL,0 us*4C
$GNRMC,183227.40,A,4805.81626,N,01117.58642,E,0.17,,190422,,,A*54
$GNGGA,183227.40,4805.81626,N,01117.58642,E,1,09,1.38,577.0,M,46.5,M,,*43
$GNGSA,A,3,27,01,08,14,21,03,,,,,,,2.37,1.38,1.92*13
$GNVTG,,T,,M,0.158,N,0.293,K,A*39
$SMGPS,0.0 m,+0.04 m/s,8.10 VRx,0.000 km,1 m,153.4 °,1:-- (  0.0 km/h)*D2
$SMGPS2,-0.13 X,-0.02 Y,+0.98 Z,0 ENL,0 us*4A
$GNRMC,183227.50,A,4805.81625,N,01117.58642,E,0.17,,190422,,,A*56
$GNGGA,183227.50,4805.81625,N,01117.58642,E,1,09,1.38,577.0,M,46.5,M,,*41
$GNGSA,A,3,27,01,08,14,21,03,,,,,,,2.37,1.38,1.92*13
$GNVTG,,T,,M,0.163,N,0.301,K,A*3B
$SMGPS,0.0 m,+0.03 m/s,8.10 VRx,0.000 km,1 m,153.4 °,1:-- (  0.0 km/h)*D5
$SMGPS2,-0.14 X,-0.02 Y,+0.99 Z,0 ENL,0 us*4C
$GNRMC,183227.60,A,4805.81624,N,01117.58642,E,0.18,,190422,,,A*5B
$GNGGA,183227.60,4805.81624,N,01117.58642,E,1,09,1.38,577.0,M,46.5,M,,*43
$GNGSA,A,3,27,01,08,14,21,03,,,,,,,2.37,1.38,1.92*13
$GNVTG,,T,,M,0.172,N,0.318,K,A*33
$SMGPS,0.0 m,+0.03 m/s,8.10 VRx,0.000 km,1 m,153.4 °,1:-- (  0.0 km/h)*D5
$SMGPS2,-0.14 X,-0.01 Y,+0.98 Z,0 ENL,0 us*4E
$GNRMC,183227.70,A,4805.81624,N,01117.58642,E,0.21,,190422,,,A*50
$GNGGA,183227.70,4805.81624,N,01117.58642,E,1,09,1.38,577.0,M,46.5,M,,*42
$GNGSA,A,3,27,01,08,14,21,03,,,,,,,2.37,1.38,1.92*13
$GNVTG,,T,,M,0.204,N,0.378,K,A*37
$SMGPS,-0.0 m,+0.02 m/s,8.10 VRx,0.000 km,1 m,153.4 °,1:-- (  0.0 km/h)*F9
$SMGPS2,-0.13 X,-0.01 Y,+0.99 Z,0 ENL,0 us*48
$GNRMC,183227.80,A,4805.81623,N,01117.58642,E,0.14,,190422,,,A*5E
$GNGGA,183227.80,4805.81623,N,01117.58642,E,1,09,1.38,577.0,M,46.5,M,,*4A
$GNGSA,A,3,27,01,08,14,21,03,,,,,,,2.37,1.38,1.92*13
$GNVTG,,T,,M,0.135,N,0.250,K,A*3D
$SMGPS,-0.0 m,+0.01 m/s,8.10 VRx,0.000 km,1 m,153.4 °,1:-- (  0.0 km/h)*FA
$SMGPS2,-0.14 X,-0.02 Y,+0.98 Z,0 ENL,0 us*4D
$GNRMC,183227.90,A,4805.81624,N,01117.58642,E,0.07,,190422,,,A*5A
$GNGGA,183227.90,4805.81624,N,01117.58642,E,1,09,1.38,577.0,M,46.5,M,,*4C
$GNGSA,A,3,27,01,08,14,21,03,,,,,,,2.37,1.38,1.92*13
$GNVTG,,T,,M,0.066,N,0.122,K,A*3C
$SMGPS,-0.0 m,+0.01 m/s,8.10 VRx,0.000 km,1 m,153.4 °,1:-- (  0.0 km/h)*FA
$SMGPS2,-0.13 X,-0.02 Y,+0.98 Z,0 ENL,0 us*4A
$GNRMC,183228.00,A,4805.81624,N,01117.58642,E,0.20,,190422,,,A*59
$GNGGA,183228.00,4805.81624,N,01117.58642,E,1,09,1.38,577.0,M,46.5,M,,*4A
$GNGSA,A,3,27,01,08,14,21,03,,,,,,,2.37,1.38,1.92*13
$GNVTG,,T,,M,0.198,N,0.366,K,A*3E
$SMGPS,0.0 m,+0.01 m/s,8.10 VRx,0.000 km,1 m,153.4 °,1:-- (  0.0 km/h)*D7
$SMGPS2,-0.13 X,-0.02 Y,+0.98 Z,0 ENL,0 us*4A
$GNRMC,183228.10,A,4805.81624,N,01117.58642,E,0.22,,190422,,,A*5A
$GNGGA,183228.10,4805.81624,N,01117.58642,E,1,09,1.38,577.0,M,46.5,M,,*4B
$GNGSA,A,3,27,01,08,14,21,03,,,,,,,2.37,1.38,1.92*13
$GNVTG,,T,,M,0.217,N,0.402,K,A*3F
$SMGPS,0.0 m,+0.01 m/s,8.10 VRx,0.000 km,1 m,153.4 °,1:-- (  0.0 km/h)*D7
$SMGPS2,-0.13 X,-0.02 Y,+0.98 Z,0 ENL,0 us*4A
$GNRMC,183228.20,A,4805.81624,N,01117.58643,E,0.06,,190422,,,A*5E
$GNGGA,183228.20,4805.81624,N,01117.58643,E,1,09,1.38,576.9,M,46.5,M,,*41
$GNGSA,A,3,27,01,08,14,21,03,,,,,,,2.37,1.38,1.92*13
$GNVTG,,T,,M,0.060,N,0.110,K,A*3B
$SMGPS,-0.1 m,+0.01 m/s,8.10 VRx,0.000 km,1 m,153.4 °,1:-- (  0.0 km/h)*FB
$SMGPS2,-0.13 X,-0.02 Y,+0.98 Z,0 ENL,0 us*4A
$GNRMC,183228.30,A,4805.81623,N,01117.58644,E,0.20,,190422,,,A*5B
$GNGGA,183228.30,4805.81623,N,01117.58644,E,1,09,1.38,576.9,M,46.5,M,,*40
$GNGSA,A,3,27,01,08,14,21,03,,,,,,,2.37,1.38,1.92*13
$GNVTG,,T,,M,0.203,N,0.376,K,A*3E
$SMGPS,-0.1 m,+0.01 m/s,8.10 VRx,0.000 km,1 m,153.4 °,1:-- (  0.0 km/h)*FB
$SMGPS2,-0.13 X,-0.02 Y,+0.99 Z,0 ENL,0 us*4B
$GNRMC,183228.40,A,4805.81623,N,01117.58643,E,0.05,,190422,,,A*5C
$GNGGA,183228.40,4805.81623,N,01117.58643,E,1,09,1.38,576.9,M,46.5,M,,*40
$GNGSA,A,3,27,01,08,14,21,03,,,,,,,2.37,1.38,1.92*13
$GNVTG,,T,,M,0.045,N,0.083,K,A*37
$SMGPS,-0.1 m,+0.01 m/s,8.10 VRx,0.000 km,1 m,153.4 °,1:-- (  0.0 km/h)*FB
$SMGPS2,-0.14 X,-0.02 Y,+0.98 Z,0 ENL,0 us*4D
$GNRMC,183228.50,A,4805.81622,N,01117.58643,E,0.17,,190422,,,A*5F
$GNGGA,183228.50,4805.81622,N,01117.58643,E,1,09,1.38,577.0,M,46.5,M,,*48
$GNGSA,A,3,27,01,08,14,21,03,,,,,,,2.37,1.38,1.92*13
$GNVTG,,T,,M,0.168,N,0.311,K,A*31
$SMGPS,-0.0 m,+0.01 m/s,8.10 VRx,0.000 km,1 m,153.4 °,1:-- (  0.0 km/h)*FA
$SMGPS2,-0.13 X,-0.02 Y,+0.98 Z,0 ENL,0 us*4A
$GNRMC,183228.60,A,4805.81621,N,01117.58642,E,0.15,,190422,,,A*5C
$GNGGA,183228.60,4805.81621,N,01117.58642,E,1,09,1.38,577.0,M,46.5,M,,*49
$GNGSA,A,3,27,01,08,14,21,03,,,,,,,2.37,1.38,1.92*13
$GNVTG,,T,,M,0.145,N,0.269,K,A*30
$SMGPS,-0.0 m,+0.01 m/s,8.10 VRx,0.000 km,1 m,153.4 °,1:-- (  0.0 km/h)*FA
$SMGPS2,-0.14 X,-0.01 Y,+0.98 Z,0 ENL,0 us*4E
$GNRMC,183228.70,A,4805.81621,N,01117.58642,E,0.18,,190422,,,A*50
$GNGGA,183228.70,4805.81621,N,01117.58642,E,1,09,1.38,576.9,M,46.5,M,,*40
$GNGSA,A,3,27,01,08,14,21,03,,,,,,,2.37,1.38,1.92*13
$GNVTG,,T,,M,0.168,N,0.311,K,A*31
$SMGPS,-0.1 m,-0.00 m/s,8.10 VRx,0.000 km,1 m,153.4 °,1:-- (  0.0 km/h)*FC
$SMGPS2,-0.14 X,-0.01 Y,+0.99 Z,0 ENL,0 us*4F
$GNRMC,183228.80,A,4805.81621,N,01117.58642,E,0.10,,190422,,,A*57
$GNGGA,183228.80,4805.81621,N,01117.58642,E,1,09,1.38,577.0,M,46.5,M,,*47
$GNGSA,A,3,27,01,08,14,21,03,,,,,,,2.37,1.38,1.92*13
$GNVTG,,T,,M,0.063,N,0.116,K,A*3E
$SMGPS,-0.0 m,-0.01 m/s,8.10 VRx,0.000 km,1 m,153.4 °,1:-- (  0.0 km/h)*FC
$SMGPS2,-0.13 X,-0.02 Y,+0.98 Z,0 ENL,0 us*4A
$GNRMC,183228.90,A,4805.81621,N,01117.58641,E,0.21,,190422,,,A*57
$GNGGA,183228.90,4805.81621,N,01117.58641,E,1,09,1.38,577.0,M,46.5,M,,*45
$GNGSA,A,3,27,01,08,14,21,03,,,,,,,2.37,1.38,1.92*13
$GNVTG,,T,,M,0.199,N,0.368,K,A*31
$SMGPS,-0.0 m,-0.02 m/s,8.10 VRx,0.000 km,1 m,153.4 °,1:-- (  0.0 km/h)*FF
$SMGPS2,-0.14 X,-0.02 Y,+0.98 Z,0 ENL,0 us*4D
$GNRMC,183229.00,A,4805.81621,N,01117.58642,E,0.15,,190422,,,A*5B
$GNGGA,183229.00,4805.81621,N,01117.58642,E,1,09,1.38,577.0,M,46.5,M,,*4E
$GNGSA,A,3,27,01,08,14,21,03,,,,,,,2.37,1.38,1.92*13
$GNVTG,,T,,M,0.132,N,0.245,K,A*3E
$SMGPS,-0.0 m,-0.02 m/s,8.10 VRx,0.000 km,1 m,153.4 °,1:-- (  0.0 km/h)*FF
$SMGPS2,-0.13 X,-0.02 Y,+0.99 Z,0 ENL,0 us*4B
$GNRMC,183229.10,A,4805.81621,N,01117.58643,E,0.16,,190422,,,A*58
$GNGGA,183229.10,4805.81621,N,01117.58643,E,1,09,1.38,577.1,M,46.5,M,,*4F
$GNGSA,A,3,27,01,08,14,21,03,,,,,,,2.37,1.38,1.92*13
$GNVTG,,T,,M,0.140,N,0.260,K,A*3C
$SMGPS,0.1 m,-0.02 m/s,8.10 VRx,0.000 km,1 m,153.4 °,1:-- (  0.0 km/h)*D3
$SMGPS2,-0.13 X,-0.01 Y,+0.99 Z,0 ENL,0 us*48
$GNRMC,183229.20,A,4805.81621,N,01117.58644,E,0.14,,190422,,,A*5E
$GNGGA,183229.20,4805.81621,N,01117.58644,E,1,09,1.38,577.0,M,46.5,M,,*4A
$GNGSA,A,3,27,01,08,14,21,03,,,,,,,2.37,1.38,1.92*13
$GNVTG,,T,,M,0.128,N,0.237,K,A*30
$SMGPS,0.0 m,-0.02 m/s,8.10 VRx,0.000 km,1 m,153.4 °,1:-- (  0.0 km/h)*D2
$SMGPS2,-0.14 X,-0.02 Y,+0.98 Z,0 ENL,0 us*4D
$GNRMC,183229.30,A,4805.81621,N,01117.58644,E,0.15,,190422,,,A*5E
$GNGGA,183229.30,4805.81621,N,01117.58644,E,1,09,1.38,577.0,M,46.5,M,,*4B
$GNGSA,A,3,27,01,08,14,21,03,,,,,,,2.37,1.38,1.92*13
$GNVTG,,T,,M,0.147,N,0.272,K,A*38
$SMGPS,0.0 m,-0.01 m/s,8.10 VRx,0.000 km,1 m,153.4 °,1:-- (  0.0 km/h)*D1
$SMGPS2,-0.14 X,-0.02 Y,+0.99 Z,0 ENL,0 us*4C
$GNRMC,183229.40,A,4805.81620,N,01117.58644,E,0.16,,190422,,,A*5B
$GNGGA,183229.40,4805.81620,N,01117.58644,E,1,09,1.38,577.0,M,46.5,M,,*4D
$GNGSA,A,3,27,01,08,14,21,03,,,,,,,2.37,1.38,1.92*13
$GNVTG,,T,,M,0.164,N,0.304,K,A*39
$SMGPS,0.0 m,-0.01 m/s,8.10 VRx,0.000 km,1 m,153.4 °,1:-- (  0.0 km/h)*D1
$SMGPS2,-0.13 X,-0.02 Y,+0.98 Z,0 ENL,0 us*4A
$GNRMC,183229.50,A,4805.81620,N,01117.58644,E,0.19,,190422,,,A*55
$GNGGA,183229.50,4805.81620,N,01117.58644,E,1,09,1.38,577.0,M,46.5,M,,*4C
$GNGSA,A,3,27,01,08,14,21,03,,,,,,,2.37,1.38,1.92*13
$GNVTG,,T,,M,0.191,N,0.354,K,A*36
$SMGPS,0.0 m,-0.00 m/s,8.10 VRx,0.000 km,1 m,153.4 °,1:-- (  0.0 km/h)*D0
$SMGPS2,-0.13 X,-0.01 Y,+0.99 Z,0 ENL,0 us*48
$GNRMC,183229.60,A,4805.81620,N,01117.58644,E,0.17,,190422,,,A*58
$GNGGA,183229.60,4805.81620,N,01117.58644,E,1,09,1.38,577.0,M,46.5,M,,*4F
$GNGSA,A,3,27,01,08,14,21,03,,,,,,,2.37,1.38,1.92*13
$GNVTG,,T,,M,0.170,N,0.315,K,A*3C
$SMGPS,-0.0 m,+0.02 m/s,8.10 VRx,0.000 km,1 m,153.4 °,1:-- (  0.0 km/h)*F9
$SMGPS2,-0.14 X,-0.02 Y,+0.98 Z,0 ENL,0 us*4D
$GNRMC,183229.70,A,4805.81620,N,01117.58644,E,0.13,,190422,,,A*5D
$GNGGA,183229.70,4805.81620,N,01117.58644,E,1,09,1.38,577.1,M,46.5,M,,*4F
$GNGSA,A,3,27,01,08,14,21,03,,,,,,,2.37,1.38,1.92*13
$GNVTG,,T,,M,0.120,N,0.222,K,A*3C
$SMGPS,0.1 m,+0.02 m/s,8.10 VRx,0.000 km,1 m,153.4 °,1:-- (  0.0 km/h)*D5
$SMGPS2,-0.14 X,-0.02 Y,+0.98 Z,0 ENL,0 us*4D
$GNRMC,183229.80,A,4805.81620,N,01117.58644,E,0.18,,190422,,,A*59
$GNGGA,183229.80,4805.81620,N,01117.58644,E,1,09,1.38,577.0,M,46.5,M,,*41
$GNGSA,A,3,27,01,08,14,21,03,,,,,,,2.37,1.38,1.92*13
$GNVTG,,T,,M,0.173,N,0.321,K,A*38
$SMGPS,0.0 m,+0.03 m/s,8.10 VRx,0.000 km,1 m,153.4 °,1:-- (  0.0 km/h)*D5
$SMGPS2,-0.13 X,-0.02 Y,+0.98 Z,0 ENL,0 us*4A
$GNRMC,183229.90,A,4805.81620,N,01117.58644,E,0.15,,190422,,,A*55
$GNGGA,183229.90,4805.81620,N,01117.58644,E,1,09,1.38,577.0,M,46.5,M,,*40
$GNGSA,A,3,27,01,08,14,21,03,,,,,,,2.37,1.38,1.92*13
$GNVTG,,T,,M,0.143,N,0.265,K,A*3A
$SMGPS,-0.0 m,+0.03 m/s,8.10 VRx,0.000 km,1 m,153.4 °,1:-- (  0.0 km/h)*F8
$SMGPS2,-0.14 X,-0.02 Y,+0.98 Z,0 ENL,0 us*4D
$GNRMC,183230.00,A,4805.81620,N,01117.58645,E,0.11,,190422,,,A*51
$GNGGA,183230.00,4805.81620,N,01117.58645,E,1,09,1.38,577.0,M,46.5,M,,*40
$GNGSA,A,3,27,01,08,14,21,03,,,,,,,2.37,1.38,1.92*13
$GNVTG,,T,,M,0.099,N,0.184,K,A*30
$SMGPS,-0.0 m,+0.03 m/s,8.10 VRx,0.000 km,1 m,153.4 °,1:-- (  0.0 km/h)*F8
$SMGPS2,-0.13 X,-0.02 Y,+0.98 Z,0 ENL,0 us*4A
$GNRMC,183230.10,A,4805.81620,N,01117.58645,E,0.08,,190422,,,A*58
$GNGGA,183230.10,4805.81620,N,01117.58645,E,1,09,1.38,577.0,M,46.5,M,,*41
$GNGSA,A,3,27,01,08,14,21,03,,,,,,,2.37,1.38,1.92*13
$GNVTG,,T,,M,0.067,N,0.124,K,A*3B
$SMGPS,-0.0 m,+0.02 m/s,8.10 VRx,0.000 km,1 m,153.4 °,1:-- (  0.0 km/h)*F9
$SMGPS2,-0.13 X,-0.02 Y,+1.04 Z,0 ENL,0 us*4E
$GNRMC,183230.20,A,4805.81621,N,01117.58645,E,0.11,,190422,,,A*52
$GNGGA,183230.20,4805.81621,N,01117.58645,E,1,09,1.38,576.9,M,46.5,M,,*4B
$GNGSA,A,3,27,01,08,14,21,03,,,,,,,2.37,1.38,1.92*13
$GNVTG,,T,,M,0.109,N,0.202,K,A*35
$SMGPS,-0.1 m,+0.01 m/s,8.10 VRx,0.000 km,1 m,153.4 °,1:-- (  0.0 km/h)*FB
$SMGPS2,-0.14 X,-0.02 Y,+0.99 Z,0 ENL,0 us*4C
$GNRMC,183230.30,A,4805.81621,N,01117.58646,E,0.20,,190422,,,A*52
$GNGGA,183230.30,4805.81621,N,01117.58646,E,1,09,1.38,577.0,M,46.5,M,,*41
$GNGSA,A,3,27,01,08,14,21,03,,,,,,,2.37,1.38,1.92*13
$GNVTG,,T,,M,0.196,N,0.363,K,A*35
$SMGPS,-0.0 m,+0.00 m/s,8.10 VRx,0.000 km,1 m,153.4 °,1:-- (  0.0 km/h)*FB
$SMGPS2,-0.14 X,-0.02 Y,+0.98 Z,0 ENL,0 us*4D
$GNRMC,183230.40,A,4805.81621,N,01117.58646,E,0.12,,190422,,,A*54
$GNGGA,183230.40,4805.81621,N,01117.58646,E,1,09,1.38,576.9,M,46.5,M,,*4E
$GNGSA,A,3,27,01,08,14,21,03,,,,,,,2.37,1.38,1.92*13
$GNVTG,,T,,M,0.119,N,0.220,K,A*34
$SMGPS,-0.1 m,-0.02 m/s,8.10 VRx,0.000 km,1 m,153.4 °,1:-- (  0.0 km/h)*FE
$SMGPS2,-0.14 X,-0.01 Y,+0.98 Z,0 ENL,0 us*4E
$GNRMC,183230.50,A,4805.81621,N,01117.58646,E,0.32,,190422,,,A*57
$GNGGA,183230.50,4805.81621,N,01117.58646,E,1,09,1.38,577.0,M,46.5,M,,*47
$GNGSA,A,3,27,01,08,14,21,03,,,,,,,2.37,1.38,1.92*13
$GNVTG,,T,,M,0.315,N,0.584,K,A*33
$SMGPS,-0.0 m,-0.03 m/s,8.10 VRx,0.000 km,1 m,153.4 °,1:-- (  0.0 km/h)*FE
$SMGPS2,-0.13 X,-0.02 Y,+0.98 Z,0 ENL,0 us*4A
$GNRMC,183230.60,A,4805.81621,N,01117.58646,E,0.16,,190422,,,A*52
$GNGGA,183230.60,4805.81621,N,01117.58646,E,1,09,1.38,576.9,M,46.5,M,,*4C
$GNGSA,A,3,27,01,08,14,21,03,,,,,,,2.37,1.38,1.92*13
$GNVTG,,T,,M,0.139,N,0.257,K,A*36
$SMGPS,-0.1 m,-0.05 m/s,8.10 VRx,0.000 km,1 m,153.4 °,1:-- (  0.0 km/h)*F9
$SMGPS2,-0.14 X,-0.01 Y,+0.98 Z,0 ENL,0 us*4E
$GNRMC,183230.70,A,4805.81621,N,01117.58647,E,0.25,,190422,,,A*52
$GNGGA,183230.70,4805.81621,N,01117.58647,E,1,09,1.38,576.9,M,46.5,M,,*4C
$GNGSA,A,3,27,01,08,14,21,03,,,,,,,2.37,1.38,1.92*13
$GNVTG,,T,,M,0.226,N,0.418,K,A*36
$SMGPS,-0.1 m,-0.06 m/s,8.10 VRx,0.000 km,1 m,153.4 °,1:-- (  0.0 km/h)*FA
$SMGPS2,-0.14 X,-0.02 Y,+0.98 Z,0 ENL,0 us*4D
$GNRMC,183230.80,A,4805.81621,N,01117.58647,E,0.33,,190422,,,A*5A
$GNGGA,183230.80,4805.81621,N,01117.58647,E,1,09,1.38,577.0,M,46.5,M,,*4B
$GNGSA,A,3,27,01,08,14,21,03,,,,,,,2.37,1.38,1.92*13
$GNVTG,,T,,M,0.299,N,0.553,K,A*3C
$SMGPS,-0.0 m,-0.07 m/s,8.10 VRx,0.000 km,1 m,153.4 °,1:-- (  0.0 km/h)*FA
$SMGPS2,-0.13 X,-0.01 Y,+0.99 Z,0 ENL,0 us*48
$GNRMC,183230.90,A,4805.81621,N,01117.58647,E,0.22,,190422,,,A*5B
$GNGGA,183230.90,4805.81621,N,01117.58647,E,1,09,1.38,576.9,M,46.5,M,,*42
$GNGSA,A,3,27,01,08,14,21,03,,,,,,,2.37,1.38,1.92*13
$GNVTG,,T,,M,0.160,N,0.296,K,A*37
$SMGPS,-0.1 m,-0.08 m/s,8.10 VRx,0.000 km,1 m,153.4 °,1:-- (  0.0 km/h)*F4
$SMGPS2,-0.13 X,-0.02 Y,+0.98 Z,0 ENL,0 us*4A
$GNRMC,183231.00,A,4805.81621,N,01117.58647,E,0.23,,190422,,,A*52
$GNGGA,183231.00,4805.81621,N,01117.58647,E,1,09,1.38,577.0,M,46.5,M,,*42
$GNGSA,A,3,27,01,08,14,21,03,,,,,,,2.37,1.38,1.92*13
$GNVTG,,T,,M,0.174,N,0.322,K,A*3C
$SMGPS,-0.0 m,-0.09 m/s,8.10 VRx,0.000 km,1 m,153.4 °,1:-- (  0.0 km/h)*F4
$SMGPS2,-0.13 X,-0.02 Y,+0.98 Z,0 ENL,0 us*4A
$GNRMC,183231.10,A,4805.81621,N,01117.58647,E,0.30,,190422,,,A*51
$GNGGA,183231.10,4805.81621,N,01117.58647,E,1,09,1.38,577.0,M,46.5,M,,*43
$GNGSA,A,3,27,01,08,14,21,03,,,,,,,2.37,1.38,1.92*13
$GNVTG,,T,,M,0.252,N,0.467,K,A*3D
$SMGPS,-0.0 m,-0.09 m/s,8.10 VRx,0.000 km,1 m,153.4 °,1:-- (  0.0 km/h)*F4
$SMGPS2,-0.14 X,-0.02 Y,+0.98 Z,0 ENL,0 us*4D
$GNRMC,183231.20,A,4805.81621,N,01117.58647,E,0.24,,190422,,,A*57
$GNGGA,183231.20,4805.81621,N,01117.58647,E,1,09,1.38,577.0,M,46.5,M,,*40
$GNGSA,A,3,27,01,08,14,21,03,,,,,,,2.37,1.38,1.92*13
$GNVTG,,T,,M,0.183,N,0.339,K,A*3E
$SMGPS,-0.0 m,-0.09 m/s,8.10 VRx,0.000 km,1 m,153.4 °,1:-- (  0.0 km/h)*F4
$SMGPS2,-0.14 X,-0.02 Y,+0.98 Z,0 ENL,0 us*4D
$GNRMC,183231.30,A,4805.81621,N,01117.58647,E,0.20,,190422,,,A*52
$GNGGA,183231.30,4805.81621,N,01117.58647,E,1,09,1.38,577.0,M,46.5,M,,*41
$GNGSA,A,3,27,01,08,14,21,03,,,,,,,2.37,1.38,1.92*13
$GNVTG,,T,,M,0.145,N,0.268,K,A*31
$SMGPS,-0.0 m,-0.08 m/s,8.10 VRx,0.000 km,1 m,153.4 °,1:-- (  0.0 km/h)*F5
$SMGPS2,-0.13 X,-0.02 Y,+0.98 Z,0 ENL,0 us*4A
$GNRMC,183231.40,A,4805.81621,N,01117.58648,E,0.31,,190422,,,A*5A
$GNGGA,183231.40,4805.81621,N,01117.58648,E,1,09,1.38,577.0,M,46.5,M,,*49
$GNGSA,A,3,27,01,08,14,21,03,,,,,,,2.37,1.38,1.92*13
$GNVTG,,T,,M,0.279,N,0.516,K,A*33
$SMGPS,-0.0 m,-0.07 m/s,8.10 VRx,0.000 km,1 m,153.4 °,1:-- (  0.0 km/h)*FA
$SMGPS2,-0.14 X,-0.01 Y,+0.98 Z,0 ENL,0 us*4E
$GNRMC,183231.50,A,4805.81621,N,01117.58648,E,0.16,,190422,,,A*5E
$GNGGA,183231.50,4805.81621,N,01117.58648,E,1,09,1.38,577.0,M,46.5,M,,*48
$GNGSA,A,3,27,01,08,14,21,03,,,,,,,2.37,1.38,1.92*13
$GNVTG,,T,,M,0.098,N,0.181,K,A*34
$SMGPS,-0.0 m,-0.07 m/s,8.10 VRx,0.000 km,1 m,153.4 °,1:-- (  0.0 km/h)*FA
$SMGPS2,-0.14 X,-0.01 Y,+0.99 Z,0 ENL,0 us*4F
$GNRMC,183231.60,A,4805.81621,N,01117.58648,E,0.18,,190422,,,A*53
$GNGGA,183231.60,4805.81621,N,01117.58648,E,1,09,1.38,577.0,M,46.5,M,,*4B
$GNGSA,A,3,27,01,08,14,21,03,,,,,,,2.37,1.38,1.92*13
$GNVTG,,T,,M,0.146,N,0.271,K,A*3A
$SMGPS,-0.0 m,-0.06 m/s,8.10 VRx,0.000 km,1 m,153.4 °,1:-- (  0.0 km/h)*FB
$SMGPS2,-0.13 X,-0.01 Y,+0.98 Z,0 ENL,0 us*49
$GNRMC,183231.70,A,4805.81622,N,01117.58648,E,0.12,,190422,,,A*5B
$GNGGA,183231.70,4805.81622,N,01117.58648,E,1,09,1.38,577.0,M,46.5,M,,*49
$GNGSA,A,3,27,01,08,14,21,03,,,,,,,2.37,1.38,1.92*13
$GNVTG,,T,,M,0.049,N,0.091,K,A*38
$SMGPS,-0.0 m,-0.05 m/s,8.10 VRx,0.000 km,1 m,153.4 °,1:-- (  0.0 km/h)*F8
$SMGPS2,-0.14 X,-0.02 Y,+0.99 Z,0 ENL,0 us*4C
$GNRMC,183231.80,A,4805.81622,N,01117.58649,E,0.10,,190422,,,A*57
$GNGGA,183231.80,4805.81622,N,01117.58649,E,1,09,1.38,577.0,M,46.5,M,,*47
$GNGSA,A,3,27,01,08,14,21,03,,,,,,,2.37,1.38,1.92*13
$GNVTG,,T,,M,0.017,N,0.031,K,A*39
$SMGPS,-0.0 m,-0.04 m/s,8.10 VRx,0.000 km,1 m,153.4 °,1:-- (  0.0 km/h)*F9
$SMGPS2,-0.13 X,-0.02 Y,+0.98 Z,0 ENL,0 us*4A
$GNRMC,183231.90,A,4805.81623,N,01117.58649,E,0.11,,190422,,,A*56
$GNGGA,183231.90,4805.81623,N,01117.58649,E,1,09,1.38,577.0,M,46.5,M,,*47
$GNGSA,A,3,27,01,08,14,21,03,,,,,,,2.37,1.38,1.92*13
$GNVTG,,T,,M,0.059,N,0.109,K,A*39
$SMGPS,-0.0 m,-0.03 m/s,8.10 VRx,0.000 km,1 m,146.3 °,1:-- (  0.0 km/h)*FD
$SMGPS2,-0.14 X,-0.02 Y,+0.99 Z,0 ENL,0 us*4C
$GNRMC,183232.00,A,4805.81623,N,01117.58649,E,0.11,,190422,,,A*5C
$GNGGA,183232.00,4805.81623,N,01117.58649,E,1,09,1.38,577.0,M,46.5,M,,*4D
$GNGSA,A,3,27,01,08,14,21,03,,,,,,,2.37,1.38,1.92*13
$GNVTG,,T,,M,0.040,N,0.075,K,A*3B
$SMGPS,-0.0 m,-0.03 m/s,8.10 VRx,0.000 km,1 m,146.3 °,1:-- (  0.0 km/h)*FD
$SMGPS2,-0.13 X,-0.02 Y,+0.98 Z,0 ENL,0 us*4A
$GNRMC,183232.10,A,4805.81623,N,01117.58649,E,0.12,,190422,,,A*5E
$GNGGA,183232.10,4805.81623,N,01117.58649,E,1,09,1.38,577.0,M,46.5,M,,*4C
$GNGSA,A,3,27,01,08,14,21,03,,,,,,,2.37,1.38,1.92*13
$GNVTG,,T,,M,0.060,N,0.111,K,A*3A
$SMGPS,-0.0 m,-0.03 m/s,8.10 VRx,0.000 km,1 m,146.3 °,1:-- (  0.0 km/h)*FD
$SMGPS2,-0.14 X,-0.02 Y,+0.99 Z,0 ENL,0 us*4C
$GNRMC,183232.20,A,4805.81624,N,01117.58650,E,0.13,,190422,,,A*53
$GNGGA,183232.20,4805.81624,N,01117.58650,E,1,09,1.38,577.0,M,46.5,M,,*40
$GNGSA,A,3,27,01,08,14,21,03,,,,,,,2.37,1.38,1.92*13
$GNVTG,,T,,M,0.096,N,0.178,K,A*3C
$SMGPS,0.0 m,-0.03 m/s,8.10 VRx,0.000 km,1 m,146.3 °,1:-- (  0.0 km/h)*D0
$SMGPS2,-0.13 X,-0.02 Y,+0.98 Z,0 ENL,0 us*4A
$GNRMC,183232.30,A,4805.81624,N,01117.58650,E,0.10,,190422,,,A*51
$GNGGA,183232.30,4805.81624,N,01117.58650,E,1,09,1.38,577.0,M,46.5,M,,*41
$GNGSA,A,3,27,01,08,14,21,03,,,,,,,2.37,1.38,1.92*13
$GNVTG,,T,,M,0.028,N,0.051,K,A*33
$SMGPS,0.0 m,-0.03 m/s,8.10 VRx,0.000 km,1 m,146.3 °,1:-- (  0.0 km/h)*D0
$SMGPS2,-0.13 X,-0.02 Y,+0.98 Z,0 ENL,0 us*4A
$GNRMC,183232.40,A,4805.81624,N,01117.58650,E,0.12,,190422,,,A*54
$GNGGA,183232.40,4805.81624,N,01117.58650,E,1,09,1.38,577.0,M,46.5,M,,*46
$GNGSA,A,3,27,01,08,14,21,03,,,,,,,2.37,1.38,1.92*13
$GNVTG,,T,,M,0.088,N,0.162,K,A*38
$SMGPS,-0.0 m,-0.02 m/s,8.10 VRx,0.000 km,1 m,146.3 °,1:-- (  0.0 km/h)*FC
$SMGPS2,-0.14 X,-0.01 Y,+0.99 Z,0 ENL,0 us*4F
$GNRMC,183232.50,A,4805.81624,N,01117.58650,E,0.09,,190422,,,A*5F
$GNGGA,183232.50,4805.81624,N,01117.58650,E,1,09,1.38,577.0,M,46.5,M,,*47
$GNGSA,A,3,27,01,08,14,21,03,,,,,,,2.37,1.38,1.92*13
$GNVTG,,T,,M,0.045,N,0.084,K,A*30
$SMGPS,-0.0 m,-0.02 m/s,8.10 VRx,0.000 km,1 m,146.3 °,1:-- (  0.0 km/h)*FC
$SMGPS2,-0.13 X,-0.02 Y,+0.98 Z,0 ENL,0 us*4A
$GNRMC,183232.60,A,4805.81625,N,01117.58650,E,0.08,,190422,,,A*5C
$GNGGA,183232.60,4805.81625,N,01117.58650,E,1,09,1.38,577.0,M,46.5,M,,*45
$GNGSA,A,3,27,01,08,14,21,03,,,,,,,2.37,1.38,1.92*13
$GNVTG,,T,,M,0.015,N,0.027,K,A*3C
$SMGPS,-0.0 m,-0.02 m/s,8.10 VRx,0.000 km,1 m,146.3 °,1:-- (  0.0 km/h)*FC
$SMGPS2,-0.13 X,-0.02 Y,+0.99 Z,0 ENL,0 us*4B
$GNRMC,183232.70,A,4805.81625,N,01117.58650,E,0.07,,190422,,,A*52
$GNGGA,183232.70,4805.81625,N,01117.58650,E,1,09,1.38,577.0,M,46.5,M,,*44
$GNGSA,A,3,27,01,08,14,21,03,,,,,,,2.37,1.38,1.92*13
$GNVTG,,T,,M,0.040,N,0.075,K,A*3B
$SMGPS,0.0 m,-0.02 m/s,8.10 VRx,0.000 km,1 m,146.3 °,1:-- (  0.0 km/h)*D1
$SMGPS2,-0.14 X,-0.01 Y,+0.98 Z,0 ENL,0 us*4E
$GNRMC,183232.80,A,4805.81625,N,01117.58650,E,0.17,,190422,,,A*5C
$GNGGA,183232.80,4805.81625,N,01117.58650,E,1,09,1.38,577.0,M,46.5,M,,*4B
$GNGSA,A,3,27,01,08,14,21,03,,,,,,,2.37,1.38,1.92*13
$GNVTG,,T,,M,0.166,N,0.308,K,A*37
$SMGPS,0.0 m,-0.01 m/s,8.10 VRx,0.000 km,1 m,146.3 °,1:-- (  0.0 km/h)*D2
$SMGPS2,-0.14 X,-0.01 Y,+0.98 Z,0 ENL,0 us*4E
$GNRMC,183232.90,A,4805.81626,N,01117.58650,E,0.06,,190422,,,A*5E
$GNGGA,183232.90,4805.81626,N,01117.58650,E,1,09,1.38,577.1,M,46.5,M,,*48
$GNGSA,A,3,27,01,08,14,21,03,,,,,,,2.37,1.38,1.92*13
$GNVTG,,T,,M,0.051,N,0.094,K,A*34
$SMGPS,0.1 m,-0.00 m/s,8.10 VRx,0.000 km,1 m,146.3 °,1:-- (  0.0 km/h)*D2
$SMGPS2,-0.13 X,-0.01 Y,+0.98 Z,0 ENL,0 us*49
$GNRMC,183233.00,A,4805.81626,N,01117.58650,E,0.13,,190422,,,A*52
$GNGGA,183233.00,4805.81626,N,01117.58650,E,1,09,1.38,577.1,M,46.5,M,,*40
$GNGSA,A,3,27,01,08,14,21,03,,,,,,,2.37,1.38,1.92*13
$GNVTG,,T,,M,0.130,N,0.241,K,A*38
$SMGPS,0.1 m,+0.01 m/s,8.10 VRx,0.000 km,1 m,146.3 °,1:-- (  0.0 km/h)*D5
$SMGPS2,-0.14 X,-0.02 Y,+0.98 Z,0 ENL,0 us*4D
$GNRMC,183233.10,A,4805.81626,N,01117.58650,E,0.09,,190422,,,A*58
$GNGGA,183233.10,4805.81626,N,01117.58650,E,1,09,1.38,577.1,M,46.5,M,,*41
$GNGSA,A,3,27,01,08,14,21,03,,,,,,,2.37,1.38,1.92*13
$GNVTG,,T,,M,0.078,N,0.144,K,A*33
$SMGPS,0.1 m,+0.03 m/s,8.10 VRx,0.000 km,1 m,146.3 °,1:-- (  0.0 km/h)*D7
$SMGPS2,-0.13 X,-0.01 Y,+0.99 Z,0 ENL,0 us*48
$GNRMC,183233.20,A,4805.81626,N,01117.58650,E,0.20,,190422,,,A*50
$GNGGA,183233.20,4805.81626,N,01117.58650,E,1,09,1.38,577.1,M,46.5,M,,*42
$GNGSA,A,3,27,01,08,14,21,03,,,,,,,2.37,1.38,1.92*13
$GNVTG,,T,,M,0.178,N,0.330,K,A*33
$SMGPS,0.1 m,+0.05 m/s,8.10 VRx,0.000 km,1 m,146.3 °,1:-- (  0.0 km/h)*D1
$SMGPS2,-0.13 X,-0.02 Y,+0.99 Z,0 ENL,0 us*4B
$GNRMC,183233.30,A,4805.81626,N,01117.58650,E,0.14,,190422,,,A*56
$GNGGA,183233.30,4805.81626,N,01117.58650,E,1,09,1.38,577.1,M,46.5,M,,*43
$GNGSA,A,3,27,01,08,14,21,03,,,,,,,2.37,1.38,1.92*13
$GNVTG,,T,,M,0.052,N,0.096,K,A*35
$SMGPS,0.1 m,+0.07 m/s,8.10 VRx,0.000 km,1 m,146.3 °,1:-- (  0.0 km/h)*D3
$SMGPS2,-0.14 X,-0.01 Y,+0.98 Z,0 ENL,0 us*4E
$GNRMC,183233.40,A,4805.81626,N,01117.58650,E,0.30,,190422,,,A*57
$GNGGA,183233.40,4805.81626,N,01117.58650,E,1,09,1.38,577.0,M,46.5,M,,*45
$GNGSA,A,3,27,01,08,14,21,03,,,,,,,2.37,1.38,1.92*13
$GNVTG,,T,,M,0.249,N,0.460,K,A*30
$SMGPS,0.0 m,+0.10 m/s,8.10 VRx,0.000 km,1 m,146.3 °,1:-- (  0.0 km/h)*D4
$SMGPS2,-0.14 X,-0.02 Y,+0.98 Z,0 ENL,0 us*4D
$GNRMC,183233.50,A,4805.81626,N,01117.58651,E,0.20,,190422,,,A*56
$GNGGA,183233.50,4805.81626,N,01117.58651,E,1,09,1.38,577.1,M,46.5,M,,*44
$GNGSA,A,3,27,01,08,14,21,03,,,,,,,2.37,1.38,1.92*13
$GNVTG,,T,,M,0.028,N,0.053,K,A*31
$SMGPS,0.1 m,+0.11 m/s,8.10 VRx,0.000 km,1 m,146.3 °,1:-- (  0.0 km/h)*D4
$SMGPS2,-0.14 X,-0.02 Y,+0.98 Z,0 ENL,0 us*4D
$GNRMC,183233.60,A,4805.81626,N,01117.58651,E,0.24,,190422,,,A*51
$GNGGA,183233.60,4805.81626,N,01117.58651,E,1,09,1.38,577.1,M,46.5,M,,*47
$GNGSA,A,3,27,01,08,14,21,03,,,,,,,2.37,1.38,1.92*13
$GNVTG,,T,,M,0.099,N,0.183,K,A*37
$SMGPS,0.1 m,+0.12 m/s,8.10 VRx,0.000 km,1 m,146.3 °,1:-- (  0.0 km/h)*D7
$SMGPS2,-0.13 X,-0.02 Y,+0.99 Z,0 ENL,0 us*4B
$GNRMC,183233.70,A,4805.81626,N,01117.58651,E,0.26,,190422,,,A*52
$GNGGA,183233.70,4805.81626,N,01117.58651,E,1,09,1.38,577.1,M,46.5,M,,*46
$GNGSA,A,3,27,01,08,14,21,03,,,,,,,2.37,1.38,1.92*13
$GNVTG,,T,,M,0.134,N,0.249,K,A*34
$SMGPS,0.1 m,+0.13 m/s,8.10 VRx,0.000 km,1 m,146.3 °,1:-- (  0.0 km/h)*D6
$SMGPS2,-0.13 X,-0.01 Y,+0.98 Z,0 ENL,0 us*49
$GNRMC,183233.80,A,4805.81626,N,01117.58651,E,0.33,,190422,,,A*59
$GNGGA,183233.80,4805.81626,N,01117.58651,E,1,09,1.38,577.1,M,46.5,M,,*49
$GNGSA,A,3,27,01,08,14,21,03,,,,,,,2.37,1.38,1.92*13
$GNVTG,,T,,M,0.244,N,0.451,K,A*3F
$SMGPS,0.1 m,+0.13 m/s,8.10 VRx,0.000 km,1 m,146.3 °,1:-- (  0.0 km/h)*D6
$SMGPS2,-0.13 X,-0.02 Y,+0.98 Z,0 ENL,0 us*4A
$GNRMC,183233.90,A,4805.81626,N,01117.58651,E,0.24,,190422,,,A*5E
$GNGGA,183233.90,4805.81626,N,01117.58651,E,1,09,1.38,577.1,M,46.5,M,,*48
$GNGSA,A,3,27,01,08,14,21,03,,,,,,,2.37,1.38,1.92*13
$GNVTG,,T,,M,0.102,N,0.189,K,A*3E
$SMGPS,0.1 m,+0.12 m/s,8.10 VRx,0.000 km,1 m,146.3 °,1:-- (  0.0 km/h)*D7
$SMGPS2,-0.13 X,-0.01 Y,+0.98 Z,0 ENL,0 us*49
$GNRMC,183234.00,A,4805.81627,N,01117.58651,E,0.23,,190422,,,A*56
$GNGGA,183234.00,4805.81627,N,01117.58651,E,1,09,1.38,577.1,M,46.5,M,,*47
$GNGSA,A,3,27,01,08,14,21,03,,,,,,,2.37,1.38,1.92*13
$GNVTG,,T,,M,0.111,N,0.206,K,A*38
$SMGPS,0.1 m,+0.12 m/s,8.10 VRx,0.000 km,1 m,146.3 °,1:-- (  0.0 km/h)*D7
$SMGPS2,-0.13 X,-0.02 Y,+0.99 Z,0 ENL,0 us*4B
$GNRMC,183234.10,A,4805.81626,N,01117.58651,E,0.40,,190422,,,A*53
$GNGGA,183234.10,4805.81626,N,01117.58651,E,1,09,1.38,577.1,M,46.5,M,,*47
$GNGSA,A,3,27,01,08,14,21,03,,,,,,,2.37,1.38,1.92*13
$GNVTG,,T,,M,0.344,N,0.637,K,A*3C
$SMGPS,0.1 m,+0.11 m/s,8.10 VRx,0.000 km,1 m,146.3 °,1:-- (  0.0 km/h)*D4
$SMGPS2,-0.14 X,-0.02 Y,+0.99 Z,0 ENL,0 us*4C
$GNRMC,183234.20,A,4805.81627,N,01117.58652,E,0.22,,190422,,,A*56
$GNGGA,183234.20,4805.81627,N,01117.58652,E,1,09,1.38,577.1,M,46.5,M,,*46
$GNGSA,A,3,27,01,08,14,21,03,,,,,,,2.37,1.38,1.92*13
$GNVTG,,T,,M,0.097,N,0.179,K,A*3C
$SMGPS,0.1 m,+0.10 m/s,8.10 VRx,0.000 km,1 m,146.3 °,1:-- (  0.0 km/h)*D5
$SMGPS2,-0.14 X,-0.02 Y,+0.98 Z,0 ENL,0 us*4D
$GNRMC,183234.30,A,4805.81627,N,01117.58652,E,0.35,,190422,,,A*51
$GNGGA,183234.30,4805.81627,N,01117.58652,E,1,09,1.38,577.1,M,46.5,M,,*47
$GNGSA,A,3,27,01,08,14,21,03,,,,,,,2.37,1.38,1.92*13
$GNVTG,,T,,M,0.298,N,0.551,K,A*3F
$SMGPS,0.1 m,+0.09 m/s,8.10 VRx,0.000 km,1 m,146.3 °,1:-- (  0.0 km/h)*DD
$SMGPS2,-0.14 X,-0.02 Y,+0.98 Z,0 ENL,0 us*4D
$GNRMC,183234.40,A,4805.81627,N,01117.58652,E,0.23,,190422,,,A*51
$GNGGA,183234.40,4805.81627,N,01117.58652,E,1,09,1.38,577.1,M,46.5,M,,*40
$GNGSA,A,3,27,01,08,14,21,03,,,,,,,2.37,1.38,1.92*13
$GNVTG,,T,,M,0.157,N,0.292,K,A*37
$SMGPS,0.1 m,+0.07 m/s,8.10 VRx,0.000 km,1 m,146.3 °,1:-- (  0.0 km/h)*D3
$SMGPS2,-0.13 X,-0.01 Y,+0.99 Z,0 ENL,0 us*48
$GNRMC,183234.50,A,4805.81627,N,01117.58652,E,0.20,,190422,,,A*53
$GNGGA,183234.50,4805.81627,N,01117.58652,E,1,09,1.38,577.1,M,46.5,M,,*41
$GNGSA,A,3,27,01,08,14,21,03,,,,,,,2.37,1.38,1.92*13
$GNVTG,,T,,M,0.144,N,0.267,K,A*3F
$SMGPS,0.1 m,+0.06 m/s,8.10 VRx,0.000 km,1 m,146.3 °,1:-- (  0.0 km/h)*D2
$SMGPS2,-0.14 X,-0.03 Y,+0.99 Z,0 ENL,0 us*4D
$GNRMC,183234.60,A,4805.81627,N,01117.58653,E,0.27,,190422,,,A*56
$GNGGA,183234.60,4805.81627,N,01117.58653,E,1,09,1.38,577.1,M,46.5,M,,*43
$GNGSA,A,3,27,01,08,14,21,03,,,,,,,2.37,1.38,1.92*13
$GNVTG,,T,,M,0.238,N,0.442,K,A*36
$SMGPS,0.1 m,+0.06 m/s,8.10 VRx,0.000 km,1 m,146.3 °,1:-- (  0.0 km/h)*D2
$SMGPS2,-0.14 X,-0.02 Y,+0.99 Z,0 ENL,0 us*4C
$GNRMC,183234.70,A,4805.81627,N,01117.58652,E,0.20,,190422,,,A*51
$GNGGA,183234.70,4805.81627,N,01117.58652,E,1,09,1.38,577.1,M,46.5,M,,*43
$GNGSA,A,3,27,01,08,14,21,03,,,,,,,2.37,1.38,1.92*13
$GNVTG,,T,,M,0.171,N,0.317,K,A*3F
$SMGPS,0.1 m,+0.05 m/s,8.10 VRx,0.000 km,1 m,146.3 °,1:-- (  0.0 km/h)*D1
$SMGPS2,-0.13 X,-0.02 Y,+0.98 Z,0 ENL,0 us*4A
$GNRMC,183234.80,A,4805.81627,N,01117.58653,E,0.14,,190422,,,A*58
$GNGGA,183234.80,4805.81627,N,01117.58653,E,1,09,1.38,577.1,M,46.5,M,,*4D
$GNGSA,A,3,27,01,08,14,21,03,,,,,,,2.37,1.38,1.92*13
$GNVTG,,T,,M,0.113,N,0.209,K,A*35
$SMGPS,0.1 m,+0.03 m/s,8.10 VRx,0.000 km,1 m,146.3 °,1:-- (  0.0 km/h)*D7
$SMGPS2,-0.13 X,-0.01 Y,+0.98 Z,0 ENL,0 us*49
$GNRMC,183234.90,A,4805.81627,N,01117.58653,E,0.22,,190422,,,A*5C
$GNGGA,183234.90,4805.81627,N,01117.58653,E,1,09,1.38,577.0,M,46.5,M,,*4D
$GNGSA,A,3,27,01,08,14,21,03,,,,,,,2.37,1.38,1.92*13
$GNVTG,,T,,M,0.221,N,0.409,K,A*31
$SMGPS,-0.0 m,+0.02 m/s,8.10 VRx,0.000 km,1 m,146.3 °,1:-- (  0.0 km/h)*FA
$SMGPS2,-0.14 X,-0.02 Y,+0.99 Z,0 ENL,0 us*4C
$GNRMC,183235.00,A,4805.81627,N,01117.58653,E,0.14,,190422,,,A*51
$GNGGA,183235.00,4805.81627,N,01117.58653,E,1,09,1.38,577.0,M,46.5,M,,*45
$GNGSA,A,3,27,01,08,14,21,03,,,,,,,2.37,1.38,1.92*13
$GNVTG,,T,,M,0.142,N,0.263,K,A*3D
$SMGPS,0.0 m,+0.01 m/s,8.10 VRx,0.000 km,1 m,146.3 °,1:-- (  0.0 km/h)*D4
$SMGPS2,-0.13 X,-0.02 Y,+0.98 Z,0 ENL,0 us*4A
$GNRMC,183235.10,A,4805.81628,N,01117.58653,E,0.15,,190422,,,A*5E
$GNGGA,183235.10,4805.81628,N,01117.58653,E,1,09,1.38,577.0,M,46.5,M,,*4B
$GNGSA,A,3,27,01,08,14,21,03,,,,,,,2.37,1.38,1.92*13
$GNVTG,,T,,M,0.153,N,0.284,K,A*34
$SMGPS,0.0 m,-0.00 m/s,8.10 VRx,0.000 km,1 m,146.3 °,1:-- (  0.0 km/h)*D3
$SMGPS2,-0.14 X,-0.02 Y,+0.99 Z,0 ENL,0 us*4C
$GNRMC,183235.20,A,4805.81628,N,01117.58653,E,0.13,,190422,,,A*5B
$GNGGA,183235.20,4805.81628,N,01117.58653,E,1,09,1.38,577.0,M,46.5,M,,*48
$GNGSA,A,3,27,01,08,14,21,03,,,,,,,2.37,1.38,1.92*13
$GNVTG,,T,,M,0.126,N,0.232,K,A*3B
$SMGPS,-0.0 m,-0.01 m/s,8.10 VRx,0.000 km,1 m,146.3 °,1:-- (  0.0 km/h)*FF
$SMGPS2,-0.13 X,-0.01 Y,+0.98 Z,0 ENL,0 us*49
$GNRMC,183235.30,A,4805.81628,N,01117.58653,E,0.08,,190422,,,A*50
$GNGGA,183235.30,4805.81628,N,01117.58653,E,1,09,1.38,577.0,M,46.5,M,,*49
$GNGSA,A,3,27,01,08,14,21,03,,,,,,,2.37,1.38,1.92*13
$GNVTG,,T,,M,0.055,N,0.102,K,A*3E
$SMGPS,-0.0 m,-0.02 m/s,8.10 VRx,0.000 km,1 m,146.3 °,1:-- (  0.0 km/h)*FC
$SMGPS2,-0.14 X,-0.01 Y,+0.99 Z,0 ENL,0 us*4F
$GNRMC,183235.40,A,4805.81628,N,01117.58653,E,0.26,,190422,,,A*5B
$GNGGA,183235.40,4805.81628,N,01117.58653,E,1,09,1.38,577.0,M,46.5,M,,*4E
$GNGSA,A,3,27,01,08,14,21,03,,,,,,,2.37,1.38,1.92*13
$GNVTG,,T,,M,0.245,N,0.453,K,A*3C
$SMGPS,-0.0 m,-0.03 m/s,8.10 VRx,0.000 km,1 m,146.3 °,1:-- (  0.0 km/h)*FD
$SMGPS2,-0.14 X,-0.02 Y,+0.98 Z,0 ENL,0 us*4D
$GNRMC,183235.50,A,4805.81628,N,01117.58654,E,0.14,,190422,,,A*5C
$GNGGA,183235.50,4805.81628,N,01117.58654,E,1,09,1.38,577.0,M,46.5,M,,*48
$GNGSA,A,3,27,01,08,14,21,03,,,,,,,2.37,1.38,1.92*13
$GNVTG,,T,,M,0.110,N,0.204,K,A*3B
$SMGPS,-0.0 m,-0.03 m/s,8.10 VRx,0.000 km,1 m,146.3 °,1:-- (  0.0 km/h)*FD
$SMGPS2,-0.14 X,-0.02 Y,+0.99 Z,0 ENL,0 us*4C
$GNRMC,183235.60,A,4805.81628,N,01117.58654,E,0.20,,190422,,,A*58
$GNGGA,183235.60,4805.81628,N,01117.58654,E,1,09,1.38,577.0,M,46.5,M,,*4B
$GNGSA,A,3,27,01,08,14,21,03,,,,,,,2.37,1.38,1.92*13
$GNVTG,,T,,M,0.178,N,0.330,K,A*33
$SMGPS,0.0 m,-0.03 m/s,8.10 VRx,0.000 km,1 m,146.3 °,1:-- (  0.0 km/h)*D0
