$GPSSETUP,8A9B,0,1,1,0,0,1,0,0,0,1,3,0,0,0,0,6,0,C8,C8,1F4,1C2,32,64,7C,64,7D0,5,1,1,1E,0,0,0,0,0,0,1003,4,10,5,6,10,10,10,10,10,10,10,10,10,BC10,0,7C,0,108,302,604,0,20F,0,0,0,0,0,0,0,0,0,0,0,0,0,0,0,0,0,0,0,0,0,0,0,0,0,0,0,0,0,0,0,0,0,20,12C,6A8A*33
$SMGPS2,-0.22 X,+0.05 Y,+1.01 Z,0 ENL,0 us*48
$GNRMC,163321.20,A,4807.03969,N,01116.07068,E,0.13,,160520,,,A*5A
$GNGGA,163321.20,4807.03969,N,01116.07068,E,1,12,0.67,563.6,M,46.5,M,,*47
$GNGSA,A,3,10,20,11,21,08,27,16,32,,,,,1.19,0.67,0.98*1E
$GNVTG,,T,,M,0.123,N,0.228,K,A*35
$SMGPS,-0.0 m,+0.01 m/s,8.35 VRx,0.007 km,3 m,12.5 °,1:-- (  0.0 km/h)*CD
$SMGPS2,-0.20 X,+0.05 Y,+1.01 Z,0 ENL,0 us*4A
$GNRMC,163321.30,A,4807.03969,N,01116.07068,E,0.10,,160520,,,A*58
$GNGGA,163321.30,4807.03969,N,01116.07068,E,1,12,0.67,563.6,M,46.5,M,,*46
$GNGSA,A,3,10,20,11,21,08,27,16,32,,,,,1.19,0.67,0.98*1E
$GNVTG,,T,,M,0.092,N,0.171,K,A*31
$SMGPS,0.0 m,+0.01 m/s,8.35 VRx,0.007 km,3 m,12.5 °,1:-- (  0.0 km/h)*E0
$SMGPS2,-0.17 X,+0.04 Y,+1.03 Z,0 ENL,0 us*4D
$GNRMC,163321.40,A,4807.03969,N,01116.07068,E,0.10,,160520,,,A*5F
$GNGGA,163321.40,4807.03969,N,01116.07068,E,1,12,0.67,563.6,M,46.5,M,,*41
$GNGSA,A,3,10,20,11,21,08,27,16,32,,,,,1.19,0.67,0.98*1E
$GNVTG,,T,,M,0.100,N,0.185,K,A*30
$SMGPS,0.0 m,+0.01 m/s,8.35 VRx,0.007 km,3 m,12.5 °,1:-- (  0.0 km/h)*E0
$SMGPS2,-0.17 X,+0.05 Y,+0.97 Z,0 ENL,0 us*40
$GNRMC,163321.50,A,4807.03969,N,01116.07068,E,0.10,,160520,,,A*5E
$GNGGA,163321.50,4807.03969,N,01116.07068,E,1,12,0.67,563.6,M,46.5,M,,*40
$GNGSA,A,3,10,20,11,21,08,27,16,32,,,,,1.19,0.67,0.98*1E
$GNVTG,,T,,M,0.094,N,0.175,K,A*33
$SMGPS,0.0 m,+0.01 m/s,8.35 VRx,0.007 km,3 m,12.5 °,1:-- (  0.0 km/h)*E0
$SMGPS2,-0.15 X,+0.02 Y,+0.96 Z,0 ENL,0 us*44
$GNRMC,163321.60,A,4807.03968,N,01116.07068,E,0.10,,160520,,,A*5C
$GNGGA,163321.60,4807.03968,N,01116.07068,E,1,12,0.67,563.6,M,46.5,M,,*42
$GNGSA,A,3,10,20,11,21,08,27,16,32,,,,,1.19,0.67,0.98*1E
$GNVTG,,T,,M,0.096,N,0.177,K,A*33
$SMGPS,0.0 m,+0.00 m/s,8.35 VRx,0.007 km,3 m,12.5 °,1:-- (  0.0 km/h)*E1
$SMGPS2,-0.15 X,+0.03 Y,+1.02 Z,0 ENL,0 us*49
$GNRMC,163321.70,A,4807.03968,N,01116.07069,E,0.10,,160520,,,A*5C
$GNGGA,163321.70,4807.03968,N,01116.07069,E,1,12,0.67,563.6,M,46.5,M,,*42
$GNGSA,A,3,10,20,11,21,08,27,16,32,,,,,1.19,0.67,0.98*1E
$GNVTG,,T,,M,0.094,N,0.175,K,A*33
$SMGPS,0.0 m,+0.01 m/s,8.35 VRx,0.007 km,3 m,12.5 °,1:-- (  0.0 km/h)*E0
$SMGPS2,-0.16 X,+0.01 Y,+1.03 Z,0 ENL,0 us*49
$GNRMC,163321.80,A,4807.03968,N,01116.07069,E,0.03,,160520,,,A*51
$GNGGA,163321.80,4807.03968,N,01116.07069,E,1,12,0.67,563.6,M,46.5,M,,*4D
$GNGSA,A,3,10,20,11,21,08,27,16,32,,,,,1.19,0.67,0.98*1E
$GNVTG,,T,,M,0.025,N,0.047,K,A*39
$SMGPS,0.0 m,+0.00 m/s,8.35 VRx,0.007 km,3 m,12.5 °,1:-- (  0.0 km/h)*E1
$SMGPS2,-0.17 X,+0.02 Y,+1.08 Z,0 ENL,0 us*40
$GNRMC,163321.90,A,4807.03967,N,01116.07069,E,0.13,,160520,,,A*5E
$GNGGA,163321.90,4807.03967,N,01116.07069,E,1,12,0.67,563.6,M,46.5,M,,*43
$GNGSA,A,3,10,20,11,21,08,27,16,32,,,,,1.19,0.67,0.98*1E
$GNVTG,,T,,M,0.123,N,0.227,K,A*3A
$SMGPS,0.0 m,+0.01 m/s,8.35 VRx,0.007 km,3 m,12.5 °,1:-- (  0.0 km/h)*E0
$SMGPS2,-0.18 X,+0.01 Y,+0.99 Z,2 ENL,0 us*47
$GNRMC,163322.00,A,4807.03967,N,01116.07069,E,0.07,,160520,,,A*51
$GNGGA,163322.00,4807.03967,N,01116.07069,E,1,12,0.67,563.6,M,46.5,M,,*49
$GNGSA,A,3,10,20,11,21,08,27,16,32,,,,,1.19,0.67,0.98*1E
$GNVTG,,T,,M,0.067,N,0.124,K,A*3B
$SMGPS,-0.0 m,+0.02 m/s,8.35 VRx,0.007 km,3 m,12.5 °,1:-- (  0.0 km/h)*CE
$SMGPS2,-0.18 X,+0.01 Y,+1.00 Z,1 ENL,0 us*45
$GNRMC,163322.10,A,4807.03966,N,01116.07068,E,0.08,,160520,,,A*5F
$GNGGA,163322.10,4807.03966,N,01116.07068,E,1,12,0.67,563.6,M,46.5,M,,*48
$GNGSA,A,3,10,20,11,21,08,27,16,32,,,,,1.19,0.67,0.98*1E
$GNVTG,,T,,M,0.074,N,0.136,K,A*3A
$SMGPS,-0.0 m,+0.03 m/s,8.35 VRx,0.007 km,3 m,12.5 °,1:-- (  0.0 km/h)*CF
$SMGPS2,-0.19 X,+0.02 Y,+1.01 Z,0 ENL,0 us*47
$GNRMC,163322.20,A,4807.03965,N,01116.07068,E,0.19,,160520,,,A*5F
$GNGGA,163322.20,4807.03965,N,01116.07068,E,1,12,0.67,563.6,M,46.5,M,,*48
$GNGSA,A,3,10,20,11,21,08,27,16,32,,,,,1.19,0.67,0.98*1E
$GNVTG,,T,,M,0.186,N,0.345,K,A*30
$SMGPS,-0.0 m,+0.03 m/s,8.35 VRx,0.007 km,3 m,12.5 °,1:-- (  0.0 km/h)*CF
$SMGPS2,-0.19 X,+0.03 Y,+0.99 Z,3 ENL,0 us*45
$GNRMC,163322.30,A,4807.03965,N,01116.07068,E,0.13,,160520,,,A*54
$GNGGA,163322.30,4807.03965,N,01116.07068,E,1,12,0.67,563.6,M,46.5,M,,*49
$GNGSA,A,3,10,20,11,21,08,27,16,32,,,,,1.19,0.67,0.98*1E
$GNVTG,,T,,M,0.132,N,0.244,K,A*3F
$SMGPS,0.0 m,+0.03 m/s,8.35 VRx,0.007 km,3 m,12.5 °,1:-- (  0.0 km/h)*E2
$SMGPS2,-0.18 X,+0.04 Y,+1.00 Z,1 ENL,0 us*40
$GNRMC,163322.40,A,4807.03964,N,01116.07067,E,0.15,,160520,,,A*5B
$GNGGA,163322.40,4807.03964,N,01116.07067,E,1,12,0.67,563.7,M,46.5,M,,*41
$GNGSA,A,3,10,20,11,21,08,27,16,32,,,,,1.19,0.67,0.98*1E
$GNVTG,,T,,M,0.151,N,0.280,K,A*32
$SMGPS,0.1 m,+0.04 m/s,8.35 VRx,0.007 km,3 m,12.5 °,1:-- (  0.0 km/h)*E4
$SMGPS2,-0.20 X,+0.05 Y,+1.01 Z,0 ENL,0 us*4A
$GNRMC,163322.50,A,4807.03964,N,01116.07067,E,0.09,,160520,,,A*57
$GNGGA,163322.50,4807.03964,N,01116.07067,E,1,12,0.67,563.6,M,46.5,M,,*41
$GNGSA,A,3,10,20,11,21,08,27,16,32,,,,,1.19,0.67,0.98*1E
$GNVTG,,T,,M,0.086,N,0.159,K,A*3E
$SMGPS,0.0 m,+0.04 m/s,8.35 VRx,0.007 km,3 m,12.5 °,1:-- (  0.0 km/h)*E5
$SMGPS2,-0.20 X,+0.03 Y,+1.00 Z,0 ENL,0 us*4D
$GNRMC,163322.60,A,4807.03963,N,01116.07067,E,0.15,,160520,,,A*5E
$GNGGA,163322.60,4807.03963,N,01116.07067,E,1,12,0.67,563.7,M,46.5,M,,*44
$GNGSA,A,3,10,20,11,21,08,27,16,32,,,,,1.19,0.67,0.98*1E
$GNVTG,,T,,M,0.148,N,0.275,K,A*30
$SMGPS,0.1 m,+0.05 m/s,8.35 VRx,0.007 km,3 m,12.5 °,1:-- (  0.0 km/h)*E5
$SMGPS2,-0.19 X,+0.02 Y,+1.00 Z,0 ENL,0 us*46
$GNRMC,163322.70,A,4807.03963,N,01116.07067,E,0.09,,160520,,,A*52
$GNGGA,163322.70,4807.03963,N,01116.07067,E,1,12,0.67,563.6,M,46.5,M,,*44
$GNGSA,A,3,10,20,11,21,08,27,16,32,,,,,1.19,0.67,0.98*1E
$GNVTG,,T,,M,0.059,N,0.110,K,A*31
$SMGPS,0.0 m,+0.05 m/s,8.35 VRx,0.007 km,3 m,12.5 °,1:-- (  0.0 km/h)*E4
$SMGPS2,-0.21 X,+0.04 Y,+1.01 Z,0 ENL,0 us*4A
$GNRMC,163322.80,A,4807.03962,N,01116.07067,E,0.10,,160520,,,A*54
$GNGGA,163322.80,4807.03962,N,01116.07067,E,1,12,0.67,563.6,M,46.5,M,,*4A
$GNGSA,A,3,10,20,11,21,08,27,16,32,,,,,1.19,0.67,0.98*1E
$GNVTG,,T,,M,0.052,N,0.095,K,A*36
$SMGPS,-0.0 m,+0.06 m/s,8.35 VRx,0.007 km,3 m,12.5 °,1:-- (  0.0 km/h)*CA
$SMGPS2,-0.19 X,+0.03 Y,+0.99 Z,0 ENL,0 us*46
$GNRMC,163322.90,A,4807.03962,N,01116.07066,E,0.11,,160520,,,A*55
$GNGGA,163322.90,4807.03962,N,01116.07066,E,1,12,0.67,563.6,M,46.5,M,,*4A
$GNGSA,A,3,10,20,11,21,08,27,16,32,,,,,1.19,0.67,0.98*1E
$GNVTG,,T,,M,0.041,N,0.076,K,A*39
$SMGPS,0.0 m,+0.06 m/s,8.35 VRx,0.007 km,3 m,12.5 °,1:-- (  0.0 km/h)*E7
$SMGPS2,-0.19 X,+0.04 Y,+0.99 Z,0 ENL,0 us*41
$GNRMC,163323.00,A,4807.03961,N,01116.07066,E,0.15,,160520,,,A*5A
$GNGGA,163323.00,4807.03961,N,01116.07066,E,1,12,0.67,563.6,M,46.5,M,,*41
$GNGSA,A,3,10,20,11,21,08,27,16,32,,,,,1.19,0.67,0.98*1E
$GNVTG,,T,,M,0.116,N,0.214,K,A*3C
$SMGPS,-0.0 m,+0.07 m/s,8.35 VRx,0.007 km,3 m,12.5 °,1:-- (  0.0 km/h)*CB
$SMGPS2,-0.20 X,+0.06 Y,+1.01 Z,0 ENL,0 us*49
$GNRMC,163323.10,A,4807.03961,N,01116.07066,E,0.09,,160520,,,A*56
$GNGGA,163323.10,4807.03961,N,01116.07066,E,1,12,0.67,563.6,M,46.5,M,,*40
$GNGSA,A,3,10,20,11,21,08,27,16,32,,,,,1.19,0.67,0.98*1E
$GNVTG,,T,,M,0.035,N,0.065,K,A*38
$SMGPS,-0.0 m,+0.06 m/s,8.35 VRx,0.007 km,3 m,12.5 °,1:-- (  0.0 km/h)*CA
$SMGPS2,-0.20 X,+0.07 Y,+1.01 Z,2 ENL,0 us*4A
$GNRMC,163323.20,A,4807.03961,N,01116.07066,E,0.16,,160520,,,A*5B
$GNGGA,163323.20,4807.03961,N,01116.07066,E,1,12,0.67,563.6,M,46.5,M,,*43
$GNGSA,A,3,10,20,11,21,08,27,16,32,,,,,1.19,0.67,0.98*1E
$GNVTG,,T,,M,0.140,N,0.260,K,A*3C
$SMGPS,0.0 m,+0.05 m/s,8.35 VRx,0.007 km,3 m,12.5 °,1:-- (  0.0 km/h)*E4
$SMGPS2,-0.21 X,+0.04 Y,+1.00 Z,1 ENL,0 us*4A
$GNRMC,163323.30,A,4807.03961,N,01116.07065,E,0.09,,160520,,,A*57
$GNGGA,163323.30,4807.03961,N,01116.07065,E,1,12,0.67,563.6,M,46.5,M,,*41
$GNGSA,A,3,10,20,11,21,08,27,16,32,,,,,1.19,0.67,0.98*1E
$GNVTG,,T,,M,0.059,N,0.110,K,A*31
$SMGPS,0.0 m,+0.04 m/s,8.35 VRx,0.007 km,3 m,12.5 °,1:-- (  0.0 km/h)*E5
$SMGPS2,-0.21 X,+0.07 Y,+1.01 Z,0 ENL,0 us*49
$GNRMC,163323.40,A,4807.03960,N,01116.07065,E,0.22,,160520,,,A*58
$GNGGA,163323.40,4807.03960,N,01116.07065,E,1,12,0.67,563.6,M,46.5,M,,*47
$GNGSA,A,3,10,20,11,21,08,27,16,32,,,,,1.19,0.67,0.98*1E
$GNVTG,,T,,M,0.217,N,0.401,K,A*3C
$SMGPS,0.0 m,+0.03 m/s,8.35 VRx,0.007 km,3 m,12.5 °,1:-- (  0.0 km/h)*E2
$SMGPS2,-0.19 X,+0.07 Y,+1.02 Z,0 ENL,0 us*41
$GNRMC,163323.50,A,4807.03960,N,01116.07064,E,0.09,,160520,,,A*51
$GNGGA,163323.50,4807.03960,N,01116.07064,E,1,12,0.67,563.6,M,46.5,M,,*47
$GNGSA,A,3,10,20,11,21,08,27,16,32,,,,,1.19,0.67,0.98*1E
$GNVTG,,T,,M,0.088,N,0.162,K,A*38
$SMGPS,0.0 m,+0.02 m/s,8.35 VRx,0.007 km,3 m,12.5 °,1:-- (  0.0 km/h)*E3
$SMGPS2,-0.18 X,+0.07 Y,+0.99 Z,0 ENL,0 us*43
$GNRMC,163323.60,A,4807.03960,N,01116.07064,E,0.09,,160520,,,A*52
$GNGGA,163323.60,4807.03960,N,01116.07064,E,1,12,0.67,563.6,M,46.5,M,,*44
$GNGSA,A,3,10,20,11,21,08,27,16,32,,,,,1.19,0.67,0.98*1E
$GNVTG,,T,,M,0.086,N,0.159,K,A*3E
$SMGPS,0.0 m,+0.02 m/s,8.35 VRx,0.007 km,3 m,12.5 °,1:-- (  0.0 km/h)*E3
$SMGPS2,-0.17 X,+0.06 Y,+0.96 Z,0 ENL,0 us*42
$GNRMC,163323.70,A,4807.03960,N,01116.07064,E,0.16,,160520,,,A*5D
$GNGGA,163323.70,4807.03960,N,01116.07064,E,1,12,0.67,563.6,M,46.5,M,,*45
$GNGSA,A,3,10,20,11,21,08,27,16,32,,,,,1.19,0.67,0.98*1E
$GNVTG,,T,,M,0.155,N,0.287,K,A*31
$SMGPS,0.0 m,+0.01 m/s,8.35 VRx,0.007 km,3 m,12.5 °,1:-- (  0.0 km/h)*E0
$SMGPS2,-0.18 X,+0.05 Y,+0.99 Z,0 ENL,0 us*41
$GNRMC,163323.80,A,4807.03959,N,01116.07064,E,0.07,,160520,,,A*58
$GNGGA,163323.80,4807.03959,N,01116.07064,E,1,12,0.67,563.6,M,46.5,M,,*40
$GNGSA,A,3,10,20,11,21,08,27,16,32,,,,,1.19,0.67,0.98*1E
$GNVTG,,T,,M,0.066,N,0.123,K,A*3D
$SMGPS,-0.0 m,+0.01 m/s,8.35 VRx,0.007 km,3 m,12.5 °,1:-- (  0.0 km/h)*CD
$SMGPS2,-0.17 X,+0.08 Y,+1.01 Z,0 ENL,0 us*43
$GNRMC,163323.90,A,4807.03959,N,01116.07063,E,0.08,,160520,,,A*51
$GNGGA,163323.90,4807.03959,N,01116.07063,E,1,12,0.67,563.6,M,46.5,M,,*46
$GNGSA,A,3,10,20,11,21,08,27,16,32,,,,,1.19,0.67,0.98*1E
$GNVTG,,T,,M,0.074,N,0.137,K,A*3B
$SMGPS,-0.0 m,+0.01 m/s,8.35 VRx,0.007 km,3 m,12.5 °,1:-- (  0.0 km/h)*CD
$SMGPS2,-0.19 X,+0.08 Y,+0.99 Z,20 ENL,0 us*7F
$GNRMC,163324.00,A,4807.03959,N,01116.07063,E,0.09,,160520,,,A*5E
$GNGGA,163324.00,4807.03959,N,01116.07063,E,1,12,0.67,563.5,M,46.5,M,,*4B
$GNGSA,A,3,10,20,11,21,08,27,16,32,,,,,1.19,0.67,0.98*1E
$GNVTG,,T,,M,0.088,N,0.162,K,A*38
$SMGPS,-0.1 m,+0.00 m/s,8.35 VRx,0.007 km,3 m,12.5 °,1:-- (  0.0 km/h)*CD
$SMGPS2,-0.21 X,+0.06 Y,+0.99 Z,2 ENL,0 us*4A
$GNRMC,163324.10,A,4807.03958,N,01116.07063,E,0.04,,160520,,,A*53
$GNGGA,163324.10,4807.03958,N,01116.07063,E,1,12,0.67,563.5,M,46.5,M,,*4B
$GNGSA,A,3,10,20,11,21,08,27,16,32,,,,,1.19,0.67,0.98*1E
$GNVTG,,T,,M,0.032,N,0.060,K,A*3A
$SMGPS,-0.1 m,-0.01 m/s,8.35 VRx,0.007 km,3 m,12.5 °,1:-- (  0.0 km/h)*CA
$SMGPS2,-0.19 X,+0.09 Y,+0.99 Z,0 ENL,0 us*4C
$GNRMC,163324.20,A,4807.03958,N,01116.07063,E,0.13,,160520,,,A*56
$GNGGA,163324.20,4807.03958,N,01116.07063,E,1,12,0.67,563.6,M,46.5,M,,*4B
$GNGSA,A,3,10,20,11,21,08,27,16,32,,,,,1.19,0.67,0.98*1E
$GNVTG,,T,,M,0.129,N,0.238,K,A*3E
$SMGPS,-0.0 m,-0.01 m/s,8.35 VRx,0.007 km,3 m,12.5 °,1:-- (  0.0 km/h)*CB
$SMGPS2,-0.19 X,+0.07 Y,+1.03 Z,0 ENL,0 us*40
$GNRMC,163324.30,A,4807.03957,N,01116.07063,E,0.16,,160520,,,A*5D
$GNGGA,163324.30,4807.03957,N,01116.07063,E,1,12,0.67,563.6,M,46.5,M,,*45
$GNGSA,A,3,10,20,11,21,08,27,16,32,,,,,1.19,0.67,0.98*1E
$GNVTG,,T,,M,0.151,N,0.280,K,A*32
$SMGPS,-0.0 m,-0.02 m/s,8.35 VRx,0.007 km,3 m,12.5 °,1:-- (  0.0 km/h)*C8
$SMGPS2,-0.21 X,+0.05 Y,+1.01 Z,0 ENL,0 us*4B
$GNRMC,163324.40,A,4807.03956,N,01116.07063,E,0.06,,160520,,,A*5A
$GNGGA,163324.40,4807.03956,N,01116.07063,E,1,12,0.67,563.6,M,46.5,M,,*43
$GNGSA,A,3,10,20,11,21,08,27,16,32,,,,,1.19,0.67,0.98*1E
$GNVTG,,T,,M,0.009,N,0.016,K,A*33
$SMGPS,0.0 m,-0.03 m/s,8.35 VRx,0.007 km,3 m,12.5 °,1:-- (  0.0 km/h)*E4
$SMGPS2,-0.22 X,+0.06 Y,+0.97 Z,1 ENL,0 us*44
$GNRMC,163324.50,A,4807.03956,N,01116.07063,E,0.15,,160520,,,A*59
$GNGGA,163324.50,4807.03956,N,01116.07063,E,1,12,0.67,563.6,M,46.5,M,,*42
$GNGSA,A,3,10,20,11,21,08,27,16,32,,,,,1.19,0.67,0.98*1E
$GNVTG,,T,,M,0.131,N,0.242,K,A*3A
$SMGPS,-0.0 m,-0.03 m/s,8.35 VRx,0.007 km,3 m,12.5 °,1:-- (  0.0 km/h)*C9
$SMGPS2,-0.23 X,+0.08 Y,+0.98 Z,1 ENL,0 us*44
$GNRMC,163324.60,A,4807.03955,N,01116.07062,E,0.13,,160520,,,A*5E
$GNGGA,163324.60,4807.03955,N,01116.07062,E,1,12,0.67,563.6,M,46.5,M,,*43
$GNGSA,A,3,10,20,11,21,08,27,16,32,,,,,1.19,0.67,0.98*1E
$GNVTG,,T,,M,0.112,N,0.207,K,A*3A
$SMGPS,-0.0 m,-0.03 m/s,8.35 VRx,0.007 km,3 m,12.5 °,1:-- (  0.0 km/h)*C9
$SMGPS2,-0.21 X,+0.09 Y,+1.00 Z,0 ENL,0 us*46
$GNRMC,163324.70,A,4807.03955,N,01116.07062,E,0.09,,160520,,,A*54
$GNGGA,163324.70,4807.03955,N,01116.07062,E,1,12,0.67,563.6,M,46.5,M,,*42
$GNGSA,A,3,10,20,11,21,08,27,16,32,,,,,1.19,0.67,0.98*1E
$GNVTG,,T,,M,0.072,N,0.133,K,A*39
$SMGPS,0.0 m,-0.04 m/s,8.35 VRx,0.007 km,3 m,12.5 °,1:-- (  0.0 km/h)*E3
$SMGPS2,-0.19 X,+0.05 Y,+1.01 Z,0 ENL,0 us*40
$GNRMC,163324.80,A,4807.03955,N,01116.07062,E,0.08,,160520,,,A*5A
$GNGGA,163324.80,4807.03955,N,01116.07062,E,1,12,0.67,563.7,M,46.5,M,,*4C
$GNGSA,A,3,10,20,11,21,08,27,16,32,,,,,1.19,0.67,0.98*1E
$GNVTG,,T,,M,0.063,N,0.116,K,A*3E
$SMGPS,0.1 m,-0.03 m/s,8.35 VRx,0.007 km,3 m,12.5 °,1:-- (  0.0 km/h)*E5
$SMGPS2,-0.20 X,+0.06 Y,+1.01 Z,1 ENL,0 us*48
$GNRMC,163324.90,A,4807.03955,N,01116.07062,E,0.06,,160520,,,A*55
$GNGGA,163324.90,4807.03955,N,01116.07062,E,1,12,0.67,563.7,M,46.5,M,,*4D
$GNGSA,A,3,10,20,11,21,08,27,16,32,,,,,1.19,0.67,0.98*1E
$GNVTG,,T,,M,0.063,N,0.117,K,A*3F
$SMGPS,0.1 m,-0.02 m/s,8.35 VRx,0.007 km,3 m,12.5 °,1:-- (  0.0 km/h)*E4
$SMGPS2,-0.17 X,+0.03 Y,+0.98 Z,1 ENL,0 us*48
$GNRMC,163325.00,A,4807.03954,N,01116.07062,E,0.13,,160520,,,A*58
$GNGGA,163325.00,4807.03954,N,01116.07062,E,1,12,0.67,563.6,M,46.5,M,,*45
$GNGSA,A,3,10,20,11,21,08,27,16,32,,,,,1.19,0.67,0.98*1E
$GNVTG,,T,,M,0.125,N,0.232,K,A*38
$SMGPS,0.0 m,+0.01 m/s,8.35 VRx,0.007 km,3 m,12.5 °,1:-- (  0.0 km/h)*E0
$SMGPS2,-0.18 X,+0.07 Y,+1.02 Z,1 ENL,0 us*41
$GNRMC,163325.10,A,4807.03954,N,01116.07061,E,0.18,,160520,,,A*51
$GNGGA,163325.10,4807.03954,N,01116.07061,E,1,12,0.67,563.5,M,46.5,M,,*44
$GNGSA,A,3,10,20,11,21,08,27,16,32,,,,,1.19,0.67,0.98*1E
$GNVTG,,T,,M,0.176,N,0.326,K,A*3A
$SMGPS,-0.1 m,+0.01 m/s,8.35 VRx,0.007 km,3 m,12.5 °,1:-- (  0.0 km/h)*CC
$SMGPS2,-0.22 X,+0.05 Y,+1.06 Z,4 ENL,0 us*4B
$GNRMC,163325.20,A,4807.03953,N,01116.07061,E,0.07,,160520,,,A*5B
$GNGGA,163325.20,4807.03953,N,01116.07061,E,1,12,0.67,563.6,M,46.5,M,,*43
$GNGSA,A,3,10,20,11,21,08,27,16,32,,,,,1.19,0.67,0.98*1E
$GNVTG,,T,,M,0.064,N,0.118,K,A*37
$SMGPS,0.0 m,+0.02 m/s,8.35 VRx,0.007 km,3 m,9.5 °,1:-- (  0.0 km/h)*D9
$SMGPS2,-0.25 X,+0.09 Y,+0.96 Z,3 ENL,0 us*4F
$GNRMC,163325.30,A,4807.03952,N,01116.07061,E,0.10,,160520,,,A*5D
$GNGGA,163325.30,4807.03952,N,01116.07061,E,1,12,0.67,564.0,M,46.5,M,,*42
$GNGSA,A,3,10,20,11,21,08,27,16,32,,,,,1.19,0.67,0.98*1E
$GNVTG,,T,,M,0.013,N,0.024,K,A*39
$SMGPS,0.4 m,+0.07 m/s,8.35 VRx,0.007 km,3 m,9.5 °,1:-- (  0.0 km/h)*D8
$SMGPS2,-0.21 X,+0.05 Y,+1.02 Z,10 ENL,0 us*79
$GNRMC,163325.40,A,4807.03952,N,01116.07061,E,0.14,,160520,,,A*5E
$GNGGA,163325.40,4807.03952,N,01116.07061,E,1,12,0.67,563.6,M,46.5,M,,*44
$GNGSA,A,3,10,20,11,21,08,27,16,32,,,,,1.19,0.67,0.98*1E
$GNVTG,,T,,M,0.026,N,0.048,K,A*35
$SMGPS,0.0 m,+0.10 m/s,8.35 VRx,0.007 km,3 m,9.5 °,1:-- (  0.0 km/h)*DA
$SMGPS2,-0.23 X,+0.11 Y,+0.99 Z,30 ENL,0 us*7F
$GNRMC,163325.50,A,4807.03952,N,01116.07060,E,0.32,,160520,,,A*5A
$GNGGA,163325.50,4807.03952,N,01116.07060,E,1,12,0.67,563.8,M,46.5,M,,*4A
$GNGSA,A,3,10,20,11,21,08,27,16,32,,,,,1.19,0.67,0.98*1E
$GNVTG,,T,,M,0.224,N,0.416,K,A*3A
$SMGPS,0.2 m,+0.14 m/s,8.35 VRx,0.007 km,3 m,9.5 °,1:-- (  0.0 km/h)*DC
$SMGPS2,-0.26 X,+0.10 Y,+0.98 Z,67 ENL,0 us*78
$GNRMC,163325.60,A,4807.03951,N,01116.07059,E,0.41,,160520,,,A*54
$GNGGA,163325.60,4807.03951,N,01116.07059,E,1,12,0.67,564.6,M,46.5,M,,*49
$GNGSA,A,3,10,20,11,21,08,27,16,32,,,,,1.19,0.67,0.98*1E
$GNVTG,,T,,M,0.132,N,0.245,K,A*3E
$SMGPS,1.0 m,+0.23 m/s,8.35 VRx,0.007 km,3 m,9.5 °,1:-- (  0.0 km/h)*DB
$SMGPS2,-0.28 X,+0.13 Y,+1.02 Z,466 ENL,0 us*42
$GNRMC,163325.70,A,4807.03951,N,01116.07059,E,0.77,,160520,,,A*50
$GNGGA,163325.70,4807.03951,N,01116.07059,E,1,12,0.67,565.4,M,46.5,M,,*4B
$GNGSA,A,3,10,20,11,21,08,27,16,32,,,,,1.19,0.67,0.98*1E
$GNVTG,,T,,M,0.155,N,0.287,K,A*31
$SMGPS,1.8 m,+0.43 m/s,8.35 VRx,0.007 km,3 m,9.5 °,1:-- (  0.0 km/h)*D5
$SMGPS2,-0.28 X,+0.10 Y,+0.96 Z,744 ENL,0 us*4E
$GNRMC,163325.80,A,4807.03952,N,01116.07058,E,1.39,,160520,,,A*56
$GNGGA,163325.80,4807.03952,N,01116.07058,E,1,12,0.67,565.2,M,46.5,M,,*40
$GNGSA,A,3,10,20,11,21,08,27,16,32,,,,,1.19,0.67,0.98*1E
$GNVTG,,T,,M,0.199,N,0.369,K,A*30
$SMGPS,1.6 m,+0.76 m/s,8.35 VRx,0.007 km,4 m,9.5 °,1:-- (  0.0 km/h)*DA
$SMGPS2,-0.17 X,+0.06 Y,+1.00 Z,917 ENL,0 us*43
$GNRMC,163325.90,A,4807.03952,N,01116.07058,E,1.85,,160520,,,A*50
$GNGGA,163325.90,4807.03952,N,01116.07058,E,1,12,0.67,565.7,M,46.5,M,,*44
$GNGSA,A,3,10,20,11,21,08,27,16,32,,,,,1.19,0.67,0.98*1E
$GNVTG,,T,,M,0.309,N,0.573,K,A*36
$SMGPS,2.1 m,+0.97 m/s,8.35 VRx,0.007 km,4 m,9.5 °,1:-- (  0.0 km/h)*D1
$SMGPS2,-0.11 X,+0.08 Y,+0.99 Z,935 ENL,0 us*4A
$GNRMC,163326.00,A,4807.03952,N,01116.07058,E,2.18,,160520,,,A*5D
$GNGGA,163326.00,4807.03952,N,01116.07058,E,1,12,0.67,566.1,M,46.5,M,,*4B
$GNGSA,A,3,10,20,11,21,08,27,16,32,,,,,1.19,0.67,0.98*1E
$GNVTG,,T,,M,0.065,N,0.120,K,A*3D
$SMGPS,2.5 m,+1.13 m/s,8.35 VRx,0.007 km,4 m,9.5 °,1:-- (  0.0 km/h)*D8
$SMGPS2,-0.12 X,+0.07 Y,+1.01 Z,897 ENL,0 us*4F
$GNRMC,163326.10,A,4807.03952,N,01116.07058,E,2.52,,160520,,,A*52
$GNGGA,163326.10,4807.03952,N,01116.07058,E,1,12,0.67,565.8,M,46.5,M,,*40
$GNGSA,A,3,10,20,11,21,08,27,16,32,,,,,1.19,0.67,0.98*1E
$GNVTG,,T,,M,0.086,N,0.159,K,A*3E
$SMGPS,2.2 m,+1.28 m/s,8.35 VRx,0.007 km,4 m,9.5 °,1:-- (  0.0 km/h)*D7
$SMGPS2,-0.16 X,+0.10 Y,+1.06 Z,865 ENL,0 us*47
$GNRMC,163326.20,A,4807.03951,N,01116.07058,E,2.73,,160520,,,A*51
$GNGGA,163326.20,4807.03951,N,01116.07058,E,1,12,0.67,566.0,M,46.5,M,,*4B
$GNGSA,A,3,10,20,11,21,08,27,16,32,,,,,1.19,0.67,0.98*1E
$GNVTG,,T,,M,0.190,N,0.352,K,A*31
$SMGPS,2.4 m,+1.38 m/s,8.35 VRx,0.007 km,4 m,9.5 °,1:-- (  0.0 km/h)*D0
$SMGPS2,-0.24 X,+0.08 Y,+0.99 Z,840 ENL,0 us*4F
$GNRMC,163326.30,A,4807.03950,N,01116.07058,E,2.96,,160520,,,A*5A
$GNGGA,163326.30,4807.03950,N,01116.07058,E,1,12,0.67,566.4,M,46.5,M,,*4F
$GNGSA,A,3,10,20,11,21,08,27,16,32,,,,,1.19,0.67,0.98*1E
$GNVTG,,T,,M,0.198,N,0.367,K,A*3F
$SMGPS,2.8 m,+1.48 m/s,8.35 VRx,0.007 km,4 m,9.5 °,1:-- (  0.0 km/h)*DB
$SMGPS2,-0.23 X,+0.12 Y,+0.99 Z,896 ENL,0 us*48
$GNRMC,163326.40,A,4807.03950,N,01116.07058,E,2.90,,160520,,,A*5B
$GNGGA,163326.40,4807.03950,N,01116.07058,E,1,12,0.67,565.9,M,46.5,M,,*46
$GNGSA,A,3,10,20,11,21,08,27,16,32,,,,,1.19,0.67,0.98*1E
$GNVTG,,T,,M,0.126,N,0.233,K,A*3A
$SMGPS,2.3 m,+1.39 m/s,8.35 VRx,0.007 km,5 m,9.5 °,1:-- (  0.0 km/h)*D7
$SMGPS2,-0.23 X,+0.10 Y,+1.06 Z,819 ENL,0 us*4A
$GNRMC,163326.50,A,4807.03950,N,01116.07058,E,2.59,,160520,,,A*5F
$GNGGA,163326.50,4807.03950,N,01116.07058,E,1,12,0.67,565.9,M,46.5,M,,*47
$GNGSA,A,3,10,20,11,21,08,27,16,32,,,,,1.19,0.67,0.98*1E
$GNVTG,,T,,M,0.042,N,0.078,K,A*34
$SMGPS,2.3 m,+1.19 m/s,8.35 VRx,0.007 km,4 m,9.5 °,1:-- (  0.0 km/h)*D4
$SMGPS2,-0.15 X,+0.08 Y,+0.97 Z,893 ENL,0 us*4D
$GNRMC,163326.60,A,4807.03949,N,01116.07058,E,2.37,,160520,,,A*5C
$GNGGA,163326.60,4807.03949,N,01116.07058,E,1,12,0.67,565.9,M,46.5,M,,*4C
$GNGSA,A,3,10,20,11,21,08,27,16,32,,,,,1.19,0.67,0.98*1E
$GNVTG,,T,,M,0.096,N,0.178,K,A*3C
$SMGPS,2.3 m,+1.04 m/s,8.35 VRx,0.007 km,4 m,9.5 °,1:-- (  0.0 km/h)*D8
$SMGPS2,-0.16 X,+0.06 Y,+0.95 Z,813 ENL,0 us*4A
$GNRMC,163326.70,A,4807.03949,N,01116.07057,E,2.15,,160520,,,A*52
$GNGGA,163326.70,4807.03949,N,01116.07057,E,1,12,0.67,565.9,M,46.5,M,,*42
$GNGSA,A,3,10,20,11,21,08,27,16,32,,,,,1.19,0.67,0.98*1E
$GNVTG,,T,,M,0.191,N,0.353,K,A*31
$SMGPS,2.3 m,+0.95 m/s,8.35 VRx,0.007 km,4 m,9.5 °,1:-- (  0.0 km/h)*D1
$SMGPS2,-0.22 X,+0.10 Y,+0.97 Z,824 ENL,0 us*4C
$GNRMC,163326.80,A,4807.03948,N,01116.07057,E,2.10,,160520,,,A*59
$GNGGA,163326.80,4807.03948,N,01116.07057,E,1,12,0.67,566.5,M,46.5,M,,*43
$GNGSA,A,3,10,20,11,21,08,27,16,32,,,,,1.19,0.67,0.98*1E
$GNVTG,,T,,M,0.200,N,0.371,K,A*3A
$SMGPS,2.9 m,+0.96 m/s,8.35 VRx,0.007 km,4 m,9.5 °,1:-- (  0.0 km/h)*D8
$SMGPS2,-0.27 X,+0.09 Y,+1.00 Z,817 ENL,0 us*4E
$GNRMC,163326.90,A,4807.03947,N,01116.07057,E,1.98,,160520,,,A*54
$GNGGA,163326.90,4807.03947,N,01116.07057,E,1,12,0.67,566.2,M,46.5,M,,*4A
$GNGSA,A,3,10,20,11,21,08,27,16,32,,,,,1.19,0.67,0.98*1E
$GNVTG,,T,,M,0.171,N,0.317,K,A*3F
$SMGPS,2.6 m,+0.94 m/s,8.35 VRx,0.007 km,5 m,9.5 °,1:-- (  0.0 km/h)*D4
$SMGPS2,-0.34 X,+0.12 Y,+0.94 Z,927 ENL,0 us*48
$GNRMC,163327.00,A,4807.03946,N,01116.07057,E,2.04,,160520,,,A*5B
$GNGGA,163327.00,4807.03946,N,01116.07057,E,1,12,0.67,567.5,M,46.5,M,,*45
$GNGSA,A,3,10,20,11,21,08,27,16,32,,,,,1.19,0.67,0.98*1E
$GNVTG,,T,,M,0.097,N,0.180,K,A*3A
$SMGPS,3.9 m,+0.95 m/s,8.35 VRx,0.007 km,4 m,9.5 °,1:-- (  0.0 km/h)*DA
$SMGPS2,-0.36 X,+0.10 Y,+0.99 Z,999 ENL,0 us*40
$GNRMC,163327.10,A,4807.03946,N,01116.07057,E,2.15,,160520,,,A*5A
$GNGGA,163327.10,4807.03946,N,01116.07057,E,1,12,0.67,567.4,M,46.5,M,,*45
$GNGSA,A,3,10,20,11,21,08,27,16,32,,,,,1.19,0.67,0.98*1E
$GNVTG,,T,,M,0.053,N,0.098,K,A*3A
$SMGPS,3.8 m,+1.05 m/s,8.35 VRx,0.007 km,6 m,9.5 °,1:-- (  0.0 km/h)*D1
$SMGPS2,-0.38 X,+0.05 Y,+0.92 Z,999 ENL,0 us*41
$GNRMC,163327.20,A,4807.03946,N,01116.07057,E,2.63,,160520,,,A*58
$GNGGA,163327.20,4807.03946,N,01116.07057,E,1,12,0.67,568.4,M,46.5,M,,*49
$GNGSA,A,3,10,20,11,21,08,27,16,32,,,,,1.19,0.67,0.98*1E
$GNVTG,,T,,M,0.190,N,0.351,K,A*32
$SMGPS,4.8 m,+1.31 m/s,8.35 VRx,0.007 km,6 m,9.5 °,1:-- (  0.0 km/h)*D1
$SMGPS2,-0.26 X,+0.17 Y,+1.01 Z,999 ENL,0 us*46
$GNRMC,163327.30,A,4807.03946,N,01116.07057,E,3.48,,160520,,,A*51
$GNGGA,163327.30,4807.03946,N,01116.07057,E,1,12,0.67,569.4,M,46.5,M,,*49
$GNGSA,A,3,10,20,11,21,08,27,16,32,,,,,1.19,0.67,0.98*1E
$GNVTG,,T,,M,0.151,N,0.280,K,A*32
$SMGPS,5.8 m,+1.79 m/s,8.35 VRx,0.007 km,6 m,9.5 °,1:-- (  0.0 km/h)*DC
$SMGPS2,-0.20 X,+0.15 Y,+1.07 Z,999 ENL,0 us*44
$GNRMC,163327.40,A,4807.03945,N,01116.07057,E,4.11,,160520,,,A*5E
$GNGGA,163327.40,4807.03945,N,01116.07057,E,1,12,0.67,570.0,M,46.5,M,,*41
$GNGSA,A,3,10,20,11,21,08,27,16,32,,,,,1.19,0.67,0.98*1E
$GNVTG,,T,,M,0.162,N,0.299,K,A*3A
$SMGPS,6.4 m,+2.06 m/s,8.35 VRx,0.007 km,7 m,9.5 °,1:-- (  0.0 km/h)*D9
$SMGPS2,-0.08 X,-0.06 Y,+0.92 Z,999 ENL,0 us*47
$GNRMC,163327.50,A,4807.03945,N,01116.07057,E,4.43,,160520,,,A*58
$GNGGA,163327.50,4807.03945,N,01116.07057,E,1,12,0.67,568.9,M,46.5,M,,*40
$GNGSA,A,3,10,20,11,21,08,27,16,32,,,,,1.19,0.67,0.98*1E
$GNVTG,,T,,M,0.304,N,0.564,K,A*3D
$SMGPS,5.3 m,+2.22 m/s,8.35 VRx,0.007 km,8 m,9.5 °,1:-- (  0.0 km/h)*D4
$SMGPS2,-0.23 X,-0.07 Y,+0.88 Z,999 ENL,0 us*44
$GNRMC,163327.60,A,4807.03943,N,01116.07056,E,4.84,283.94,160520,,,A*4D
$GNGGA,163327.60,4807.03943,N,01116.07056,E,1,12,0.67,569.6,M,46.5,M,,*4A
$GNGSA,A,3,10,20,11,21,08,27,16,32,,,,,1.19,0.67,0.98*1E
$GNVTG,283.94,T,,M,0.677,N,1.254,K,A*23
$SMGPS,6.0 m,+2.41 m/s,8.35 VRx,0.007 km,7 m,9.5 °,1:-- (  0.0 km/h)*DE
$SMGPS2,-0.32 X,+0.02 Y,+0.91 Z,999 ENL,0 us*4F
$GNRMC,163327.70,A,4807.03942,N,01116.07054,E,4.68,255.88,160520,,,A*4B
$GNGGA,163327.70,4807.03942,N,01116.07054,E,1,12,0.67,568.0,M,46.5,M,,*4F
$GNGSA,A,3,10,20,11,21,08,27,16,32,,,,,1.19,0.67,0.98*1E
$GNVTG,255.88,T,,M,0.788,N,1.459,K,A*2F
$SMGPS,4.4 m,+2.28 m/s,8.35 VRx,0.007 km,8 m,9.5 °,1:-- (  0.0 km/h)*D8
$SMGPS2,-0.36 X,+0.09 Y,+1.05 Z,999 ENL,0 us*4C
$GNRMC,163327.80,A,4807.03940,N,01116.07051,E,4.71,,160520,,,A*57
$GNGGA,163327.80,4807.03940,N,01116.07051,E,1,12,0.67,570.2,M,46.5,M,,*4C
$GNGSA,A,3,10,20,11,21,08,27,16,32,,,,,1.19,0.67,0.98*1E
$GNVTG,,T,,M,0.627,N,1.162,K,A*3A
$SMGPS,6.6 m,+2.25 m/s,8.35 VRx,0.007 km,6 m,9.5 °,1:-- (  0.0 km/h)*DB
$SMGPS2,-0.42 X,+0.10 Y,+0.89 Z,999 ENL,0 us*42
$GNRMC,163327.90,A,4807.03940,N,01116.07048,E,3.97,,160520,,,A*51
$GNGGA,163327.90,4807.03940,N,01116.07048,E,1,12,0.67,567.0,M,46.5,M,,*41
$GNGSA,A,3,10,20,11,21,08,27,16,32,,,,,1.19,0.67,0.98*1E
$GNVTG,,T,,M,0.609,N,1.128,K,A*38
$SMGPS,3.4 m,+1.96 m/s,8.35 VRx,0.007 km,8 m,9.5 °,1:-- (  0.0 km/h)*D9
$SMGPS2,-0.50 X,+0.13 Y,+0.82 Z,999 ENL,0 us*49
$GNRMC,163328.00,A,4807.03941,N,01116.07045,E,3.35,288.35,160520,,,A*49
$GNGGA,163328.00,4807.03941,N,01116.07045,E,1,12,0.67,566.8,M,46.5,M,,*42
$GNGSA,A,3,10,20,11,21,08,27,16,32,,,,,1.19,0.67,0.98*1E
$GNVTG,288.35,T,,M,0.913,N,1.690,K,A*22
$SMGPS,3.2 m,+1.54 m/s,8.35 VRx,0.007 km,5 m,6.3 °,1:-- (  0.0 km/h)*D5
$SMGPS2,-0.57 X,+0.21 Y,+0.75 Z,999 ENL,0 us*47
$GNRMC,163328.10,A,4807.03943,N,01116.07042,E,2.18,305.60,160520,,,A*47
$GNGGA,163328.10,4807.03943,N,01116.07042,E,1,12,0.67,567.3,M,46.5,M,,*4C
$GNGSA,A,3,10,20,11,21,08,27,16,32,,,,,1.19,0.67,0.98*1E
$GNVTG,305.60,T,,M,1.059,N,1.962,K,A*22
$SMGPS,3.7 m,+0.90 m/s,8.35 VRx,0.007 km,5 m,6.3 °,1:-- (  0.0 km/h)*D9
$SMGPS2,-0.61 X,+0.18 Y,+0.65 Z,999 ENL,0 us*49
$GNRMC,163328.20,A,4807.03947,N,01116.07039,E,2.19,333.51,160520,,,A*4A
$GNGGA,163328.20,4807.03947,N,01116.07039,E,1,12,0.67,565.1,M,46.5,M,,*47
$GNGSA,A,3,10,20,11,21,08,27,16,32,,,,,1.19,0.67,0.98*1E
$GNVTG,333.51,T,,M,1.992,N,3.689,K,A*23
$SMGPS,1.5 m,+0.24 m/s,8.35 VRx,0.007 km,5 m,6.3 °,1:-- (  0.0 km/h)*D6
$SMGPS2,-0.74 X,+0.30 Y,+0.72 Z,999 ENL,0 us*41
$GNRMC,163328.30,A,4807.03953,N,01116.07037,E,2.71,343.53,160520,,,A*4B
$GNGGA,163328.30,4807.03953,N,01116.07037,E,1,12,0.67,566.8,M,46.5,M,,*47
$GNGSA,A,3,10,20,11,21,08,27,16,32,,,,,1.19,0.67,0.98*1E
$GNVTG,343.53,T,,M,2.713,N,5.024,K,A*25
$SMGPS,3.2 m,-0.27 m/s,8.35 VRx,0.007 km,4 m,6.3 °,1:-- (  0.0 km/h)*D7
$SMGPS2,-1.12 X,+0.30 Y,+0.65 Z,999 ENL,0 us*46
$GNRMC,163328.40,A,4807.03962,N,01116.07036,E,3.74,354.38,160520,,,A*40
$GNGGA,163328.40,4807.03962,N,01116.07036,E,1,12,0.67,565.9,M,46.5,M,,*41
$GNGSA,A,3,10,20,11,21,08,27,16,32,,,,,1.19,0.67,0.98*1E
$GNVTG,354.38,T,,M,3.714,N,6.878,K,A*2A
$SMGPS,2.3 m,-0.53 m/s,8.35 VRx,0.007 km,5 m,3.2 °,1:-- (  0.0 km/h)*D1
$SMGPS2,-1.26 X,+0.52 Y,+0.78 Z,999 ENL,0 us*49
$GNRMC,163328.50,A,4807.03975,N,01116.07037,E,5.98,3.21,160520,,,A*4B
$GNGGA,163328.50,4807.03975,N,01116.07037,E,1,12,0.67,566.8,M,46.5,M,,*45
$GNGSA,A,3,10,20,11,21,08,27,16,32,,,,,1.19,0.67,0.98*1E
$GNVTG,3.21,T,,M,5.876,N,10.882,K,A*1C
$SMGPS,3.2 m,-0.79 m/s,8.35 VRx,0.007 km,4 m,3.2 °,1:-- (  0.0 km/h)*D8
$SMGPS2,-1.54 X,+0.61 Y,+0.38 Z,999 ENL,0 us*48
$GNRMC,163328.60,A,4807.03995,N,01116.07041,E,8.84,6.91,160520,,,A*49
$GNGGA,163328.60,4807.03995,N,01116.07041,E,1,12,0.67,566.6,M,46.5,M,,*47
$GNGSA,A,3,10,20,11,21,08,27,16,32,,,,,1.19,0.67,0.98*1E
$GNVTG,6.91,T,,M,8.740,N,16.186,K,A*1E
$SMGPS,3.0 m,-1.07 m/s,8.35 VRx,0.007 km,5 m,3.2 °,1:-- (  0.0 km/h)*D3
$SMGPS2,-2.07 X,+0.48 Y,+0.18 Z,999 ENL,0 us*44
$GNRMC,163328.70,A,4807.04024,N,01116.07047,E,12.36,8.44,160520,,,A*7E
$GNGGA,163328.70,4807.04024,N,01116.07047,E,1,12,0.67,564.6,M,46.5,M,,*46
$GNGSA,A,3,10,20,11,21,08,27,16,32,,,,,1.19,0.67,0.98*1E
$GNVTG,8.44,T,,M,12.241,N,22.671,K,A*2F
$SMGPS,1.0 m,-1.18 m/s,8.35 VRx,0.008 km,5 m,4.8 °,1:-- (  0.0 km/h)*DD
$SMGPS2,-0.91 X,+0.35 Y,+0.42 Z,999 ENL,0 us*4C
$GNRMC,163328.80,A,4807.04059,N,01116.07057,E,13.77,10.22,160520,,,A*47
$GNGGA,163328.80,4807.04059,N,01116.07057,E,1,12,0.67,565.8,M,46.5,M,,*4D
$GNGSA,A,3,10,20,11,21,08,27,16,32,,,,,1.19,0.67,0.98*1E
$GNVTG,10.22,T,,M,13.648,N,25.276,K,A*1E
$SMGPS,2.2 m,-1.18 m/s,8.35 VRx,0.008 km,4 m,4.8 °,1:-- (  0.0 km/h)*DD
$SMGPS2,-0.69 X,+0.40 Y,+0.72 Z,999 ENL,0 us*4A
$GNRMC,163328.90,A,4807.04098,N,01116.07068,E,14.62,10.78,160520,,,A*4B
$GNGGA,163328.90,4807.04098,N,01116.07068,E,1,12,0.67,569.3,M,46.5,M,,*4A
$GNGSA,A,3,10,20,11,21,08,27,16,32,,,,,1.19,0.67,0.98*1E
$GNVTG,10.78,T,,M,14.595,N,27.030,K,A*17
$SMGPS,5.7 m,-0.47 m/s,8.35 VRx,0.009 km,6 m,5.2 °,1:-- (  0.0 km/h)*DC
$SMGPS2,-0.67 X,+0.50 Y,+0.52 Z,999 ENL,0 us*47
$GNRMC,163329.00,A,4807.04140,N,01116.07080,E,16.09,11.69,160520,,,A*4F
$GNGGA,163329.00,4807.04140,N,01116.07080,E,1,12,0.67,570.1,M,46.5,M,,*4A
$GNGSA,A,3,10,20,11,21,08,27,16,32,,,,,1.19,0.67,0.98*1E
$GNVTG,11.69,T,,M,16.088,N,29.795,K,A*1B
$SMGPS,6.5 m,+0.08 m/s,8.35 VRx,0.010 km,9 m,5.9 °,1:-- (  0.0 km/h)*DC
$SMGPS2,-0.65 X,+0.51 Y,+1.20 Z,999 ENL,0 us*40
$GNRMC,163329.10,A,4807.04185,N,01116.07095,E,17.45,12.12,160520,,,A*45
$GNGGA,163329.10,4807.04185,N,01116.07095,E,1,12,0.67,570.1,M,46.5,M,,*46
$GNGSA,A,3,10,20,11,21,08,27,16,32,,,,,1.19,0.67,0.98*1E
$GNVTG,12.12,T,,M,17.420,N,32.263,K,A*15
$SMGPS,6.5 m,+0.58 m/s,8.35 VRx,0.011 km,10 m,7.0 °,1:-- (  0.0 km/h)*EB
$SMGPS2,-0.86 X,+0.33 Y,+0.89 Z,999 ENL,0 us*4B
$GNRMC,163329.20,A,4807.04234,N,01116.07110,E,18.74,11.69,160520,,,A*41
$GNGGA,163329.20,4807.04234,N,01116.07110,E,1,12,0.67,569.2,M,46.5,M,,*4B
$GNGSA,A,3,10,20,11,21,08,27,16,32,,,,,1.19,0.67,0.98*1E
$GNVTG,11.69,T,,M,18.668,N,34.573,K,A*1B
$SMGPS,5.6 m,+0.92 m/s,8.35 VRx,0.012 km,11 m,7.3 °,1:-- (  0.0 km/h)*EC
$SMGPS2,-0.87 X,+0.35 Y,+1.29 Z,999 ENL,0 us*47
$GNRMC,163329.30,A,4807.04288,N,01116.07126,E,20.83,11.08,160520,,,A*46
$GNGGA,163329.30,4807.04288,N,01116.07126,E,1,12,0.67,568.6,M,46.5,M,,*4D
$GNGSA,A,3,10,20,11,21,08,27,16,32,,,,,1.19,0.67,0.98*1E
$GNVTG,11.08,T,,M,20.715,N,38.365,K,A*11
$SMGPS,5.0 m,+1.28 m/s,8.35 VRx,0.013 km,11 m,7.5 °,1:-- (  0.0 km/h)*ED
$SMGPS2,-0.87 X,+0.21 Y,+1.58 Z,999 ENL,0 us*44
$GNRMC,163329.40,A,4807.04345,N,01116.07141,E,21.83,9.59,160520,,,A*7C
$GNGGA,163329.40,4807.04345,N,01116.07141,E,1,12,0.67,569.6,M,46.5,M,,*4A
$GNGSA,A,3,10,20,11,21,08,27,16,32,,,,,1.19,0.67,0.98*1E
$GNVTG,9.59,T,,M,21.631,N,40.061,K,A*22
$SMGPS,6.0 m,+1.60 m/s,8.35 VRx,0.014 km,11 m,8.6 °,1:-- (  0.0 km/h)*E9
$SMGPS2,-0.90 X,+0.28 Y,+1.50 Z,999 ENL,0 us*43
$GNRMC,163329.50,A,4807.04406,N,01116.07155,E,22.96,7.67,160520,,,A*7C
$GNGGA,163329.50,4807.04406,N,01116.07155,E,1,12,0.67,569.2,M,46.5,M,,*4A
$GNGSA,A,3,10,20,11,21,08,27,16,32,,,,,1.19,0.67,0.98*1E
$GNVTG,7.67,T,,M,22.699,N,42.038,K,A*2E
$SMGPS,5.6 m,+1.73 m/s,8.35 VRx,0.015 km,12 m,8.7 °,1:-- (  0.0 km/h)*ED
$SMGPS2,-0.87 X,+0.27 Y,+1.45 Z,999 ENL,0 us*4E
$GNRMC,163329.60,A,4807.04470,N,01116.07166,E,23.90,5.99,160520,,,A*7A
$GNGGA,163329.60,4807.04470,N,01116.07166,E,1,12,0.67,568.2,M,46.5,M,,*49
$GNGSA,A,3,10,20,11,21,08,27,16,32,,,,,1.19,0.67,0.98*1E
$GNVTG,5.99,T,,M,23.725,N,43.938,K,A*22
$SMGPS,4.6 m,+1.44 m/s,8.35 VRx,0.016 km,13 m,8.7 °,1:-- (  0.0 km/h)*EA
$SMGPS2,-0.85 X,+0.28 Y,+1.29 Z,999 ENL,0 us*49
$GNRMC,163329.70,A,4807.04537,N,01116.07174,E,24.72,2.97,160520,,,A*78
$GNGGA,163329.70,4807.04537,N,01116.07174,E,1,12,0.67,568.4,M,46.5,M,,*4F
$GNGSA,A,3,10,20,11,21,08,27,16,32,,,,,1.19,0.67,0.98*1E
$GNVTG,2.97,T,,M,24.607,N,45.573,K,A*28
$SMGPS,4.8 m,+1.19 m/s,8.35 VRx,0.018 km,14 m,8.2 °,1:-- (  0.0 km/h)*E0
$SMGPS2,-0.94 X,+0.18 Y,+1.49 Z,999 ENL,0 us*4C
$GNRMC,163329.80,A,4807.04606,N,01116.07177,E,25.18,0.62,160520,,,A*70
$GNGGA,163329.80,4807.04606,N,01116.07177,E,1,12,0.67,567.9,M,46.5,M,,*40
$GNGSA,A,3,10,20,11,21,08,27,16,32,,,,,1.19,0.67,0.98*1E
$GNVTG,0.62,T,,M,25.112,N,46.508,K,A*2D
$SMGPS,4.3 m,+0.84 m/s,8.35 VRx,0.019 km,15 m,8.3 °,1:-- (  0.0 km/h)*EF
$SMGPS2,-0.81 X,+0.28 Y,+1.39 Z,999 ENL,0 us*4C
$GNRMC,163329.90,A,4807.04678,N,01116.07176,E,26.67,359.06,160520,,,A*7F
$GNGGA,163329.90,4807.04678,N,01116.07176,E,1,12,0.67,568.2,M,46.5,M,,*4D
$GNGSA,A,3,10,20,11,21,08,27,16,32,,,,,1.19,0.67,0.98*1E
$GNVTG,359.06,T,,M,26.635,N,49.329,K,A*2B
$SMGPS,4.6 m,+0.55 m/s,8.35 VRx,0.019 km,16 m,7.8 °,1:-- (  0.0 km/h)*E1
$SMGPS2,-0.72 X,+0.41 Y,+1.69 Z,999 ENL,0 us*4A
$GNRMC,163330.00,A,4807.04753,N,01116.07172,E,27.30,356.76,160520,,,A*79
$GNGGA,163330.00,4807.04753,N,01116.07172,E,1,12,0.67,567.6,M,46.5,M,,*4B
$GNGSA,A,3,10,20,11,21,08,27,16,32,,,,,1.19,0.67,0.98*1E
$GNVTG,356.76,T,,M,27.277,N,50.518,K,A*2C
$SMGPS,4.0 m,+0.40 m/s,8.35 VRx,0.021 km,17 m,7.0 °,1:1  (  3.9 km/h)*FA
$SMGPS2,-0.87 X,+0.30 Y,+1.45 Z,999 ENL,0 us*48
$GNRMC,163330.10,A,4807.04829,N,01116.07164,E,27.61,355.29,160520,,,A*70
$GNGGA,163330.10,4807.04829,N,01116.07164,E,1,12,0.65,567.7,M,46.5,M,,*4C
$GNGSA,A,3,10,20,11,21,08,27,16,01,32,,,,1.14,0.65,0.94*1C
$GNVTG,355.29,T,,M,27.607,N,51.128,K,A*20
$SMGPS,4.1 m,+0.10 m/s,8.35 VRx,0.022 km,18 m,6.7 °,1:1  (  3.9 km/h)*F4
$SMGPS2,-0.75 X,+0.21 Y,+1.19 Z,999 ENL,0 us*4C
$GNRMC,163330.20,A,4807.04907,N,01116.07153,E,28.36,354.49,160520,,,A*70
$GNGGA,163330.20,4807.04907,N,01116.07153,E,1,12,0.65,569.2,M,46.5,M,,*4D
$GNGSA,A,3,10,20,11,21,08,27,16,01,32,,,,1.14,0.65,0.94*1C
$GNVTG,354.49,T,,M,28.354,N,52.512,K,A*25
$SMGPS,5.6 m,+0.04 m/s,8.35 VRx,0.024 km,20 m,5.5 °,1:1  (  3.9 km/h)*FB
$SMGPS2,-0.71 X,+0.41 Y,+1.24 Z,999 ENL,0 us*40
$GNRMC,163330.30,A,4807.04986,N,01116.07141,E,28.99,353.93,160520,,,A*7E
$GNGGA,163330.30,4807.04986,N,01116.07141,E,1,12,0.65,569.2,M,46.5,M,,*46
$GNGSA,A,3,10,20,11,21,08,27,16,01,32,,,,1.14,0.65,0.94*1C
$GNVTG,353.93,T,,M,28.981,N,53.672,K,A*23
$SMGPS,5.6 m,+0.18 m/s,8.35 VRx,0.025 km,21 m,4.7 °,1:1  (  3.9 km/h)*F5
$SMGPS2,-0.72 X,+0.25 Y,+1.28 Z,999 ENL,0 us*4D
$GNRMC,163330.40,A,4807.05067,N,01116.07127,E,29.82,353.44,160520,,,A*7F
$GNGGA,163330.40,4807.05067,N,01116.07127,E,1,12,0.65,569.4,M,46.5,M,,*40
$GNGSA,A,3,10,20,11,21,08,27,16,01,32,,,,1.14,0.65,0.94*1C
$GNVTG,353.44,T,,M,29.809,N,55.206,K,A*28
$SMGPS,5.8 m,+0.18 m/s,8.35 VRx,0.027 km,23 m,3.9 °,1:1  (  3.9 km/h)*F2
$SMGPS2,-0.68 X,+0.13 Y,+0.88 Z,999 ENL,0 us*48
$GNRMC,163330.50,A,4807.05151,N,01116.07112,E,30.66,353.13,160520,,,A*7C
$GNGGA,163330.50,4807.05151,N,01116.07112,E,1,12,0.65,570.7,M,46.5,M,,*48
$GNGSA,A,3,10,20,11,21,08,27,16,01,32,,,,1.14,0.65,0.94*1C
$GNVTG,353.13,T,,M,30.629,N,56.725,K,A*29
$SMGPS,7.1 m,+0.46 m/s,8.35 VRx,0.028 km,24 m,3.3 °,1:1  (  3.9 km/h)*F0
$SMGPS2,-0.55 X,+0.37 Y,+0.91 Z,999 ENL,0 us*48
$GNRMC,163330.60,A,4807.05236,N,01116.07096,E,31.34,353.10,160520,,,A*75
$GNGGA,163330.60,4807.05236,N,01116.07096,E,1,12,0.65,570.4,M,46.5,M,,*47
$GNGSA,A,3,10,20,11,21,08,27,16,01,32,,,,1.14,0.65,0.94*1C
$GNVTG,353.10,T,,M,31.285,N,57.940,K,A*25
$SMGPS,6.8 m,+0.74 m/s,8.35 VRx,0.029 km,26 m,2.8 °,1:1  (  3.9 km/h)*F0
$SMGPS2,-0.51 X,+0.45 Y,+0.74 Z,999 ENL,0 us*42
$GNRMC,163330.70,A,4807.05324,N,01116.07080,E,32.09,353.31,160520,,,A*7F
$GNGGA,163330.70,4807.05324,N,01116.07080,E,1,12,0.65,571.2,M,46.5,M,,*44
$GNGSA,A,3,10,20,11,21,08,27,16,01,32,,,,1.14,0.65,0.94*1C
$GNVTG,353.31,T,,M,31.993,N,59.251,K,A*2F
$SMGPS,7.6 m,+1.05 m/s,8.35 VRx,0.031 km,27 m,2.0 °,1:-- (  3.9 km/h)*E9
$SMGPS2,-0.50 X,+0.35 Y,+0.92 Z,999 ENL,0 us*4C
$GNRMC,163330.80,A,4807.05413,N,01116.07064,E,33.06,353.51,160520,,,A*71
$GNGGA,163330.80,4807.05413,N,01116.07064,E,1,12,0.65,573.4,M,46.5,M,,*46
$GNGSA,A,3,10,20,11,21,08,27,16,01,32,,,,1.14,0.65,0.94*1C
$GNVTG,353.51,T,,M,32.882,N,60.897,K,A*21
$SMGPS,9.8 m,+1.53 m/s,8.35 VRx,0.033 km,29 m,1.6 °,1:-- (  3.9 km/h)*E3
$SMGPS2,-0.56 X,+0.29 Y,+0.97 Z,999 ENL,0 us*42
$GNRMC,163330.90,A,4807.05505,N,01116.07048,E,34.03,353.92,160520,,,A*75
$GNGGA,163330.90,4807.05505,N,01116.07048,E,1,12,0.65,574.1,M,46.5,M,,*4D
$GNGSA,A,3,10,20,11,21,08,27,16,01,32,,,,1.14,0.65,0.94*1C
$GNVTG,353.92,T,,M,33.739,N,62.484,K,A*2C
$SMGPS,10.5 m,+1.95 m/s,8.35 VRx,0.035 km,32 m,1.1 °,1:-- (  3.9 km/h)*D7
$SMGPS2,-0.55 X,+0.30 Y,+1.04 Z,999 ENL,0 us*42
$GNRMC,163331.00,A,4807.05600,N,01116.07034,E,34.89,354.47,160520,,,A*7D
$GNGGA,163331.00,4807.05600,N,01116.07034,E,1,12,0.65,574.1,M,46.5,M,,*48
$GNGSA,A,3,10,20,11,21,08,27,16,01,32,,,,1.14,0.65,0.94*1C
$GNVTG,354.47,T,,M,34.494,N,63.883,K,A*2A
$SMGPS,10.5 m,+2.21 m/s,8.35 VRx,0.037 km,34 m,0.5 °,1:-- (  3.9 km/h)*DA
$SMGPS2,-0.33 X,+0.52 Y,+0.90 Z,999 ENL,0 us*4A
$GNRMC,163331.10,A,4807.05696,N,01116.07019,E,35.88,354.51,160520,,,A*7B
$GNGGA,163331.10,4807.05696,N,01116.07019,E,1,12,0.65,575.7,M,46.5,M,,*4E
$GNGSA,A,3,10,20,11,21,08,27,16,01,32,,,,1.14,0.65,0.94*1C
$GNVTG,354.51,T,,M,35.275,N,65.329,K,A*28
$SMGPS,12.1 m,+2.86 m/s,8.35 VRx,0.039 km,36 m,0.2 °,1:-- (  3.9 km/h)*DA
$SMGPS2,-0.52 X,+0.36 Y,+1.33 Z,999 ENL,0 us*47
$GNRMC,163331.20,A,4807.05795,N,01116.07005,E,36.52,354.94,160520,,,A*7A
$GNGGA,163331.20,4807.05795,N,01116.07005,E,1,12,0.65,575.4,M,46.5,M,,*41
$GNGSA,A,3,10,20,11,21,08,27,16,01,32,,,,1.14,0.65,0.94*1C
$GNVTG,354.94,T,,M,35.815,N,66.329,K,A*2E
$SMGPS,11.8 m,+3.15 m/s,8.35 VRx,0.040 km,38 m,0.0 °,1:-- (  3.9 km/h)*D9
$SMGPS2,-0.60 X,+0.15 Y,+1.18 Z,999 ENL,0 us*4E
$GNRMC,163331.30,A,4807.05894,N,01116.06992,E,36.85,354.97,160520,,,A*7A
$GNGGA,163331.30,4807.05894,N,01116.06992,E,1,12,0.65,575.8,M,46.5,M,,*44
$GNGSA,A,3,10,20,11,21,08,27,16,01,32,,,,1.14,0.65,0.94*1C
$GNVTG,354.97,T,,M,36.048,N,66.761,K,A*26
$SMGPS,12.2 m,+3.42 m/s,8.35 VRx,0.042 km,39 m,359.8 °,1:-- (  3.9 km/h)*D6
$SMGPS2,-0.61 X,+0.17 Y,+1.05 Z,999 ENL,0 us*41
$GNRMC,163331.40,A,4807.05995,N,01116.06979,E,37.72,355.25,160520,,,A*79
$GNGGA,163331.40,4807.05995,N,01116.06979,E,1,12,0.65,575.2,M,46.5,M,,*4C
$GNGSA,A,3,10,20,11,21,08,27,16,01,32,,,,1.14,0.65,0.94*1C
$GNVTG,355.25,T,,M,36.854,N,68.254,K,A*26
$SMGPS,11.6 m,+3.63 m/s,8.35 VRx,0.044 km,41 m,359.6 °,1:-- (  3.9 km/h)*D5
$SMGPS2,-0.33 X,+0.47 Y,+1.27 Z,999 ENL,0 us*43
$GNRMC,163331.50,A,4807.06097,N,01116.06966,E,38.18,355.25,160520,,,A*7D
$GNGGA,163331.50,4807.06097,N,01116.06966,E,1,12,0.65,575.9,M,46.5,M,,*40
$GNGSA,A,3,10,20,11,21,08,27,16,01,32,,,,1.14,0.65,0.94*1C
$GNVTG,355.25,T,,M,37.297,N,69.074,K,A*23
$SMGPS,12.3 m,+3.84 m/s,8.35 VRx,0.046 km,43 m,359.4 °,1:-- (  3.9 km/h)*D8
$SMGPS2,-0.40 X,+0.41 Y,+1.22 Z,999 ENL,0 us*44
$GNRMC,163331.60,A,4807.06201,N,01116.06953,E,38.55,355.37,160520,,,A*7F
$GNGGA,163331.60,4807.06201,N,01116.06953,E,1,12,0.65,577.4,M,46.5,M,,*47
$GNGSA,A,3,10,20,11,21,08,27,16,01,32,,,,1.14,0.65,0.94*1C
$GNVTG,355.37,T,,M,37.653,N,69.734,K,A*2F
$SMGPS,13.8 m,+3.95 m/s,8.35 VRx,0.048 km,45 m,359.1 °,1:-- (  3.9 km/h)*DF
$SMGPS2,-0.57 X,+0.18 Y,+1.56 Z,999 ENL,0 us*4D
$GNRMC,163331.70,A,4807.06305,N,01116.06940,E,39.07,355.28,160520,,,A*71
$GNGGA,163331.70,4807.06305,N,01116.06940,E,1,12,0.65,578.6,M,46.5,M,,*4C
$GNGSA,A,3,10,20,11,21,08,27,16,01,32,,,,1.14,0.65,0.94*1C
$GNVTG,355.28,T,,M,38.129,N,70.614,K,A*2F
$SMGPS,15.0 m,+4.19 m/s,8.35 VRx,0.049 km,47 m,359.0 °,1:-- (  3.9 km/h)*D0
$SMGPS2,-0.58 X,+0.16 Y,+1.08 Z,999 ENL,0 us*47
$GNRMC,163331.80,A,4807.06411,N,01116.06928,E,39.27,355.62,160520,,,A*7E
$GNGGA,163331.80,4807.06411,N,01116.06928,E,1,12,0.65,578.6,M,46.5,M,,*4F
$GNGSA,A,3,10,20,11,21,08,27,16,01,32,,,,1.14,0.65,0.94*1C
$GNVTG,355.62,T,,M,38.271,N,70.877,K,A*24
$SMGPS,15.0 m,+4.37 m/s,8.35 VRx,0.051 km,49 m,358.9 °,1:-- (  3.9 km/h)*D3
$SMGPS2,-0.40 X,+0.33 Y,+1.40 Z,999 ENL,0 us*45
$GNRMC,163331.90,A,4807.06517,N,01116.06915,E,39.32,355.29,160520,,,A*7D
$GNGGA,163331.90,4807.06517,N,01116.06915,E,1,12,0.65,579.1,M,46.5,M,,*41
$GNGSA,A,3,10,20,11,21,08,27,16,01,32,,,,1.14,0.65,0.94*1C
$GNVTG,355.29,T,,M,38.291,N,70.915,K,A*20
$SMGPS,15.5 m,+4.58 m/s,8.35 VRx,0.053 km,51 m,358.7 °,1:-- (  3.9 km/h)*DA
$SMGPS2,-0.42 X,+0.32 Y,+1.39 Z,999 ENL,0 us*48
$GNRMC,163332.00,A,4807.06623,N,01116.06902,E,39.88,355.04,160520,,,A*7B
$GNGGA,163332.00,4807.06623,N,01116.06902,E,1,12,0.65,580.3,M,46.5,M,,*4D
$GNGSA,A,3,10,20,11,21,08,27,16,01,32,,,,1.14,0.65,0.94*1C
$GNVTG,355.04,T,,M,38.792,N,71.843,K,A*2A
$SMGPS,16.7 m,+4.77 m/s,8.35 VRx,0.055 km,52 m,358.4 °,1:-- (  3.9 km/h)*D0
$SMGPS2,-0.54 X,+0.15 Y,+1.40 Z,999 ENL,0 us*44
$GNRMC,163332.10,A,4807.06730,N,01116.06888,E,39.66,355.33,160520,,,A*7E
$GNGGA,163332.10,4807.06730,N,01116.06888,E,1,12,0.65,580.6,M,46.5,M,,*49
$GNGSA,A,3,10,20,11,21,08,27,16,01,32,,,,1.14,0.65,0.94*1C
$GNVTG,355.33,T,,M,38.482,N,71.268,K,A*2F
$SMGPS,17.0 m,+4.99 m/s,8.35 VRx,0.058 km,56 m,358.4 °,1:-- (  3.9 km/h)*DF
$SMGPS2,-0.59 X,+0.07 Y,+1.09 Z,999 ENL,0 us*47
$GNRMC,163332.20,A,4807.06836,N,01116.06875,E,39.74,355.23,160520,,,A*74
$GNGGA,163332.20,4807.06836,N,01116.06875,E,1,12,0.65,581.0,M,46.5,M,,*46
$GNGSA,A,3,10,20,11,21,08,27,16,01,32,,,,1.14,0.65,0.94*1C
$GNVTG,355.23,T,,M,38.490,N,71.284,K,A*2F
$SMGPS,17.4 m,+5.11 m/s,8.35 VRx,0.059 km,57 m,358.2 °,1:-- (  3.9 km/h)*DC
$SMGPS2,-0.35 X,+0.45 Y,+1.52 Z,999 ENL,0 us*45
$GNRMC,163332.30,A,4807.06943,N,01116.06862,E,39.89,355.30,160520,,,A*70
$GNGGA,163332.30,4807.06943,N,01116.06862,E,1,12,0.65,581.3,M,46.5,M,,*41
$GNGSA,A,3,10,20,11,21,08,27,16,01,32,,,,1.14,0.65,0.94*1C
$GNVTG,355.30,T,,M,38.606,N,71.499,K,A*2A
$SMGPS,17.7 m,+5.19 m/s,8.35 VRx,0.061 km,59 m,358.1 °,1:-- (  3.9 km/h)*D1
$SMGPS2,-0.50 X,+0.15 Y,+1.25 Z,999 ENL,0 us*43
$GNRMC,163332.40,A,4807.07050,N,01116.06848,E,39.93,355.28,160520,,,A*77
$GNGGA,163332.40,4807.07050,N,01116.06848,E,1,12,0.65,582.2,M,46.5,M,,*46
$GNGSA,A,3,10,20,11,21,08,27,16,01,32,,,,1.14,0.65,0.94*1C
$GNVTG,355.28,T,,M,38.614,N,71.512,K,A*22
$SMGPS,18.6 m,+5.30 m/s,8.35 VRx,0.063 km,61 m,358.0 °,1:-- (  3.9 km/h)*DC
$SMGPS2,-0.51 X,+0.22 Y,+0.83 Z,999 ENL,0 us*4B
$GNRMC,163332.50,A,4807.07157,N,01116.06835,E,40.21,355.29,160520,,,A*7C
$GNGGA,163332.50,4807.07157,N,01116.06835,E,1,12,0.65,582.9,M,46.5,M,,*40
$GNGSA,A,3,10,20,11,21,08,27,16,01,32,,,,1.14,0.65,0.94*1C
$GNVTG,355.29,T,,M,38.913,N,72.067,K,A*2F
$SMGPS,19.3 m,+5.30 m/s,8.35 VRx,0.065 km,63 m,358.0 °,1:-- (  3.9 km/h)*DC
$SMGPS2,-0.59 X,-0.01 Y,+1.06 Z,999 ENL,0 us*48
$GNRMC,163332.60,A,4807.07264,N,01116.06822,E,40.18,355.37,160520,,,A*7F
$GNGGA,163332.60,4807.07264,N,01116.06822,E,1,12,0.65,585.0,M,46.5,M,,*48
$GNGSA,A,3,10,20,11,21,08,27,16,01,32,,,,1.14,0.65,0.94*1C
$GNVTG,355.37,T,,M,38.740,N,71.746,K,A*2F
$SMGPS,21.4 m,+5.50 m/s,8.35 VRx,0.068 km,66 m,357.9 °,1:-- (  3.9 km/h)*D8
$SMGPS2,-0.42 X,+0.39 Y,+0.89 Z,999 ENL,0 us*49
$GNRMC,163332.70,A,4807.07372,N,01116.06809,E,40.80,355.50,160520,,,A*71
$GNGGA,163332.70,4807.07372,N,01116.06809,E,1,12,0.65,586.2,M,46.5,M,,*47
$GNGSA,A,3,10,20,11,21,08,27,16,01,32,,,,1.14,0.65,0.94*1C
$GNVTG,355.50,T,,M,39.302,N,72.787,K,A*23
$SMGPS,22.6 m,+5.64 m/s,8.35 VRx,0.069 km,68 m,357.8 °,1:-- (  3.9 km/h)*D0
$SMGPS2,-0.40 X,+0.29 Y,+1.18 Z,999 ENL,0 us*43
$GNRMC,163332.80,A,4807.07481,N,01116.06796,E,41.11,355.65,160520,,,A*73
$GNGGA,163332.80,4807.07481,N,01116.06796,E,1,12,0.65,588.4,M,46.5,M,,*42
$GNGSA,A,3,10,20,11,21,08,27,16,01,32,,,,1.14,0.65,0.94*1C
$GNVTG,355.65,T,,M,39.394,N,72.958,K,A*26
$SMGPS,24.8 m,+5.94 m/s,8.35 VRx,0.071 km,70 m,357.8 °,1:-- (  3.9 km/h)*D7
$SMGPS2,-0.43 X,+0.19 Y,+1.22 Z,999 ENL,0 us*4A
$GNRMC,163332.90,A,4807.07590,N,01116.06784,E,41.16,355.75,160520,,,A*76
$GNGGA,163332.90,4807.07590,N,01116.06784,E,1,12,0.65,589.0,M,46.5,M,,*44
$GNGSA,A,3,10,20,11,21,08,27,16,01,32,,,,1.14,0.65,0.94*1C
$GNVTG,355.75,T,,M,39.220,N,72.635,K,A*2D
$SMGPS,25.4 m,+6.30 m/s,8.35 VRx,0.073 km,73 m,357.7 °,1:-- (  3.9 km/h)*D9
$SMGPS2,-0.46 X,+0.09 Y,+0.58 Z,999 ENL,0 us*42
$GNRMC,163333.00,A,4807.07699,N,01116.06772,E,41.48,356.02,160520,,,A*75
$GNGGA,163333.00,4807.07699,N,01116.06772,E,1,12,0.65,589.2,M,46.5,M,,*4D
$GNGSA,A,3,10,20,11,21,08,27,16,01,32,,,,1.14,0.65,0.94*1C
$GNVTG,356.02,T,,M,39.331,N,72.840,K,A*23
$SMGPS,25.6 m,+6.69 m/s,8.35 VRx,0.075 km,75 m,357.6 °,1:-- (  3.9 km/h)*D6
$SMGPS2,-0.31 X,+0.34 Y,+0.89 Z,999 ENL,0 us*40
$GNRMC,163333.10,A,4807.07809,N,01116.06760,E,42.17,356.02,160520,,,A*79
$GNGGA,163333.10,4807.07809,N,01116.06760,E,1,12,0.65,590.2,M,46.5,M,,*40
$GNGSA,A,3,10,20,11,21,08,27,16,01,32,,,,1.14,0.65,0.94*1C
$GNVTG,356.02,T,,M,39.850,N,73.802,K,A*28
$SMGPS,26.6 m,+7.01 m/s,8.35 VRx,0.078 km,77 m,357.6 °,1:-- (  3.9 km/h)*D5
$SMGPS2,-0.20 X,+0.39 Y,+0.98 Z,999 ENL,0 us*4D
$GNRMC,163333.20,A,4807.07919,N,01116.06749,E,42.51,356.19,160520,,,A*79
$GNGGA,163333.20,4807.07919,N,01116.06749,E,1,12,0.65,589.8,M,46.5,M,,*4A
$GNGSA,A,3,10,20,11,21,08,27,16,01,32,,,,1.14,0.65,0.94*1C
$GNVTG,356.19,T,,M,39.997,N,74.075,K,A*27
$SMGPS,26.2 m,+7.33 m/s,8.35 VRx,0.079 km,79 m,357.5 °,1:-- (  3.9 km/h)*DC
$SMGPS2,-0.40 X,+0.09 Y,+0.92 Z,999 ENL,0 us*42
$GNRMC,163333.30,A,4807.08030,N,01116.06738,E,42.71,356.09,160520,,,A*70
$GNGGA,163333.30,4807.08030,N,01116.06738,E,1,12,0.65,591.1,M,46.5,M,,*40
$GNGSA,A,3,10,20,11,21,08,27,16,01,32,,,,1.14,0.65,0.94*1C
$GNVTG,356.09,T,,M,40.080,N,74.228,K,A*2D
$SMGPS,27.5 m,+7.54 m/s,8.35 VRx,0.081 km,81 m,357.5 °,1:-- (  3.9 km/h)*DB
$SMGPS2,-0.52 X,+0.03 Y,+0.36 Z,999 ENL,0 us*45
$GNRMC,163333.40,A,4807.08142,N,01116.06726,E,43.36,356.06,160520,,,A*71
$GNGGA,163333.40,4807.08142,N,01116.06726,E,1,12,0.65,593.1,M,46.5,M,,*4E
$GNGSA,A,3,10,20,11,21,08,27,16,01,32,,,,1.14,0.65,0.94*1C
$GNVTG,356.06,T,,M,40.551,N,75.100,K,A*23
$SMGPS,29.5 m,+7.84 m/s,8.35 VRx,0.083 km,83 m,357.4 °,1:-- (  3.9 km/h)*D9
$SMGPS2,-0.35 X,+0.23 Y,+0.62 Z,999 ENL,0 us*47
$GNRMC,163333.50,A,4807.08255,N,01116.06714,E,43.64,356.04,160520,,,A*71
$GNGGA,163333.50,4807.08255,N,01116.06714,E,1,12,0.65,593.4,M,46.5,M,,*4E
$GNGSA,A,3,10,20,11,21,08,27,16,01,32,,,,1.14,0.65,0.94*1C
$GNVTG,356.04,T,,M,40.855,N,75.664,K,A*2D
$SMGPS,29.8 m,+7.93 m/s,8.35 VRx,0.086 km,86 m,357.4 °,1:-- (  3.9 km/h)*D2
$SMGPS2,-0.23 X,+0.39 Y,+1.16 Z,999 ENL,0 us*49
$GNRMC,163333.60,A,4807.08368,N,01116.06702,E,43.99,355.84,160520,,,A*73
$GNGGA,163333.60,4807.08368,N,01116.06702,E,1,12,0.65,594.6,M,46.5,M,,*40
$GNGSA,A,3,10,20,11,21,08,27,16,01,32,,,,1.14,0.65,0.94*1C
$GNVTG,355.84,T,,M,41.154,N,76.217,K,A*2C
$SMGPS,31.0 m,+8.02 m/s,8.35 VRx,0.088 km,88 m,357.4 °,1:-- (  3.9 km/h)*D4
$SMGPS2,-0.38 X,+0.12 Y,+0.72 Z,999 ENL,0 us*49
$GNRMC,163333.70,A,4807.08483,N,01116.06690,E,44.44,355.48,160520,,,A*7D
$GNGGA,163333.70,4807.08483,N,01116.06690,E,1,12,0.65,594.6,M,46.5,M,,*49
$GNGSA,A,3,10,20,11,21,08,27,16,01,32,,,,1.14,0.65,0.94*1C
$GNVTG,355.48,T,,M,41.635,N,77.109,K,A*21
$SMGPS,31.0 m,+7.94 m/s,8.35 VRx,0.089 km,90 m,357.3 °,1:-- (  3.9 km/h)*DB
$SMGPS2,-0.44 X,+0.04 Y,+0.40 Z,999 ENL,0 us*44
$GNRMC,163333.80,A,4807.08599,N,01116.06676,E,44.89,355.42,160520,,,A*7B
$GNGGA,163333.80,4807.08599,N,01116.06676,E,1,12,0.65,596.5,M,46.5,M,,*45
$GNGSA,A,3,10,20,11,21,08,27,16,01,32,,,,1.14,0.65,0.94*1C
$GNVTG,355.42,T,,M,42.062,N,77.898,K,A*2D
$SMGPS,32.9 m,+8.03 m/s,8.35 VRx,0.092 km,93 m,357.3 °,1:-- (  3.9 km/h)*D9
$SMGPS2,-0.31 X,+0.24 Y,+0.89 Z,999 ENL,0 us*41
$GNRMC,163333.90,A,4807.08716,N,01116.06662,E,45.15,355.07,160520,,,A*7F
$GNGGA,163333.90,4807.08716,N,01116.06662,E,1,12,0.65,596.6,M,46.5,M,,*47
$GNGSA,A,3,10,20,11,21,08,27,16,01,32,,,,1.14,0.65,0.94*1C
$GNVTG,355.07,T,,M,42.284,N,78.309,K,A*2A
$SMGPS,33.0 m,+8.07 m/s,8.35 VRx,0.094 km,95 m,357.3 °,1:-- (  3.9 km/h)*D5
$SMGPS2,-0.39 X,+0.19 Y,+0.86 Z,999 ENL,0 us*48
$GNRMC,163334.00,A,4807.08833,N,01116.06646,E,45.46,354.74,160520,,,A*7C
$GNGGA,163334.00,4807.08833,N,01116.06646,E,1,12,0.65,597.9,M,46.5,M,,*49
$GNGSA,A,3,10,20,11,21,08,27,16,01,32,,,,1.14,0.65,0.94*1C
$GNVTG,354.74,T,,M,42.510,N,78.729,K,A*23
$SMGPS,34.3 m,+8.09 m/s,8.35 VRx,0.097 km,98 m,357.2 °,1:-- (  3.9 km/h)*D0
$SMGPS2,-0.53 X,+0.14 Y,+0.51 Z,999 ENL,0 us*43
$GNRMC,163334.10,A,4807.08952,N,01116.06629,E,46.11,354.52,160520,,,A*77
$GNGGA,163334.10,4807.08952,N,01116.06629,E,1,12,0.65,599.8,M,46.5,M,,*48
$GNGSA,A,3,10,20,11,21,08,27,16,01,32,,,,1.14,0.65,0.94*1C
$GNVTG,354.52,T,,M,43.029,N,79.690,K,A*2B
$SMGPS,36.2 m,+8.15 m/s,8.35 VRx,0.099 km,100 m,357.1 °,1:-- (  3.9 km/h)*E3
$SMGPS2,-0.13 X,+0.43 Y,+1.08 Z,999 ENL,0 us*48
$GNRMC,163334.20,A,4807.09071,N,01116.06612,E,46.37,354.21,160520,,,A*75
$GNGGA,163334.20,4807.09071,N,01116.06612,E,1,12,0.65,600.6,M,46.5,M,,*47
$GNGSA,A,3,10,20,11,21,08,27,16,01,32,,,,1.14,0.65,0.94*1C
$GNVTG,354.21,T,,M,43.241,N,80.082,K,A*20
$SMGPS,37.0 m,+8.19 m/s,8.35 VRx,0.100 km,102 m,357.1 °,1:-- (  3.9 km/h)*EF
$SMGPS2,-0.25 X,+0.41 Y,+1.09 Z,999 ENL,0 us*4E
$GNRMC,163334.30,A,4807.09191,N,01116.06593,E,46.76,353.92,160520,,,A*7B
$GNGGA,163334.30,4807.09191,N,01116.06593,E,1,12,0.65,602.0,M,46.5,M,,*47
$GNGSA,A,3,10,20,11,21,08,27,16,01,32,,,,1.14,0.65,0.94*1C
$GNVTG,353.92,T,,M,43.572,N,80.696,K,A*2B
$SMGPS,38.4 m,+8.25 m/s,8.35 VRx,0.103 km,105 m,357.1 °,1:-- (  3.9 km/h)*EF
$SMGPS2,-0.41 X,+0.14 Y,+0.84 Z,999 ENL,0 us*48
$GNRMC,163334.40,A,4807.09311,N,01116.06573,E,47.06,353.55,160520,,,A*75
$GNGGA,163334.40,4807.09311,N,01116.06573,E,1,12,0.65,602.9,M,46.5,M,,*4D
$GNGSA,A,3,10,20,11,21,08,27,16,01,32,,,,1.14,0.65,0.94*1C
$GNVTG,353.55,T,,M,43.784,N,81.087,K,A*2C
$SMGPS,39.3 m,+8.46 m/s,8.35 VRx,0.105 km,107 m,357.0 °,1:-- (  3.9 km/h)*E9
$SMGPS2,-0.31 X,+0.09 Y,+0.66 Z,999 ENL,0 us*4F
$GNRMC,163334.50,A,4807.09432,N,01116.06554,E,47.11,354.42,160520,,,A*70
$GNGGA,163334.50,4807.09432,N,01116.06554,E,1,12,0.65,602.2,M,46.5,M,,*44
$GNGSA,A,3,10,20,11,21,08,27,16,01,32,,,,1.14,0.65,0.94*1C
$GNVTG,354.42,T,,M,43.807,N,81.131,K,A*25
$SMGPS,38.6 m,+8.47 m/s,8.35 VRx,0.108 km,110 m,356.9 °,1:-- (  3.9 km/h)*EF
$SMGPS2,-0.26 X,+0.26 Y,+1.15 Z,999 ENL,0 us*41
$GNRMC,163334.60,A,4807.09554,N,01116.06533,E,47.36,352.65,160520,,,A*75
$GNGGA,163334.60,4807.09554,N,01116.06533,E,1,12,0.65,602.8,M,46.5,M,,*4D
$GNGSA,A,3,10,20,11,21,08,27,16,01,32,,,,1.14,0.65,0.94*1C
$GNVTG,352.65,T,,M,44.078,N,81.633,K,A*24
$SMGPS,39.2 m,+8.48 m/s,8.35 VRx,0.109 km,111 m,356.8 °,1:-- (  3.9 km/h)*E4
$SMGPS2,-0.35 X,+0.29 Y,+1.33 Z,999 ENL,0 us*48
$GNRMC,163334.70,A,4807.09676,N,01116.06507,E,47.70,351.19,160520,,,A*7A
$GNGGA,163334.70,4807.09676,N,01116.06507,E,1,12,0.65,603.2,M,46.5,M,,*43
$GNGSA,A,3,10,20,11,21,08,27,16,01,32,,,,1.14,0.65,0.94*1C
$GNVTG,351.19,T,,M,44.508,N,82.430,K,A*2C
$SMGPS,39.6 m,+8.51 m/s,8.35 VRx,0.112 km,115 m,356.8 °,1:-- (  3.9 km/h)*E6
$SMGPS2,-0.49 X,-0.07 Y,+0.84 Z,999 ENL,0 us*44
$GNRMC,163334.80,A,4807.09799,N,01116.06477,E,47.95,350.52,160520,,,A*76
$GNGGA,163334.80,4807.09799,N,01116.06477,E,1,12,0.65,604.6,M,46.5,M,,*49
$GNGSA,A,3,10,20,11,21,08,27,16,01,32,,,,1.14,0.65,0.94*1C
$GNVTG,350.52,T,,M,44.886,N,83.130,K,A*2D
$SMGPS,41.0 m,+8.59 m/s,8.35 VRx,0.114 km,116 m,356.6 °,1:-- (  3.9 km/h)*EC
$SMGPS2,-0.35 X,+0.25 Y,+0.82 Z,999 ENL,0 us*4F
$GNRMC,163334.90,A,4807.09922,N,01116.06445,E,48.27,349.60,160520,,,A*77
$GNGGA,163334.90,4807.09922,N,01116.06445,E,1,12,0.65,606.3,M,46.5,M,,*40
$GNGSA,A,3,10,20,11,21,08,27,16,01,32,,,,1.14,0.65,0.94*1C
$GNVTG,349.60,T,,M,45.300,N,83.895,K,A*26
$SMGPS,42.7 m,+8.58 m/s,8.35 VRx,0.117 km,119 m,356.6 °,1:-- (  3.9 km/h)*E5
$SMGPS2,-0.26 X,+0.33 Y,+1.25 Z,999 ENL,0 us*46
$GNRMC,163335.00,A,4807.10046,N,01116.06409,E,48.45,348.30,160520,,,A*74
$GNGGA,163335.00,4807.10046,N,01116.06409,E,1,12,0.65,605.9,M,46.5,M,,*4A
$GNGSA,A,3,10,20,11,21,08,27,16,01,32,,,,1.14,0.65,0.94*1C
$GNVTG,348.30,T,,M,45.594,N,84.440,K,A*2A
$SMGPS,42.3 m,+8.54 m/s,8.35 VRx,0.119 km,122 m,356.4 °,1:-- (  3.9 km/h)*E9
$SMGPS2,-0.33 X,+0.18 Y,+1.30 Z,999 ENL,0 us*4F
$GNRMC,163335.10,A,4807.10170,N,01116.06370,E,48.26,347.35,160520,,,A*77
$GNGGA,163335.10,4807.10170,N,01116.06370,E,1,12,0.65,607.0,M,46.5,M,,*4D
$GNGSA,A,3,10,20,11,21,08,27,16,01,32,,,,1.14,0.65,0.94*1C
$GNVTG,347.35,T,,M,45.519,N,84.301,K,A*27
$SMGPS,43.4 m,+8.39 m/s,8.35 VRx,0.121 km,124 m,356.3 °,1:-- (  3.9 km/h)*EE
$SMGPS2,-0.40 X,+0.07 Y,+0.79 Z,999 ENL,0 us*49
$GNRMC,163335.20,A,4807.10294,N,01116.06326,E,48.57,346.39,160520,,,A*75
$GNGGA,163335.20,4807.10294,N,01116.06326,E,1,12,0.65,607.6,M,46.5,M,,*42
$GNGSA,A,3,10,20,11,21,08,27,16,01,32,,,,1.14,0.65,0.94*1C
$GNVTG,346.39,T,,M,45.912,N,85.028,K,A*24
$SMGPS,44.0 m,+8.31 m/s,8.35 VRx,0.123 km,126 m,356.1 °,1:-- (  3.9 km/h)*E7
$SMGPS2,-0.36 X,+0.11 Y,+0.87 Z,999 ENL,0 us*4E
$GNRMC,163335.30,A,4807.10418,N,01116.06279,E,48.81,345.39,160520,,,A*75
$GNGGA,163335.30,4807.10418,N,01116.06279,E,1,12,0.65,609.1,M,46.5,M,,*43
$GNGSA,A,3,10,20,11,21,08,27,16,01,32,,,,1.14,0.65,0.94*1C
$GNVTG,345.39,T,,M,46.124,N,85.422,K,A*27
$SMGPS,45.5 m,+8.41 m/s,8.35 VRx,0.126 km,129 m,355.9 °,1:-- (  3.9 km/h)*E5
$SMGPS2,-0.12 X,+0.42 Y,+1.60 Z,999 ENL,0 us*46
$GNRMC,163335.40,A,4807.10541,N,01116.06229,E,48.85,343.99,160520,,,A*72
$GNGGA,163335.40,4807.10541,N,01116.06229,E,1,12,0.65,610.2,M,46.5,M,,*47
$GNGSA,A,3,10,20,11,21,08,27,16,01,32,,,,1.14,0.65,0.94*1C
$GNVTG,343.99,T,,M,46.101,N,85.378,K,A*24
$SMGPS,46.6 m,+8.44 m/s,8.35 VRx,0.128 km,131 m,355.7 °,1:-- (  3.9 km/h)*E9
$SMGPS2,-0.46 X,+0.22 Y,+1.28 Z,999 ENL,0 us*4D
$GNRMC,163335.50,A,4807.10664,N,01116.06174,E,49.05,342.84,160520,,,A*78
$GNGGA,163335.50,4807.10664,N,01116.06174,E,1,12,0.65,611.2,M,46.5,M,,*48
$GNGSA,A,3,10,20,11,21,08,27,16,01,32,,,,1.14,0.65,0.94*1C
$GNVTG,342.84,T,,M,46.282,N,85.714,K,A*2F
$SMGPS,47.6 m,+8.39 m/s,8.35 VRx,0.131 km,134 m,355.5 °,1:-- (  3.9 km/h)*ED
$SMGPS2,-0.42 X,+0.17 Y,+1.12 Z,999 ENL,0 us*46
$GNRMC,163335.60,A,4807.10787,N,01116.06115,E,49.20,341.86,160520,,,A*76
$GNGGA,163335.60,4807.10787,N,01116.06115,E,1,12,0.65,612.0,M,46.5,M,,*41
$GNGSA,A,3,10,20,11,21,08,27,16,01,32,,,,1.14,0.65,0.94*1C
$GNVTG,341.86,T,,M,46.362,N,85.863,K,A*2E
$SMGPS,48.4 m,+8.52 m/s,8.35 VRx,0.133 km,136 m,355.3 °,1:-- (  3.9 km/h)*EB
$SMGPS2,-0.15 X,+0.38 Y,+1.72 Z,999 ENL,0 us*4F
$GNRMC,163335.70,A,4807.10909,N,01116.06053,E,49.13,340.37,160520,,,A*77
$GNGGA,163335.70,4807.10909,N,01116.06053,E,1,12,0.65,611.7,M,46.5,M,,*4F
$GNGSA,A,3,10,20,11,21,08,27,16,01,32,,,,1.14,0.65,0.94*1C
$GNVTG,340.37,T,,M,46.378,N,85.893,K,A*21
$SMGPS,48.1 m,+8.32 m/s,8.35 VRx,0.135 km,139 m,355.1 °,1:-- (  3.9 km/h)*E3
$SMGPS2,-0.32 X,+0.16 Y,+1.05 Z,999 ENL,0 us*46
$GNRMC,163335.80,A,4807.11030,N,01116.05987,E,49.50,340.04,160520,,,A*7E
$GNGGA,163335.80,4807.11030,N,01116.05987,E,1,12,0.65,613.3,M,46.5,M,,*47
$GNGSA,A,3,10,20,11,21,08,27,16,01,32,,,,1.14,0.65,0.94*1C
$GNVTG,340.04,T,,M,46.752,N,86.585,K,A*24
$SMGPS,49.7 m,+8.38 m/s,8.35 VRx,0.137 km,141 m,354.8 °,1:-- (  3.9 km/h)*EB
$SMGPS2,-0.48 X,-0.19 Y,+1.02 Z,999 ENL,0 us*45
$GNRMC,163335.90,A,4807.11152,N,01116.05919,E,49.43,338.85,160520,,,A*79
$GNGGA,163335.90,4807.11152,N,01116.05919,E,1,12,0.65,614.1,M,46.5,M,,*41
$GNGSA,A,3,10,20,11,21,08,27,16,01,32,,,,1.14,0.65,0.94*1C
$GNVTG,338.85,T,,M,46.632,N,86.363,K,A*2B
$SMGPS,50.5 m,+8.51 m/s,8.35 VRx,0.140 km,144 m,354.5 °,1:-- (  3.9 km/h)*E6
$SMGPS2,-0.28 X,+0.28 Y,+1.14 Z,999 ENL,0 us*40
$GNRMC,163336.00,A,4807.11273,N,01116.05847,E,49.55,337.79,160520,,,A*72
$GNGGA,163336.00,4807.11273,N,01116.05847,E,1,12,0.65,615.7,M,46.5,M,,*46
$GNGSA,A,3,10,20,11,21,08,27,16,01,32,,,,1.14,0.65,0.94*1C
$GNVTG,337.79,T,,M,46.717,N,86.520,K,A*20
$SMGPS,52.1 m,+8.53 m/s,8.35 VRx,0.142 km,146 m,354.3 °,1:-- (  3.9 km/h)*E4
$SMGPS2,-0.26 X,+0.39 Y,+1.54 Z,999 ENL,0 us*4A
$GNRMC,163336.10,A,4807.11392,N,01116.05772,E,49.72,336.41,160520,,,A*7B
$GNGGA,163336.10,4807.11392,N,01116.05772,E,1,12,0.65,615.6,M,46.5,M,,*41
$GNGSA,A,3,10,20,11,21,08,27,16,01,32,,,,1.14,0.65,0.94*1C
$GNVTG,336.41,T,,M,46.911,N,86.879,K,A*23
$SMGPS,52.0 m,+8.51 m/s,8.35 VRx,0.145 km,149 m,354.0 °,1:-- (  3.9 km/h)*EC
$SMGPS2,-0.49 X,-0.08 Y,+0.98 Z,999 ENL,0 us*46
$GNRMC,163336.20,A,4807.11511,N,01116.05693,E,49.66,335.63,160520,,,A*7D
$GNGGA,163336.20,4807.11511,N,01116.05693,E,1,12,0.65,615.6,M,46.5,M,,*41
$GNGSA,A,3,10,20,11,21,08,27,16,01,32,,,,1.14,0.65,0.94*1C
$GNVTG,335.63,T,,M,46.933,N,86.921,K,A*2C
$SMGPS,52.0 m,+8.44 m/s,8.35 VRx,0.147 km,151 m,353.7 °,1:-- (  3.9 km/h)*E3
$SMGPS2,-0.32 X,+0.25 Y,+1.16 Z,999 ENL,0 us*44
$GNRMC,163336.30,A,4807.11629,N,01116.05611,E,49.83,334.42,160520,,,A*77
$GNGGA,163336.30,4807.11629,N,01116.05611,E,1,12,0.65,616.4,M,46.5,M,,*43
$GNGSA,A,3,10,20,11,21,08,27,16,01,32,,,,1.14,0.65,0.94*1C
$GNVTG,334.42,T,,M,47.222,N,87.455,K,A*2B
$SMGPS,52.8 m,+8.33 m/s,8.35 VRx,0.150 km,154 m,353.4 °,1:-- (  3.9 km/h)*EB
$SMGPS2,-0.45 X,+0.17 Y,+0.79 Z,999 ENL,0 us*4D
$GNRMC,163336.40,A,4807.11746,N,01116.05525,E,49.87,333.36,160520,,,A*7C
$GNGGA,163336.40,4807.11746,N,01116.05525,E,1,12,0.65,620.2,M,46.5,M,,*4B
$GNGSA,A,3,10,20,11,21,08,27,16,01,32,,,,1.14,0.65,0.94*1C
$GNVTG,333.36,T,,M,47.088,N,87.207,K,A*2C
$SMGPS,56.6 m,+8.65 m/s,8.35 VRx,0.152 km,155 m,353.2 °,1:-- (  3.9 km/h)*E7
$SMGPS2,-0.23 X,+0.26 Y,+1.38 Z,999 ENL,0 us*4B
$GNRMC,163336.50,A,4807.11863,N,01116.05435,E,50.11,332.07,160520,,,A*71
$GNGGA,163336.50,4807.11863,N,01116.05435,E,1,12,0.65,619.6,M,46.5,M,,*4C
$GNGSA,A,3,10,20,11,21,08,27,16,01,32,,,,1.14,0.65,0.94*1C
$GNVTG,332.07,T,,M,47.287,N,87.575,K,A*20
$SMGPS,56.0 m,+8.62 m/s,8.35 VRx,0.155 km,160 m,352.9 °,1:-- (  3.9 km/h)*ED
$SMGPS2,-0.46 X,-0.00 Y,+0.90 Z,999 ENL,0 us*49
$GNRMC,163336.60,A,4807.11978,N,01116.05341,E,50.14,330.93,160520,,,A*77
$GNGGA,163336.60,4807.11978,N,01116.05341,E,1,12,0.65,621.9,M,46.5,M,,*44
$GNGSA,A,3,10,20,11,21,08,27,16,01,32,,,,1.14,0.65,0.94*1C
$GNVTG,330.93,T,,M,47.218,N,87.447,K,A*29
$SMGPS,58.3 m,+8.69 m/s,8.35 VRx,0.157 km,161 m,352.5 °,1:-- (  3.9 km/h)*E4
$SMGPS2,-0.31 X,+0.18 Y,+0.90 Z,999 ENL,0 us*46
$GNRMC,163336.70,A,4807.12092,N,01116.05244,E,50.42,329.67,160520,,,A*7C
$GNGGA,163336.70,4807.12092,N,01116.05244,E,1,12,0.65,623.0,M,46.5,M,,*44
$GNGSA,A,3,10,20,11,21,08,27,16,01,32,,,,1.14,0.65,0.94*1C
$GNVTG,329.67,T,,M,47.417,N,87.816,K,A*2B
$SMGPS,59.4 m,+8.80 m/s,8.35 VRx,0.159 km,164 m,352.2 °,1:-- (  3.9 km/h)*E9
$SMGPS2,-0.13 X,+0.39 Y,+1.46 Z,999 ENL,0 us*4F
$GNRMC,163336.80,A,4807.12205,N,01116.05143,E,50.58,329.13,160520,,,A*73
$GNGGA,163336.80,4807.12205,N,01116.05143,E,1,12,0.65,623.6,M,46.5,M,,*45
$GNGSA,A,3,10,20,11,21,08,27,16,01,32,,,,1.14,0.65,0.94*1C
$GNVTG,329.13,T,,M,47.489,N,87.950,K,A*2C
$SMGPS,60.0 m,+8.91 m/s,8.35 VRx,0.162 km,167 m,351.9 °,1:-- (  3.9 km/h)*E4
$SMGPS2,-0.39 X,+0.13 Y,+1.28 Z,999 ENL,0 us*47
$GNRMC,163336.90,A,4807.12317,N,01116.05041,E,50.67,327.87,160520,,,A*7C
$GNGGA,163336.90,4807.12317,N,01116.05041,E,1,12,0.65,623.5,M,46.5,M,,*46
$GNGSA,A,3,10,20,11,21,08,27,16,01,32,,,,1.14,0.65,0.94*1C
$GNVTG,327.87,T,,M,47.449,N,87.875,K,A*25
$SMGPS,59.9 m,+9.07 m/s,8.35 VRx,0.165 km,169 m,351.5 °,1:-- (  3.9 km/h)*EC
$SMGPS2,-0.58 X,-0.08 Y,+0.97 Z,999 ENL,0 us*49
$GNRMC,163337.00,A,4807.12428,N,01116.04933,E,50.99,326.46,160520,,,A*7F
$GNGGA,163337.00,4807.12428,N,01116.04933,E,1,12,0.65,624.9,M,46.5,M,,*43
$GNGSA,A,3,10,20,11,21,08,27,16,01,32,,,,1.14,0.65,0.94*1C
$GNVTG,326.46,T,,M,47.634,N,88.218,K,A*2F
$SMGPS,61.3 m,+9.17 m/s,8.35 VRx,0.167 km,171 m,351.2 °,1:-- (  3.9 km/h)*E0
$SMGPS2,-0.32 X,+0.20 Y,+1.16 Z,999 ENL,0 us*41
$GNRMC,163337.10,A,4807.12537,N,01116.04822,E,51.06,325.12,160520,,,A*75
$GNGGA,163337.10,4807.12537,N,01116.04822,E,1,12,0.65,626.4,M,46.5,M,,*43
$GNGSA,A,3,10,20,11,21,08,27,16,01,32,,,,1.14,0.65,0.94*1C
$GNVTG,325.12,T,,M,47.577,N,88.112,K,A*20
$SMGPS,62.8 m,+9.24 m/s,8.35 VRx,0.170 km,174 m,350.8 °,1:-- (  3.9 km/h)*E0
$SMGPS2,-0.24 X,+0.25 Y,+1.67 Z,999 ENL,0 us*45
$GNRMC,163337.20,A,4807.12644,N,01116.04707,E,51.40,323.45,160520,,,A*7F
$GNGGA,163337.20,4807.12644,N,01116.04707,E,1,12,0.65,628.0,M,46.5,M,,*45
$GNGSA,A,3,10,20,11,21,08,27,16,01,32,,,,1.14,0.65,0.94*1C
$GNVTG,323.45,T,,M,47.813,N,88.550,K,A*29
$SMGPS,64.4 m,+9.50 m/s,8.35 VRx,0.172 km,176 m,350.5 °,1:-- (  3.9 km/h)*E4
$SMGPS2,-0.32 X,+0.23 Y,+1.10 Z,999 ENL,0 us*44
$GNRMC,163337.30,A,4807.12750,N,01116.04587,E,51.52,322.25,160520,,,A*74
$GNGGA,163337.30,4807.12750,N,01116.04587,E,1,12,0.65,628.9,M,46.5,M,,*43
$GNGSA,A,3,10,20,11,21,08,27,16,01,32,,,,1.14,0.65,0.94*1C
$GNVTG,322.25,T,,M,47.915,N,88.739,K,A*24
$SMGPS,65.3 m,+9.56 m/s,8.35 VRx,0.174 km,179 m,350.1 °,1:-- (  3.9 km/h)*E9
$SMGPS2,-0.34 X,-0.00 Y,+1.12 Z,999 ENL,0 us*47
$GNRMC,163337.40,A,4807.12854,N,01116.04462,E,51.48,320.55,160520,,,A*7C
$GNGGA,163337.40,4807.12854,N,01116.04462,E,1,12,0.65,629.6,M,46.5,M,,*4B
$GNGSA,A,3,10,20,11,21,08,27,16,01,32,,,,1.14,0.65,0.94*1C
$GNVTG,320.55,T,,M,47.836,N,88.592,K,A*22
$SMGPS,66.0 m,+9.63 m/s,8.35 VRx,0.177 km,181 m,349.7 °,1:-- (  3.9 km/h)*E5
$SMGPS2,-0.15 X,+0.44 Y,+1.16 Z,999 ENL,0 us*46
$GNRMC,163337.50,A,4807.12955,N,01116.04334,E,51.82,319.30,160520,,,A*76
$GNGGA,163337.50,4807.12955,N,01116.04334,E,1,12,0.65,630.4,M,46.5,M,,*44
$GNGSA,A,3,10,20,11,21,08,27,16,01,32,,,,1.14,0.65,0.94*1C
$GNVTG,319.30,T,,M,48.172,N,89.214,K,A*25
$SMGPS,66.8 m,+9.78 m/s,8.35 VRx,0.179 km,183 m,349.3 °,1:-- (  3.9 km/h)*EF
$SMGPS2,-0.39 X,+0.19 Y,+1.28 Z,999 ENL,0 us*4D
$GNRMC,163337.60,A,4807.13056,N,01116.04202,E,52.02,318.35,160520,,,A*75
$GNGGA,163337.60,4807.13056,N,01116.04202,E,1,12,0.65,631.4,M,46.5,M,,*49
$GNGSA,A,3,10,20,11,21,08,27,16,01,32,,,,1.14,0.65,0.94*1C
$GNVTG,318.35,T,,M,48.298,N,89.448,K,A*29
