$GPSSETUP,8A9B,0,1,1,0,0,1,0,0,0,1,3,0,0,0,0,6,0,C8,C8,1F4,1C2,32,64,7C,64,7D0,5,1,1,1E,0,0,0,0,0,0,1003,4,10,5,6,10,10,10,10,10,10,10,10,10,BC10,0,7C,0,108,302,604,0,20F,0,0,0,0,0,0,0,0,0,0,0,0,0,0,0,0,0,0,0,0,0,0,0,0,0,0,0,0,0,0,0,0,0,20,12C,6A8A*33
$SMGPS,24.3 m,-3.47 m/s,8.33 VRx,5.069 km,65 m,18.1 °,1:-- (110.1 km/h)*E6
$SMGPS2,-0.26 X,-0.20 Y,+3.68 Z,999 ENL,0 us*49
$GNRMC,163702.20,A,4807.06810,N,01116.09108,E,71.15,100.89,160520,,,D*77
$GNGGA,163702.20,4807.06810,N,01116.09108,E,2,12,0.57,587.3,M,46.5,M,,0000*4E
$GNGSA,A,3,10,20,11,21,08,27,16,01,22,32,,,1.01,0.57,0.83*1F
$GNVTG,100.89,T,,M,70.993,N,131.480,K,D*1D
$SMGPS,23.7 m,-1.93 m/s,8.33 VRx,5.073 km,65 m,21.7 °,1:-- (110.1 km/h)*E9
$SMGPS2,+0.07 X,+0.21 Y,+3.80 Z,999 ENL,0 us*4D
$GNRMC,163702.30,A,4807.06773,N,01116.09393,E,69.16,101.00,160520,,,D*76
$GNGGA,163702.30,4807.06773,N,01116.09393,E,2,12,0.57,587.0,M,46.5,M,,0000*46
$GNGSA,A,3,10,20,11,21,08,27,16,01,22,32,,,1.01,0.57,0.83*1F
$GNVTG,101.00,T,,M,69.088,N,127.950,K,D*11
$SMGPS,23.4 m,-1.15 m/s,8.33 VRx,5.076 km,66 m,25.1 °,1:-- (110.1 km/h)*E0
$SMGPS2,-0.30 X,-0.18 Y,+3.03 Z,999 ENL,0 us*48
$GNRMC,163702.40,A,4807.06737,N,01116.09670,E,67.33,100.81,160520,,,D*78
$GNGGA,163702.40,4807.06737,N,01116.09670,E,2,12,0.57,591.8,M,46.5,M,,0000*46
$GNGSA,A,3,10,20,11,21,08,27,16,01,22,32,,,1.01,0.57,0.83*1F
$GNVTG,100.81,T,,M,67.315,N,124.667,K,D*18
$SMGPS,28.2 m,-0.32 m/s,8.33 VRx,5.080 km,67 m,28.0 °,1:-- (110.1 km/h)*ED
$SMGPS2,-0.13 X,+0.14 Y,+3.12 Z,999 ENL,0 us*43
$GNRMC,163702.50,A,4807.06703,N,01116.09939,E,65.38,100.09,160520,,,D*75
$GNGGA,163702.50,4807.06703,N,01116.09939,E,2,12,0.57,591.9,M,46.5,M,,0000*43
$GNGSA,A,3,10,20,11,21,08,27,16,01,22,32,,,1.01,0.57,0.83*1F
$GNVTG,100.09,T,,M,65.383,N,121.089,K,D*16
$SMGPS,28.3 m,+0.35 m/s,8.33 VRx,5.083 km,70 m,31.1 °,1:-- (110.1 km/h)*E1
$SMGPS2,+0.06 X,-0.01 Y,+3.10 Z,999 ENL,0 us*41
$GNRMC,163702.60,A,4807.06670,N,01116.10199,E,62.31,101.12,160520,,,D*7C
$GNGGA,163702.60,4807.06670,N,01116.10199,E,2,12,0.57,592.9,M,46.5,M,,0000*4C
$GNGSA,A,3,10,20,11,21,08,27,16,01,22,32,,,1.01,0.57,0.83*1F
$GNVTG,101.12,T,,M,62.272,N,115.328,K,D*1A
$SMGPS,29.3 m,+1.34 m/s,8.33 VRx,5.087 km,71 m,34.0 °,1:-- (110.1 km/h)*E1
$SMGPS2,+0.07 X,-0.15 Y,+3.10 Z,999 ENL,0 us*45
$GNRMC,163702.70,A,4807.06638,N,01116.10446,E,59.13,101.41,160520,,,D*78
$GNGGA,163702.70,4807.06638,N,01116.10446,E,2,12,0.57,592.3,M,46.5,M,,0000*4C
$GNGSA,A,3,10,20,11,21,08,27,16,01,22,32,,,1.01,0.57,0.83*1F
$GNVTG,101.41,T,,M,59.052,N,109.365,K,D*10
$SMGPS,28.7 m,+1.86 m/s,8.33 VRx,5.090 km,73 m,36.4 °,1:-- (110.1 km/h)*EF
$SMGPS2,-0.03 X,+0.26 Y,+3.83 Z,999 ENL,0 us*4B
$GNRMC,163702.80,A,4807.06606,N,01116.10679,E,56.01,101.27,160520,,,D*78
$GNGGA,163702.80,4807.06606,N,01116.10679,E,2,12,0.57,593.2,M,46.5,M,,0000*40
$GNGSA,A,3,10,20,11,21,08,27,16,01,22,32,,,1.01,0.57,0.83*1F
$GNVTG,101.27,T,,M,55.823,N,103.385,K,D*16
$SMGPS,29.6 m,+2.59 m/s,8.33 VRx,5.093 km,74 m,38.9 °,1:-- (110.1 km/h)*E9
$SMGPS2,-0.17 X,+0.01 Y,+2.99 Z,999 ENL,0 us*41
$GNRMC,163702.90,A,4807.06577,N,01116.10898,E,52.17,101.15,160520,,,D*7F
$GNGGA,163702.90,4807.06577,N,01116.10898,E,2,12,0.57,596.0,M,46.5,M,,0000*42
$GNGSA,A,3,10,20,11,21,08,27,16,01,22,32,,,1.01,0.57,0.83*1F
$GNVTG,101.15,T,,M,51.745,N,95.833,K,D*24
$SMGPS,32.4 m,+3.70 m/s,8.33 VRx,5.096 km,75 m,41.4 °,1:-- (110.1 km/h)*EC
$SMGPS2,+0.01 X,+0.06 Y,+2.49 Z,999 ENL,0 us*4A
$GNRMC,163703.00,A,4807.06550,N,01116.11103,E,50.07,101.15,160520,,,D*7B
$GNGGA,163703.00,4807.06550,N,01116.11103,E,2,12,0.57,599.9,M,46.5,M,,0000*43
$GNGSA,A,3,10,20,11,21,08,27,16,01,22,32,,,1.01,0.57,0.83*1F
$GNVTG,101.15,T,,M,49.277,N,91.260,K,D*21
$SMGPS,36.3 m,+4.87 m/s,8.33 VRx,5.099 km,78 m,43.1 °,1:-- (110.1 km/h)*E5
$SMGPS2,-0.26 X,-0.04 Y,+2.38 Z,999 ENL,0 us*4B
$GNRMC,163703.10,A,4807.06524,N,01116.11297,E,47.70,101.11,160520,,,D*75
$GNGGA,163703.10,4807.06524,N,01116.11297,E,2,12,0.57,604.1,M,46.5,M,,0000*40
$GNGSA,A,3,10,20,11,21,08,27,16,01,22,32,,,1.01,0.57,0.83*1F
$GNVTG,101.11,T,,M,46.392,N,85.917,K,D*2E
$SMGPS,40.5 m,+6.00 m/s,8.33 VRx,5.102 km,81 m,45.1 °,1:-- (110.1 km/h)*EC
$SMGPS2,-0.19 X,+0.14 Y,+2.70 Z,999 ENL,0 us*4C
$GNRMC,163703.20,A,4807.06500,N,01116.11478,E,44.91,101.50,160520,,,D*7E
$GNGGA,163703.20,4807.06500,N,01116.11478,E,2,12,0.57,606.4,M,46.5,M,,0000*45
$GNGSA,A,3,10,20,11,21,08,27,16,01,22,32,,,1.01,0.57,0.83*1F
$GNVTG,101.50,T,,M,42.777,N,79.224,K,D*28
$SMGPS,42.8 m,+7.19 m/s,8.33 VRx,5.104 km,84 m,46.3 °,1:-- (110.1 km/h)*E8
$SMGPS2,-0.12 X,+0.21 Y,+2.60 Z,999 ENL,0 us*40
$GNRMC,163703.30,A,4807.06477,N,01116.11644,E,42.01,101.91,160520,,,D*71
$GNGGA,163703.30,4807.06477,N,01116.11644,E,2,12,0.57,609.1,M,46.5,M,,0000*42
$GNGSA,A,3,10,20,11,21,08,27,16,01,22,32,,,1.01,0.57,0.83*1F
$GNVTG,101.91,T,,M,38.850,N,71.950,K,D*22
$SMGPS,45.5 m,+8.24 m/s,8.33 VRx,5.107 km,86 m,48.0 °,1:-- (110.1 km/h)*EF
$SMGPS2,-0.14 X,+0.21 Y,+2.63 Z,999 ENL,0 us*45
$GNRMC,163703.40,A,4807.06456,N,01116.11794,E,40.35,102.80,160520,,,D*7F
$GNGGA,163703.40,4807.06456,N,01116.11794,E,2,12,0.57,609.8,M,46.5,M,,0000*43
$GNGSA,A,3,10,20,11,21,08,27,16,01,22,32,,,1.01,0.57,0.83*1F
$GNVTG,102.80,T,,M,35.700,N,66.117,K,D*2B
$SMGPS,46.2 m,+9.50 m/s,8.33 VRx,5.109 km,89 m,49.1 °,1:-- (110.1 km/h)*E8
$SMGPS2,-0.14 X,+0.03 Y,+1.54 Z,999 ENL,0 us*42
$GNRMC,163703.50,A,4807.06434,N,01116.11932,E,39.25,103.56,160520,,,D*7D
$GNGGA,163703.50,4807.06434,N,01116.11932,E,2,12,0.57,612.1,M,46.5,M,,0000*47
$GNGSA,A,3,10,20,11,21,08,27,16,01,22,32,,,1.01,0.57,0.83*1F
$GNVTG,103.56,T,,M,32.917,N,60.962,K,D*22
$SMGPS,48.5 m,+10.67 m/s,8.33 VRx,5.111 km,90 m,50.4 °,1:-- (110.1 km/h)*D1
$SMGPS2,-0.22 X,+0.02 Y,+1.23 Z,999 ENL,0 us*46
$GNRMC,163703.60,A,4807.06414,N,01116.12063,E,39.65,103.61,160520,,,D*72
$GNGGA,163703.60,4807.06414,N,01116.12063,E,2,12,0.57,612.8,M,46.5,M,,0000*41
$GNGSA,A,3,10,20,11,21,08,27,16,01,22,32,,,1.01,0.57,0.83*1F
$GNVTG,103.61,T,,M,31.820,N,58.930,K,D*2C
$SMGPS,49.2 m,+11.82 m/s,8.33 VRx,5.112 km,92 m,51.2 °,1:-- (110.1 km/h)*DB
$SMGPS2,-0.15 X,+0.03 Y,+1.06 Z,999 ENL,0 us*44
$GNRMC,163703.70,A,4807.06393,N,01116.12187,E,40.16,104.28,160520,,,D*70
$GNGGA,163703.70,4807.06393,N,01116.12187,E,2,12,0.57,616.5,M,46.5,M,,0000*4A
$GNGSA,A,3,10,20,11,21,08,27,16,01,22,32,,,1.01,0.57,0.83*1F
$GNVTG,104.28,T,,M,30.059,N,55.670,K,D*27
$SMGPS,52.9 m,+13.32 m/s,8.33 VRx,5.114 km,93 m,52.5 °,1:-- (110.1 km/h)*D0
$SMGPS2,-0.32 X,+0.02 Y,+1.10 Z,999 ENL,0 us*47
$GNRMC,163703.80,A,4807.06374,N,01116.12304,E,39.69,104.40,160520,,,D*77
$GNGGA,163703.80,4807.06374,N,01116.12304,E,2,12,0.57,617.9,M,46.5,M,,0000*48
$GNGSA,A,3,10,20,11,21,08,27,16,01,22,32,,,1.01,0.57,0.83*1F
$GNVTG,104.40,T,,M,28.462,N,52.711,K,D*2D
$SMGPS,54.3 m,+13.89 m/s,8.33 VRx,5.116 km,96 m,53.1 °,1:-- (110.1 km/h)*DE
$SMGPS2,-0.18 X,+0.06 Y,+1.02 Z,999 ENL,0 us*48
$GNRMC,163703.90,A,4807.06355,N,01116.12415,E,39.20,104.93,160520,,,D*71
$GNGGA,163703.90,4807.06355,N,01116.12415,E,2,12,0.57,619.9,M,46.5,M,,0000*43
$GNGSA,A,3,10,20,11,21,08,27,16,01,22,32,,,1.01,0.57,0.83*1F
$GNVTG,104.93,T,,M,26.810,N,49.652,K,D*28
$SMGPS,56.3 m,+14.49 m/s,8.33 VRx,5.117 km,98 m,53.8 °,1:-- (110.1 km/h)*D1
$SMGPS2,-0.17 X,+0.20 Y,+1.37 Z,999 ENL,0 us*45
$GNRMC,163704.00,A,4807.06336,N,01116.12518,E,38.60,105.60,160520,,,D*7E
$GNGGA,163704.00,4807.06336,N,01116.12518,E,2,12,0.57,623.2,M,46.5,M,,0000*46
$GNGSA,A,3,10,20,11,21,08,27,16,01,22,32,,,1.01,0.57,0.83*1F
$GNVTG,105.60,T,,M,24.821,N,45.968,K,D*2F
$SMGPS,59.6 m,+15.19 m/s,8.33 VRx,5.119 km,100 m,54.8 °,1:-- (110.1 km/h)*E6
$SMGPS2,-0.31 X,+0.19 Y,+1.73 Z,999 ENL,0 us*4B
$GNRMC,163704.10,A,4807.06318,N,01116.12612,E,37.97,106.42,160520,,,D*7E
$GNGGA,163704.10,4807.06318,N,01116.12612,E,2,12,0.57,625.5,M,46.5,M,,0000*43
$GNGSA,A,3,10,20,11,21,08,27,16,01,22,32,,,1.01,0.57,0.83*1F
$GNVTG,106.42,T,,M,22.515,N,41.697,K,D*2B
$SMGPS,61.9 m,+15.89 m/s,8.33 VRx,5.120 km,103 m,55.3 °,1:-- (110.1 km/h)*E8
$SMGPS2,-0.39 X,+0.05 Y,+1.16 Z,999 ENL,0 us*4D
$GNRMC,163704.20,A,4807.06301,N,01116.12697,E,37.70,107.11,160520,,,D*76
$GNGGA,163704.20,4807.06301,N,01116.12697,E,2,12,0.57,626.7,M,46.5,M,,0000*44
$GNGSA,A,3,10,20,11,21,08,27,16,01,22,32,,,1.01,0.57,0.83*1F
$GNVTG,107.11,T,,M,20.878,N,38.667,K,D*29
$SMGPS,63.1 m,+16.48 m/s,8.33 VRx,5.121 km,104 m,56.2 °,1:-- (110.1 km/h)*E8
$SMGPS2,-0.21 X,+0.17 Y,+1.05 Z,999 ENL,0 us*45
$GNRMC,163704.30,A,4807.06284,N,01116.12778,E,38.65,107.27,160520,,,D*75
$GNGGA,163704.30,4807.06284,N,01116.12778,E,2,12,0.57,630.6,M,46.5,M,,0000*4F
$GNGSA,A,3,10,20,11,21,08,27,16,01,22,32,,,1.01,0.57,0.83*1F
$GNVTG,107.27,T,,M,20.369,N,37.724,K,D*2E
$SMGPS,67.0 m,+17.14 m/s,8.33 VRx,5.123 km,106 m,56.6 °,1:-- (110.1 km/h)*E1
$SMGPS2,-0.46 X,+0.03 Y,+1.18 Z,999 ENL,0 us*4D
$GNRMC,163704.40,A,4807.06268,N,01116.12855,E,40.03,108.81,160520,,,D*7C
$GNGGA,163704.40,4807.06268,N,01116.12855,E,2,12,0.57,635.6,M,46.5,M,,0000*4F
$GNGSA,A,3,10,20,11,21,08,27,16,01,22,32,,,1.01,0.57,0.83*1F
$GNVTG,108.81,T,,M,18.707,N,34.645,K,D*2F
$SMGPS,72.0 m,+18.30 m/s,8.33 VRx,5.124 km,109 m,57.0 °,1:-- (110.1 km/h)*E3
$SMGPS2,-0.15 X,+0.34 Y,+1.45 Z,999 ENL,0 us*47
$GNRMC,163704.50,A,4807.06251,N,01116.12924,E,40.74,110.83,160520,,,D*7B
$GNGGA,163704.50,4807.06251,N,01116.12924,E,2,12,0.57,637.5,M,46.5,M,,0000*42
$GNGSA,A,3,10,20,11,21,08,27,16,01,22,32,,,1.01,0.57,0.83*1F
$GNVTG,110.83,T,,M,16.928,N,31.351,K,D*2C
$SMGPS,73.9 m,+19.16 m/s,8.33 VRx,5.125 km,112 m,57.8 °,1:-- (110.1 km/h)*ED
$SMGPS2,-0.34 X,+0.30 Y,+1.15 Z,999 ENL,0 us*45
$GNRMC,163704.60,A,4807.06235,N,01116.12986,E,41.33,112.78,160520,,,D*76
$GNGGA,163704.60,4807.06235,N,01116.12986,E,2,12,0.57,639.5,M,46.5,M,,0000*45
$GNGSA,A,3,10,20,11,21,08,27,16,01,22,32,,,1.01,0.57,0.83*1F
$GNVTG,112.78,T,,M,15.348,N,28.424,K,D*28
$SMGPS,75.9 m,+19.81 m/s,8.33 VRx,5.126 km,114 m,58.2 °,1:-- (110.1 km/h)*E5
$SMGPS2,-0.25 X,+0.45 Y,+1.08 Z,999 ENL,0 us*4B
$GNRMC,163704.70,A,4807.06218,N,01116.13041,E,41.97,115.36,160520,,,D*78
$GNGGA,163704.70,4807.06218,N,01116.13041,E,2,12,0.57,641.6,M,46.5,M,,0000*44
$GNGSA,A,3,10,20,11,21,08,27,16,01,22,32,,,1.01,0.57,0.83*1F
$GNVTG,115.36,T,,M,13.982,N,25.894,K,D*25
$SMGPS,78.0 m,+20.33 m/s,8.33 VRx,5.127 km,116 m,58.4 °,1:-- (110.1 km/h)*E7
$SMGPS2,-0.29 X,+0.29 Y,+1.10 Z,999 ENL,0 us*44
$GNRMC,163704.80,A,4807.06202,N,01116.13089,E,42.44,118.18,160520,,,D*74
$GNGGA,163704.80,4807.06202,N,01116.13089,E,2,12,0.57,644.3,M,46.5,M,,0000*44
$GNGSA,A,3,10,20,11,21,08,27,16,01,22,32,,,1.01,0.57,0.83*1F
$GNVTG,118.18,T,,M,12.577,N,23.293,K,D*28
$SMGPS,80.7 m,+20.71 m/s,8.33 VRx,5.128 km,117 m,59.4 °,1:-- (110.1 km/h)*EE
$SMGPS2,-0.35 X,+0.33 Y,+1.00 Z,999 ENL,0 us*43
$GNRMC,163704.90,A,4807.06186,N,01116.13132,E,43.17,120.64,160520,,,D*7C
$GNGGA,163704.90,4807.06186,N,01116.13132,E,2,12,0.57,646.3,M,46.5,M,,0000*49
$GNGSA,A,3,10,20,11,21,08,27,16,01,22,32,,,1.01,0.57,0.83*1F
$GNVTG,120.64,T,,M,11.291,N,20.912,K,D*25
$SMGPS,82.7 m,+21.24 m/s,8.33 VRx,5.128 km,120 m,59.6 °,1:-- (110.1 km/h)*EB
$SMGPS2,-0.22 X,+0.45 Y,+0.98 Z,999 ENL,0 us*44
$GNRMC,163705.00,A,4807.06170,N,01116.13169,E,43.49,123.79,160520,,,D*77
$GNGGA,163705.00,4807.06170,N,01116.13169,E,2,12,0.57,648.0,M,46.5,M,,0000*4B
$GNGSA,A,3,10,20,11,21,08,27,16,01,22,32,,,1.01,0.57,0.83*1F
$GNVTG,123.79,T,,M,10.153,N,18.804,K,D*2B
$SMGPS,84.4 m,+21.60 m/s,8.33 VRx,5.129 km,121 m,59.8 °,1:-- (110.1 km/h)*E0
$SMGPS2,-0.41 X,+0.23 Y,+0.76 Z,999 ENL,0 us*41
$GNRMC,163705.10,A,4807.06155,N,01116.13201,E,43.50,128.04,160520,,,D*75
$GNGGA,163705.10,4807.06155,N,01116.13201,E,2,12,0.57,650.1,M,46.5,M,,0000*48
$GNGSA,A,3,10,20,11,21,08,27,16,01,22,32,,,1.01,0.57,0.83*1F
$GNVTG,128.04,T,,M,8.994,N,16.657,K,D*16
$SMGPS,86.5 m,+21.70 m/s,8.33 VRx,5.130 km,122 m,60.4 °,1:-- (110.1 km/h)*EF
$SMGPS2,-0.23 X,+0.28 Y,+0.52 Z,999 ENL,0 us*48
$GNRMC,163705.20,A,4807.06140,N,01116.13227,E,43.08,134.79,160520,,,D*7C
$GNGGA,163705.20,4807.06140,N,01116.13227,E,2,12,0.57,652.4,M,46.5,M,,0000*4C
$GNGSA,A,3,10,20,11,21,08,27,16,01,22,32,,,1.01,0.57,0.83*1F
$GNVTG,134.79,T,,M,7.686,N,14.235,K,D*10
$SMGPS,88.8 m,+21.71 m/s,8.33 VRx,5.130 km,124 m,60.5 °,1:-- (110.1 km/h)*EA
$SMGPS2,-0.60 X,-0.03 Y,+0.43 Z,999 ENL,0 us*40
$GNRMC,163705.30,A,4807.06125,N,01116.13246,E,42.73,140.23,160520,,,D*78
$GNGGA,163705.30,4807.06125,N,01116.13246,E,2,12,0.57,653.9,M,46.5,M,,0000*45
$GNGSA,A,3,10,20,11,21,08,27,16,01,22,32,,,1.01,0.57,0.83*1F
$GNVTG,140.23,T,,M,6.771,N,12.540,K,D*17
$SMGPS,90.3 m,+21.66 m/s,8.33 VRx,5.131 km,126 m,60.6 °,1:-- (110.1 km/h)*EE
$SMGPS2,-0.52 X,+0.11 Y,+0.09 Z,999 ENL,0 us*4A
$GNRMC,163705.40,A,4807.06111,N,01116.13263,E,42.48,140.69,160520,,,D*79
$GNGGA,163705.40,4807.06111,N,01116.13263,E,2,12,0.57,655.7,M,46.5,M,,0000*4A
$GNGSA,A,3,10,20,11,21,08,27,16,01,22,32,,,1.01,0.57,0.83*1F
$GNVTG,140.69,T,,M,6.718,N,12.442,K,D*15
$SMGPS,92.1 m,+21.56 m/s,8.33 VRx,5.132 km,127 m,61.2 °,1:-- (110.1 km/h)*EA
$SMGPS2,-0.43 X,+0.20 Y,+0.17 Z,999 ENL,0 us*47
$GNRMC,163705.50,A,4807.06097,N,01116.13280,E,42.17,138.67,160520,,,D*71
$GNGGA,163705.50,4807.06097,N,01116.13280,E,2,12,0.57,657.9,M,46.5,M,,0000*45
$GNGSA,A,3,10,20,11,21,08,27,16,01,22,32,,,1.01,0.57,0.83*1F
$GNVTG,138.67,T,,M,6.831,N,12.651,K,D*10
$SMGPS,94.3 m,+21.44 m/s,8.33 VRx,5.132 km,128 m,61.2 °,1:-- (110.1 km/h)*E2
$SMGPS2,-0.48 X,+0.27 Y,-0.25 Z,999 ENL,0 us*4C
$GNRMC,163705.60,A,4807.06083,N,01116.13300,E,41.62,134.34,160520,,,D*75
$GNGGA,163705.60,4807.06083,N,01116.13300,E,2,12,0.57,658.6,M,46.5,M,,0000*4A
$GNGSA,A,3,10,20,11,21,08,27,16,01,22,32,,,1.01,0.57,0.83*1F
$GNVTG,134.34,T,,M,7.346,N,13.605,K,D*10
$SMGPS,95.0 m,+21.12 m/s,8.34 VRx,5.132 km,130 m,61.3 °,1:-- (110.1 km/h)*EC
$SMGPS2,-0.59 X,+0.19 Y,-0.53 Z,999 ENL,0 us*40
$GNRMC,163705.70,A,4807.06069,N,01116.13323,E,41.16,130.95,160520,,,D*7D
$GNGGA,163705.70,4807.06069,N,01116.13323,E,2,12,0.57,660.4,M,46.5,M,,0000*47
$GNGSA,A,3,10,20,11,21,08,27,16,01,22,32,,,1.01,0.57,0.83*1F
$GNVTG,130.95,T,,M,7.831,N,14.504,K,D*11
$SMGPS,96.8 m,+20.79 m/s,8.33 VRx,5.133 km,131 m,61.4 °,1:-- (110.1 km/h)*EB
$SMGPS2,-0.49 X,+0.27 Y,-0.12 Z,999 ENL,0 us*49
$GNRMC,163705.80,A,4807.06055,N,01116.13348,E,40.73,128.99,160520,,,D*77
$GNGGA,163705.80,4807.06055,N,01116.13348,E,2,12,0.57,662.7,M,46.5,M,,0000*4B
$GNGSA,A,3,10,20,11,21,08,27,16,01,22,32,,,1.01,0.57,0.83*1F
$GNVTG,128.99,T,,M,8.266,N,15.308,K,D*18
$SMGPS,99.1 m,+20.55 m/s,8.33 VRx,5.133 km,132 m,61.9 °,1:-- (110.1 km/h)*ED
$SMGPS2,-0.35 X,+0.39 Y,-0.17 Z,999 ENL,0 us*48
$GNRMC,163705.90,A,4807.06040,N,01116.13375,E,40.43,125.94,160520,,,D*7F
$GNGGA,163705.90,4807.06040,N,01116.13375,E,2,12,0.57,665.7,M,46.5,M,,0000*47
$GNGSA,A,3,10,20,11,21,08,27,16,01,22,32,,,1.01,0.57,0.83*1F
$GNVTG,125.94,T,,M,8.927,N,16.533,K,D*1B
$SMGPS,102.1 m,+20.17 m/s,8.33 VRx,5.134 km,134 m,62.0 °,1:-- (110.1 km/h)*D3
$SMGPS2,-0.65 X,+0.14 Y,-0.18 Z,999 ENL,0 us*4D
$GNRMC,163706.00,A,4807.06026,N,01116.13406,E,40.40,124.64,160520,,,D*7B
$GNGGA,163706.00,4807.06026,N,01116.13406,E,2,12,0.57,667.5,M,46.5,M,,0000*4E
$GNGSA,A,3,10,20,11,21,08,27,16,01,22,32,,,1.01,0.57,0.83*1F
$GNVTG,124.64,T,,M,9.282,N,17.190,K,D*1C
$SMGPS,103.9 m,+20.01 m/s,8.34 VRx,5.134 km,136 m,62.1 °,1:-- (110.1 km/h)*D9
$SMGPS2,-0.49 X,+0.38 Y,-0.17 Z,999 ENL,0 us*42
$GNRMC,163706.10,A,4807.06011,N,01116.13439,E,40.26,123.50,160520,,,D*72
$GNGGA,163706.10,4807.06011,N,01116.13439,E,2,12,0.57,669.0,M,46.5,M,,0000*4C
$GNGSA,A,3,10,20,11,21,08,27,16,01,22,32,,,1.01,0.57,0.83*1F
$GNVTG,123.50,T,,M,9.860,N,18.261,K,D*18
$SMGPS,105.4 m,+19.78 m/s,8.33 VRx,5.135 km,138 m,62.7 °,1:-- (110.1 km/h)*D8
$SMGPS2,-0.54 X,+0.37 Y,-0.53 Z,999 ENL,0 us*41
$GNRMC,163706.20,A,4807.05996,N,01116.13474,E,40.04,120.90,160520,,,D*72
$GNGGA,163706.20,4807.05996,N,01116.13474,E,2,12,0.57,669.6,M,46.5,M,,0000*45
$GNGSA,A,3,10,20,11,21,08,27,16,01,22,32,,,1.01,0.57,0.83*1F
$GNVTG,120.90,T,,M,10.798,N,19.997,K,D*24
$SMGPS,106.0 m,+19.41 m/s,8.34 VRx,5.135 km,139 m,62.9 °,1:-- (110.1 km/h)*DD
$SMGPS2,-0.54 X,+0.30 Y,-0.74 Z,999 ENL,0 us*43
$GNRMC,163706.30,A,4807.05980,N,01116.13516,E,40.07,118.96,160520,,,D*7F
$GNGGA,163706.30,4807.05980,N,01116.13516,E,2,12,0.57,670.6,M,46.5,M,,0000*4E
$GNGSA,A,3,10,20,11,21,08,27,16,01,22,32,,,1.01,0.57,0.83*1F
$GNVTG,118.96,T,,M,12.323,N,22.823,K,D*29
$SMGPS,107.0 m,+18.97 m/s,8.33 VRx,5.136 km,140 m,63.0 °,1:-- (110.1 km/h)*D4
$SMGPS2,-0.31 X,+0.46 Y,-0.62 Z,999 ENL,0 us*46
$GNRMC,163706.40,A,4807.05963,N,01116.13564,E,40.39,116.34,160520,,,D*7B
$GNGGA,163706.40,4807.05963,N,01116.13564,E,2,12,0.57,672.5,M,46.5,M,,0000*40
$GNGSA,A,3,10,20,11,21,08,27,16,01,22,32,,,1.01,0.57,0.83*1F
$GNVTG,116.34,T,,M,14.274,N,26.436,K,D*26
$SMGPS,108.9 m,+18.69 m/s,8.34 VRx,5.137 km,141 m,63.6 °,1:-- (110.1 km/h)*D2
$SMGPS2,-0.27 X,+0.26 Y,-0.64 Z,999 ENL,0 us*41
$GNRMC,163706.50,A,4807.05945,N,01116.13620,E,40.29,114.24,160520,,,D*7F
$GNGGA,163706.50,4807.05945,N,01116.13620,E,2,12,0.57,673.6,M,46.5,M,,0000*44
$GNGSA,A,3,10,20,11,21,08,27,16,01,22,32,,,1.01,0.57,0.83*1F
$GNVTG,114.24,T,,M,15.588,N,28.870,K,D*20
$SMGPS,110.0 m,+18.36 m/s,8.34 VRx,5.137 km,142 m,63.8 °,1:-- (110.1 km/h)*D5
$SMGPS2,-0.23 X,+0.13 Y,-0.57 Z,999 ENL,0 us*43
$GNRMC,163706.60,A,4807.05927,N,01116.13681,E,39.94,114.21,160520,,,D*7E
$GNGGA,163706.60,4807.05927,N,01116.13681,E,2,12,0.57,674.2,M,46.5,M,,0000*4B
$GNGSA,A,3,10,20,11,21,08,27,16,01,22,32,,,1.01,0.57,0.83*1F
$GNVTG,114.21,T,,M,16.678,N,30.887,K,D*2B
$SMGPS,110.6 m,+18.00 m/s,8.34 VRx,5.138 km,144 m,64.0 °,1:-- (110.1 km/h)*D0
$SMGPS2,-0.07 X,+0.05 Y,-0.79 Z,999 ENL,0 us*4E
$GNRMC,163706.70,A,4807.05908,N,01116.13746,E,38.92,112.90,160520,,,D*73
$GNGGA,163706.70,4807.05908,N,01116.13746,E,2,12,0.57,675.2,M,46.5,M,,0000*4C
$GNGSA,A,3,10,20,11,21,08,27,16,01,22,32,,,1.01,0.57,0.83*1F
$GNVTG,112.90,T,,M,17.669,N,32.723,K,D*25
$SMGPS,111.6 m,+17.41 m/s,8.34 VRx,5.139 km,144 m,64.7 °,1:-- (110.1 km/h)*DD
$SMGPS2,-0.04 X,+0.03 Y,-0.80 Z,999 ENL,0 us*4D
$GNRMC,163706.80,A,4807.05889,N,01116.13816,E,38.46,112.60,160520,,,D*78
$GNGGA,163706.80,4807.05889,N,01116.13816,E,2,12,0.57,676.7,M,46.5,M,,0000*47
$GNGSA,A,3,10,20,11,21,08,27,16,01,22,32,,,1.01,0.57,0.83*1F
$GNVTG,112.60,T,,M,18.799,N,34.816,K,D*24
$SMGPS,113.1 m,+17.00 m/s,8.34 VRx,5.140 km,145 m,64.9 °,1:-- (110.1 km/h)*DC
$SMGPS2,+0.00 X,+0.01 Y,-0.63 Z,999 ENL,0 us*40
$GNRMC,163706.90,A,4807.05868,N,01116.13889,E,38.04,113.08,160520,,,D*79
$GNGGA,163706.90,4807.05868,N,01116.13889,E,2,12,0.57,677.7,M,46.5,M,,0000*4E
$GNGSA,A,3,10,20,11,21,08,27,16,01,22,32,,,1.01,0.57,0.83*1F
$GNVTG,113.08,T,,M,19.547,N,36.202,K,D*26
$SMGPS,114.1 m,+16.76 m/s,8.34 VRx,5.141 km,147 m,65.1 °,1:-- (110.1 km/h)*D1
$SMGPS2,+0.02 X,-0.01 Y,-0.59 Z,959 ENL,0 us*41
$GNRMC,163707.00,A,4807.05847,N,01116.13965,E,37.42,112.43,160520,,,D*7C
$GNGGA,163707.00,4807.05847,N,01116.13965,E,2,12,0.57,678.4,M,46.5,M,,0000*44
$GNGSA,A,3,10,20,11,21,08,27,16,01,22,32,,,1.01,0.57,0.83*1F
$GNVTG,112.43,T,,M,20.000,N,37.040,K,D*21
$SMGPS,114.8 m,+16.52 m/s,8.34 VRx,5.143 km,148 m,66.1 °,1:-- (110.1 km/h)*D0
$SMGPS2,+0.04 X,-0.01 Y,-0.56 Z,869 ENL,0 us*4A
$GNRMC,163707.10,A,4807.05826,N,01116.14042,E,36.77,112.66,160520,,,D*71
$GNGGA,163707.10,4807.05826,N,01116.14042,E,2,12,0.57,679.3,M,46.5,M,,0000*4F
$GNGSA,A,3,10,20,11,21,08,27,16,01,22,32,,,1.01,0.57,0.83*1F
$GNVTG,112.66,T,,M,20.508,N,37.981,K,D*2F
$SMGPS,115.7 m,+16.12 m/s,8.34 VRx,5.143 km,149 m,66.3 °,1:-- (110.1 km/h)*D9
$SMGPS2,+0.04 X,-0.02 Y,-0.44 Z,821 ENL,0 us*46
$GNRMC,163707.20,A,4807.05804,N,01116.14121,E,36.08,112.53,160520,,,D*78
$GNGGA,163707.20,4807.05804,N,01116.14121,E,2,12,0.57,680.1,M,46.5,M,,0000*4C
$GNGSA,A,3,10,20,11,21,08,27,16,01,22,32,,,1.01,0.57,0.83*1F
$GNVTG,112.53,T,,M,20.874,N,38.659,K,D*2A
$SMGPS,116.5 m,+15.67 m/s,8.34 VRx,5.145 km,150 m,67.0 °,1:-- (110.1 km/h)*D5
$SMGPS2,+0.03 X,+0.07 Y,-0.32 Z,768 ENL,0 us*41
$GNRMC,163707.30,A,4807.05783,N,01116.14202,E,35.29,111.74,160520,,,D*7D
$GNGGA,163707.30,4807.05783,N,01116.14202,E,2,12,0.57,681.2,M,46.5,M,,0000*4D
$GNGSA,A,3,10,20,11,21,08,27,16,01,22,32,,,1.01,0.57,0.83*1F
$GNVTG,111.74,T,,M,20.800,N,38.521,K,D*23
$SMGPS,117.6 m,+15.19 m/s,8.34 VRx,5.146 km,151 m,67.2 °,1:-- (110.1 km/h)*DE
$SMGPS2,+0.04 X,-0.02 Y,-0.18 Z,710 ENL,0 us*42
$GNRMC,163707.40,A,4807.05760,N,01116.14282,E,34.50,113.63,160520,,,D*74
$GNGGA,163707.40,4807.05760,N,01116.14282,E,2,12,0.57,681.7,M,46.5,M,,0000*4A
$GNGSA,A,3,10,20,11,21,08,27,16,01,22,32,,,1.01,0.57,0.83*1F
$GNVTG,113.63,T,,M,20.756,N,38.441,K,D*2C
$SMGPS,118.1 m,+14.63 m/s,8.34 VRx,5.147 km,153 m,67.9 °,1:-- (110.1 km/h)*D2
$SMGPS2,+0.07 X,+0.00 Y,-0.08 Z,747 ENL,0 us*46
$GNRMC,163707.50,A,4807.05738,N,01116.14360,E,33.42,112.58,160520,,,D*78
$GNGGA,163707.50,4807.05738,N,01116.14360,E,2,12,0.57,682.2,M,46.5,M,,0000*4D
$GNGSA,A,3,10,20,11,21,08,27,16,01,22,32,,,1.01,0.57,0.83*1F
$GNVTG,112.58,T,,M,20.843,N,38.601,K,D*28
$SMGPS,118.6 m,+13.88 m/s,8.34 VRx,5.148 km,154 m,68.1 °,1:-- (110.1 km/h)*D8
$SMGPS2,+0.07 X,+0.00 Y,-0.04 Z,753 ENL,0 us*4F
$GNRMC,163707.60,A,4807.05715,N,01116.14440,E,32.48,112.72,160520,,,D*72
$GNGGA,163707.60,4807.05715,N,01116.14440,E,2,12,0.57,682.2,M,46.5,M,,0000*44
$GNGSA,A,3,10,20,11,21,08,27,16,01,22,32,,,1.01,0.57,0.83*1F
$GNVTG,112.72,T,,M,20.731,N,38.393,K,D*24
$SMGPS,118.6 m,+13.23 m/s,8.34 VRx,5.149 km,155 m,68.3 °,1:-- (110.1 km/h)*DB
$SMGPS2,+0.04 X,-0.00 Y,-0.06 Z,645 ENL,0 us*4E
$GNRMC,163707.70,A,4807.05693,N,01116.14519,E,31.47,113.73,160520,,,D*7D
$GNGGA,163707.70,4807.05693,N,01116.14519,E,2,12,0.57,682.5,M,46.5,M,,0000*40
$GNGSA,A,3,10,20,11,21,08,27,16,01,22,32,,,1.01,0.57,0.83*1F
$GNVTG,113.73,T,,M,20.481,N,37.931,K,D*21
$SMGPS,118.9 m,+12.64 m/s,8.34 VRx,5.150 km,155 m,69.0 °,1:-- (110.1 km/h)*DC
$SMGPS2,+0.07 X,-0.04 Y,-0.00 Z,554 ENL,0 us*4C
$GNRMC,163707.80,A,4807.05670,N,01116.14597,E,30.62,113.10,160520,,,D*7A
$GNGGA,163707.80,4807.05670,N,01116.14597,E,2,12,0.57,682.7,M,46.5,M,,0000*46
$GNGSA,A,3,10,20,11,21,08,27,16,01,22,32,,,1.01,0.57,0.83*1F
$GNVTG,113.10,T,,M,20.562,N,38.081,K,D*25
$SMGPS,119.1 m,+11.99 m/s,8.34 VRx,5.151 km,156 m,69.2 °,1:-- (110.1 km/h)*D4
$SMGPS2,+0.05 X,+0.02 Y,+0.18 Z,549 ENL,0 us*4D
$GNRMC,163707.90,A,4807.05647,N,01116.14676,E,29.47,113.52,160520,,,D*7A
$GNGGA,163707.90,4807.05647,N,01116.14676,E,2,12,0.57,682.8,M,46.5,M,,0000*40
$GNGSA,A,3,10,20,11,21,08,27,16,01,22,32,,,1.01,0.57,0.83*1F
$GNVTG,113.52,T,,M,20.225,N,37.457,K,D*27
$SMGPS,119.2 m,+11.30 m/s,8.34 VRx,5.153 km,156 m,69.9 °,1:-- (110.1 km/h)*DD
$SMGPS2,+0.03 X,-0.02 Y,+0.34 Z,502 ENL,0 us*4C
$GNRMC,163708.00,A,4807.05625,N,01116.14755,E,28.60,112.52,160520,,,D*7D
$GNGGA,163708.00,4807.05625,N,01116.14755,E,2,12,0.57,683.1,M,46.5,M,,0000*4A
$GNGSA,A,3,10,20,11,21,08,27,16,01,22,32,,,1.01,0.57,0.83*1F
$GNVTG,112.52,T,,M,20.328,N,37.647,K,D*29
$SMGPS,119.5 m,+10.63 m/s,8.34 VRx,5.154 km,157 m,70.1 °,1:-- (110.1 km/h)*DB
$SMGPS2,+0.03 X,+0.01 Y,+0.46 Z,689 ENL,0 us*4C
$GNRMC,163708.10,A,4807.05603,N,01116.14832,E,27.85,112.81,160520,,,D*7C
$GNGGA,163708.10,4807.05603,N,01116.14832,E,2,12,0.57,683.3,M,46.5,M,,0000*43
$GNGSA,A,3,10,20,11,21,08,27,16,01,22,32,,,1.01,0.57,0.83*1F
$GNVTG,112.81,T,,M,20.528,N,38.018,K,D*22
$SMGPS,119.7 m,+9.97 m/s,8.34 VRx,5.155 km,158 m,70.7 °,1:-- (110.1 km/h)*E2
$SMGPS2,+0.02 X,-0.01 Y,+0.59 Z,623 ENL,0 us*45
$GNRMC,163708.20,A,4807.05582,N,01116.14912,E,26.76,112.46,160520,,,D*70
$GNGGA,163708.20,4807.05582,N,01116.14912,E,2,12,0.57,683.0,M,46.5,M,,0000*4A
$GNGSA,A,3,10,20,11,21,08,27,16,01,22,32,,,1.01,0.57,0.83*1F
$GNVTG,112.46,T,,M,20.724,N,38.382,K,D*27
$SMGPS,119.4 m,+8.96 m/s,8.34 VRx,5.156 km,158 m,70.9 °,1:-- (110.1 km/h)*EC
$SMGPS2,+0.00 X,-0.00 Y,+0.64 Z,616 ENL,0 us*4E
$GNRMC,163708.30,A,4807.05561,N,01116.14992,E,25.86,111.44,160520,,,D*79
$GNGGA,163708.30,4807.05561,N,01116.14992,E,2,12,0.57,682.8,M,46.5,M,,0000*47
$GNGSA,A,3,10,20,11,21,08,27,16,01,22,32,,,1.01,0.57,0.83*1F
$GNVTG,111.44,T,,M,20.596,N,38.143,K,D*22
$SMGPS,119.2 m,+8.30 m/s,8.34 VRx,5.157 km,159 m,71.5 °,1:-- (110.1 km/h)*EB
$SMGPS2,+0.00 X,-0.00 Y,+0.63 Z,524 ENL,0 us*4B
$GNRMC,163708.40,A,4807.05540,N,01116.15073,E,25.23,111.16,160520,,,D*72
$GNGGA,163708.40,4807.05540,N,01116.15073,E,2,12,0.57,682.7,M,46.5,M,,0000*4B
$GNGSA,A,3,10,20,11,21,08,27,16,01,22,32,,,1.01,0.57,0.83*1F
$GNVTG,111.16,T,,M,20.753,N,38.435,K,D*2A
$SMGPS,119.1 m,+7.61 m/s,8.34 VRx,5.158 km,159 m,71.7 °,1:-- (110.1 km/h)*EE
$SMGPS2,+0.01 X,-0.01 Y,+0.68 Z,667 ENL,0 us*44
$GNRMC,163708.50,A,4807.05519,N,01116.15156,E,24.71,110.33,160520,,,D*79
$GNGGA,163708.50,4807.05519,N,01116.15156,E,2,12,0.57,681.9,M,46.5,M,,0000*4D
$GNGSA,A,3,10,20,11,21,08,27,16,01,22,32,,,1.01,0.57,0.83*1F
$GNVTG,110.33,T,,M,21.011,N,38.913,K,D*25
$SMGPS,118.3 m,+6.88 m/s,8.34 VRx,5.159 km,159 m,72.3 °,1:-- (110.1 km/h)*ED
$SMGPS2,-0.00 X,-0.01 Y,+0.67 Z,525 ENL,0 us*49
$GNRMC,163708.60,A,4807.05499,N,01116.15238,E,24.27,109.71,160520,,,D*75
$GNGGA,163708.60,4807.05499,N,01116.15238,E,2,12,0.57,681.9,M,46.5,M,,0000*4C
$GNGSA,A,3,10,20,11,21,08,27,16,01,22,32,,,1.01,0.57,0.83*1F
$GNVTG,109.71,T,,M,21.272,N,39.396,K,D*2A
$SMGPS,118.3 m,+6.19 m/s,8.34 VRx,5.160 km,159 m,72.5 °,1:-- (110.1 km/h)*E9
$SMGPS2,-0.00 X,-0.01 Y,+0.70 Z,675 ENL,0 us*49
$GNRMC,163708.70,A,4807.05479,N,01116.15323,E,23.83,109.16,160520,,,D*79
$GNGGA,163708.70,4807.05479,N,01116.15323,E,2,12,0.57,681.5,M,46.5,M,,0000*44
$GNGSA,A,3,10,20,11,21,08,27,16,01,22,32,,,1.01,0.57,0.83*1F
$GNVTG,109.16,T,,M,21.473,N,39.768,K,D*29
$SMGPS,117.9 m,+5.45 m/s,8.34 VRx,5.161 km,160 m,72.6 °,1:-- (110.1 km/h)*EE
$SMGPS2,-0.00 X,-0.01 Y,+0.72 Z,592 ENL,0 us*41
$GNRMC,163708.80,A,4807.05461,N,01116.15409,E,23.58,107.77,160520,,,D*7F
$GNGGA,163708.80,4807.05461,N,01116.15409,E,2,12,0.57,681.3,M,46.5,M,,0000*4B
$GNGSA,A,3,10,20,11,21,08,27,16,01,22,32,,,1.01,0.57,0.83*1F
$GNVTG,107.77,T,,M,21.805,N,40.382,K,D*23
$SMGPS,117.7 m,+4.73 m/s,8.34 VRx,5.163 km,160 m,73.4 °,1:-- (110.1 km/h)*E5
$SMGPS2,+0.01 X,-0.01 Y,+0.74 Z,649 ENL,0 us*45
$GNRMC,163708.90,A,4807.05442,N,01116.15496,E,23.15,107.71,160520,,,D*76
$GNGGA,163708.90,4807.05442,N,01116.15496,E,2,12,0.57,681.1,M,46.5,M,,0000*4F
$GNGSA,A,3,10,20,11,21,08,27,16,01,22,32,,,1.01,0.57,0.83*1F
$GNVTG,107.71,T,,M,22.038,N,40.814,K,D*24
$SMGPS,117.5 m,+3.74 m/s,8.34 VRx,5.164 km,161 m,73.6 °,1:-- (110.1 km/h)*E3
$SMGPS2,-0.00 X,-0.03 Y,+0.76 Z,630 ENL,0 us*4C
$GNRMC,163709.00,A,4807.05424,N,01116.15584,E,23.16,105.96,160520,,,D*74
$GNGGA,163709.00,4807.05424,N,01116.15584,E,2,12,0.57,680.3,M,46.5,M,,0000*46
$GNGSA,A,3,10,20,11,21,08,27,16,01,22,32,,,1.01,0.57,0.83*1F
$GNVTG,105.96,T,,M,22.394,N,41.474,K,D*21
$SMGPS,116.7 m,+3.11 m/s,8.34 VRx,5.165 km,161 m,74.2 °,1:-- (110.1 km/h)*E1
$SMGPS2,+0.00 X,-0.02 Y,+0.72 Z,688 ENL,0 us*4C
$GNRMC,163709.10,A,4807.05407,N,01116.15674,E,23.17,106.34,160520,,,D*72
$GNGGA,163709.10,4807.05407,N,01116.15674,E,2,12,0.57,679.9,M,46.5,M,,0000*46
$GNGSA,A,3,10,20,11,21,08,27,16,01,22,32,,,1.01,0.57,0.83*1F
$GNVTG,106.34,T,,M,22.680,N,42.004,K,D*2A
$SMGPS,116.3 m,+2.52 m/s,8.34 VRx,5.167 km,161 m,74.4 °,1:-- (110.1 km/h)*E7
$SMGPS2,+0.01 X,-0.04 Y,+0.74 Z,728 ENL,0 us*46
$GNRMC,163709.20,A,4807.05390,N,01116.15766,E,23.45,104.06,160520,,,D*7E
$GNGGA,163709.20,4807.05390,N,01116.15766,E,2,12,0.57,679.6,M,46.5,M,,0000*41
$GNGSA,A,3,10,20,11,21,08,27,16,01,22,32,,,1.01,0.57,0.83*1F
$GNVTG,104.06,T,,M,23.148,N,42.871,K,D*21
$SMGPS,116.0 m,+2.02 m/s,8.34 VRx,5.168 km,162 m,74.5 °,1:-- (110.1 km/h)*EC
$SMGPS2,+0.01 X,-0.04 Y,+0.73 Z,795 ENL,0 us*47
$GNRMC,163709.30,A,4807.05375,N,01116.15860,E,23.64,103.82,160520,,,D*75
$GNGGA,163709.30,4807.05375,N,01116.15860,E,2,12,0.57,679.4,M,46.5,M,,0000*40
$GNGSA,A,3,10,20,11,21,08,27,16,01,22,32,,,1.01,0.57,0.83*1F
$GNVTG,103.82,T,,M,23.471,N,43.468,K,D*20
$SMGPS,115.8 m,+1.56 m/s,8.34 VRx,5.169 km,162 m,75.1 °,1:-- (110.1 km/h)*E1
$SMGPS2,+0.02 X,-0.03 Y,+0.79 Z,854 ENL,0 us*4B
$GNRMC,163709.40,A,4807.05360,N,01116.15955,E,23.69,102.10,160520,,,D*76
$GNGGA,163709.40,4807.05360,N,01116.15955,E,2,12,0.57,678.6,M,46.5,M,,0000*47
$GNGSA,A,3,10,20,11,21,08,27,16,01,22,32,,,1.01,0.57,0.83*1F
$GNVTG,102.10,T,,M,23.606,N,43.718,K,D*2C
$SMGPS,115.0 m,+1.09 m/s,8.34 VRx,5.170 km,163 m,75.2 °,1:0  (103.4 km/h)*FE
$SMGPS2,+0.03 X,-0.03 Y,+0.75 Z,859 ENL,0 us*4B
$GNRMC,163709.50,A,4807.05348,N,01116.16052,E,24.05,100.69,160520,,,D*71
$GNGGA,163709.50,4807.05348,N,01116.16052,E,2,12,0.57,678.6,M,46.5,M,,0000*41
$GNGSA,A,3,10,20,11,21,08,27,16,01,22,32,,,1.01,0.57,0.83*1F
$GNVTG,100.69,T,,M,24.026,N,44.496,K,D*21
$SMGPS,115.0 m,+0.66 m/s,8.34 VRx,5.171 km,163 m,75.4 °,1:0  (103.4 km/h)*F1
$SMGPS2,+0.04 X,-0.02 Y,+0.76 Z,964 ENL,0 us*41
$GNRMC,163709.60,A,4807.05336,N,01116.16151,E,24.46,99.44,160520,,,D*40
$GNGGA,163709.60,4807.05336,N,01116.16151,E,2,12,0.57,678.8,M,46.5,M,,0000*47
$GNGSA,A,3,10,20,11,21,08,27,16,01,22,32,,,1.01,0.57,0.83*1F
$GNVTG,99.44,T,,M,24.450,N,45.282,K,D*18
$SMGPS,115.2 m,+0.31 m/s,8.34 VRx,5.173 km,164 m,75.5 °,1:0  (103.4 km/h)*F5
$SMGPS2,+0.06 X,-0.00 Y,+0.83 Z,958 ENL,0 us*44
$GNRMC,163709.70,A,4807.05327,N,01116.16251,E,24.59,97.71,160520,,,D*44
$GNGGA,163709.70,4807.05327,N,01116.16251,E,2,12,0.57,678.1,M,46.5,M,,0000*4C
$GNGSA,A,3,10,20,11,21,08,27,16,01,22,32,,,1.01,0.57,0.83*1F
$GNVTG,97.71,T,,M,24.586,N,45.534,K,D*10
$SMGPS,114.5 m,-0.14 m/s,8.34 VRx,5.174 km,165 m,76.1 °,1:0  (103.4 km/h)*F3
$SMGPS2,+0.05 X,+0.02 Y,+0.93 Z,924 ENL,0 us*49
$GNRMC,163709.80,A,4807.05319,N,01116.16354,E,25.15,95.56,160520,,,D*4C
$GNGGA,163709.80,4807.05319,N,01116.16354,E,2,12,0.57,677.3,M,46.5,M,,0000*47
$GNGSA,A,3,10,20,11,21,08,27,16,01,22,32,,,1.01,0.57,0.83*1F
$GNVTG,95.56,T,,M,25.138,N,46.555,K,D*13
$SMGPS,113.7 m,-0.40 m/s,8.34 VRx,5.175 km,165 m,76.2 °,1:0  (103.4 km/h)*F5
$SMGPS2,+0.07 X,+0.04 Y,+0.86 Z,999 ENL,0 us*4F
$GNRMC,163709.90,A,4807.05315,N,01116.16458,E,25.21,92.71,160520,,,D*4F
$GNGGA,163709.90,4807.05315,N,01116.16458,E,2,12,0.57,676.4,M,46.5,M,,0000*47
$GNGSA,A,3,10,20,11,21,08,27,16,01,22,32,,,1.01,0.57,0.83*1F
$GNVTG,92.71,T,,M,25.164,N,46.603,K,D*18
$SMGPS,112.8 m,-0.69 m/s,8.34 VRx,5.177 km,165 m,76.4 °,1:0  (103.4 km/h)*F4
$SMGPS2,+0.11 X,+0.06 Y,+0.75 Z,999 ENL,0 us*46
$GNRMC,163710.00,A,4807.05313,N,01116.16563,E,25.34,90.53,160520,,,D*47
$GNGGA,163710.00,4807.05313,N,01116.16563,E,2,12,0.57,675.4,M,46.5,M,,0000*4A
$GNGSA,A,3,10,20,11,21,08,27,16,01,22,32,,,1.01,0.57,0.83*1F
$GNVTG,90.53,T,,M,25.239,N,46.742,K,D*15
$SMGPS,111.8 m,-1.03 m/s,8.34 VRx,5.178 km,166 m,76.5 °,1:0  (103.4 km/h)*F7
$SMGPS2,+0.10 X,+0.03 Y,+0.74 Z,999 ENL,0 us*43
$GNRMC,163710.10,A,4807.05314,N,01116.16669,E,25.74,88.74,160520,,,D*40
$GNGGA,163710.10,4807.05314,N,01116.16669,E,2,12,0.57,674.8,M,46.5,M,,0000*48
$GNGSA,A,3,10,20,11,21,08,27,16,01,22,32,,,1.01,0.57,0.83*1F
$GNVTG,88.74,T,,M,25.574,N,47.363,K,D*11
$SMGPS,111.2 m,-1.32 m/s,8.34 VRx,5.179 km,166 m,76.7 °,1:0  (103.4 km/h)*FC
$SMGPS2,+0.13 X,+0.06 Y,+0.86 Z,999 ENL,0 us*48
$GNRMC,163710.20,A,4807.05318,N,01116.16774,E,25.62,86.05,160520,,,D*4D
$GNGGA,163710.20,4807.05318,N,01116.16774,E,2,12,0.57,675.2,M,46.5,M,,0000*41
$GNGSA,A,3,10,20,11,21,08,27,16,01,22,32,,,1.01,0.57,0.83*1F
$GNVTG,86.05,T,,M,25.382,N,47.007,K,D*17
$SMGPS,111.6 m,-1.58 m/s,8.34 VRx,5.181 km,166 m,76.8 °,1:1  ( 97.7 km/h)*E2
$SMGPS2,+0.12 X,+0.06 Y,+0.92 Z,999 ENL,0 us*4C
$GNRMC,163710.30,A,4807.05325,N,01116.16879,E,25.78,82.76,160520,,,D*4B
$GNGGA,163710.30,4807.05325,N,01116.16879,E,2,12,0.57,674.7,M,46.5,M,,0000*48
$GNGSA,A,3,10,20,11,21,08,27,16,01,22,32,,,1.01,0.57,0.83*1F
$GNVTG,82.76,T,,M,25.427,N,47.091,K,D*10
$SMGPS,111.1 m,-1.89 m/s,8.34 VRx,5.182 km,168 m,76.9 °,1:1  ( 97.7 km/h)*E5
$SMGPS2,+0.14 X,+0.05 Y,+0.98 Z,999 ENL,0 us*43
$GNRMC,163710.40,A,4807.05336,N,01116.16983,E,25.93,79.49,160520,,,D*47
$GNGGA,163710.40,4807.05336,N,01116.16983,E,2,12,0.57,673.4,M,46.5,M,,0000*4D
$GNGSA,A,3,10,20,11,21,08,27,16,01,22,32,,,1.01,0.57,0.83*1F
$GNVTG,79.49,T,,M,25.385,N,47.012,K,D*1C
$SMGPS,109.8 m,-2.37 m/s,8.34 VRx,5.183 km,168 m,77.1 °,1:1  ( 97.7 km/h)*EB
$SMGPS2,+0.16 X,+0.09 Y,+0.96 Z,999 ENL,0 us*43
$GNRMC,163710.50,A,4807.05352,N,01116.17085,E,25.80,74.30,160520,,,D*4B
$GNGGA,163710.50,4807.05352,N,01116.17085,E,2,12,0.57,672.7,M,46.5,M,,0000*42
$GNGSA,A,3,10,20,11,21,08,27,16,01,22,32,,,1.01,0.57,0.83*1F
$GNVTG,74.30,T,,M,25.106,N,46.497,K,D*1E
$SMGPS,109.1 m,-2.72 m/s,8.34 VRx,5.184 km,168 m,77.2 °,1:1  ( 97.7 km/h)*E7
$SMGPS2,+0.14 X,+0.07 Y,+1.06 Z,999 ENL,0 us*47
$GNRMC,163710.60,A,4807.05373,N,01116.17184,E,25.98,69.80,160520,,,D*45
$GNGGA,163710.60,4807.05373,N,01116.17184,E,2,12,0.57,671.9,M,46.5,M,,0000*4F
$GNGSA,A,3,10,20,11,21,08,27,16,01,22,32,,,1.01,0.57,0.83*1F
$GNVTG,69.80,T,,M,25.137,N,46.554,K,D*15
$SMGPS,108.3 m,-3.07 m/s,8.34 VRx,5.186 km,169 m,77.0 °,1:1  ( 97.7 km/h)*E6
$SMGPS2,+0.11 X,-0.03 Y,+1.06 Z,999 ENL,0 us*40
$GNRMC,163710.70,A,4807.05400,N,01116.17279,E,25.59,65.83,160520,,,D*44
$GNGGA,163710.70,4807.05400,N,01116.17279,E,2,12,0.57,671.3,M,46.5,M,,0000*46
$GNGSA,A,3,10,20,11,21,08,27,16,01,22,32,,,1.01,0.57,0.83*1F
$GNVTG,65.83,T,,M,24.610,N,45.577,K,D*1B
$SMGPS,107.7 m,-3.39 m/s,8.34 VRx,5.187 km,169 m,77.1 °,1:1  ( 97.7 km/h)*E0
$SMGPS2,+0.14 X,-0.07 Y,+1.02 Z,999 ENL,0 us*45
$GNRMC,163710.80,A,4807.05429,N,01116.17368,E,25.13,60.96,160520,,,D*4E
$GNGGA,163710.80,4807.05429,N,01116.17368,E,2,12,0.57,670.3,M,46.5,M,,0000*42
$GNGSA,A,3,10,20,11,21,08,27,16,01,22,32,,,1.01,0.57,0.83*1F
$GNVTG,60.96,T,,M,23.939,N,44.335,K,D*18
$SMGPS,106.7 m,-3.91 m/s,8.34 VRx,5.189 km,170 m,76.8 °,1:1  ( 97.7 km/h)*ED
$SMGPS2,+0.09 X,-0.07 Y,+1.15 Z,999 ENL,0 us*4F
$GNRMC,163710.90,A,4807.05463,N,01116.17450,E,24.63,55.34,160520,,,D*45
$GNGGA,163710.90,4807.05463,N,01116.17450,E,2,12,0.57,668.4,M,46.5,M,,0000*4F
$GNGSA,A,3,10,20,11,21,08,27,16,01,22,32,,,1.01,0.57,0.83*1F
$GNVTG,55.34,T,,M,23.133,N,42.843,K,D*18
$SMGPS,104.8 m,-4.40 m/s,8.34 VRx,5.190 km,170 m,76.9 °,1:1  ( 97.7 km/h)*E2
$SMGPS2,+0.11 X,-0.05 Y,+1.30 Z,999 ENL,0 us*43
$GNRMC,163711.00,A,4807.05499,N,01116.17525,E,23.86,50.78,160520,,,D*4A
$GNGGA,163711.00,4807.05499,N,01116.17525,E,2,12,0.57,666.5,M,46.5,M,,0000*4E
$GNGSA,A,3,10,20,11,21,08,27,16,01,22,32,,,1.01,0.57,0.83*1F
$GNVTG,50.78,T,,M,21.899,N,40.556,K,D*15
$SMGPS,102.9 m,-5.00 m/s,8.34 VRx,5.191 km,170 m,76.7 °,1:1  ( 92.7 km/h)*EA
$SMGPS2,+0.10 X,-0.12 Y,+1.44 Z,999 ENL,0 us*47
$GNRMC,163711.10,A,4807.05536,N,01116.17591,E,23.26,46.03,160520,,,D*41
$GNGGA,163711.10,4807.05536,N,01116.17591,E,2,12,0.57,665.1,M,46.5,M,,0000*43
$GNGSA,A,3,10,20,11,21,08,27,16,01,22,32,,,1.01,0.57,0.83*1F
$GNVTG,46.03,T,,M,20.697,N,38.330,K,D*16
$SMGPS,101.5 m,-5.65 m/s,8.34 VRx,5.193 km,170 m,76.3 °,1:1  ( 92.7 km/h)*E0
$SMGPS2,+0.09 X,-0.12 Y,+1.19 Z,999 ENL,0 us*47
$GNRMC,163711.20,A,4807.05574,N,01116.17649,E,22.61,41.85,160520,,,D*49
$GNGGA,163711.20,4807.05574,N,01116.17649,E,2,12,0.57,662.6,M,46.5,M,,0000*40
$GNGSA,A,3,10,20,11,21,08,27,16,01,22,32,,,1.01,0.57,0.83*1F
$GNVTG,41.85,T,,M,19.084,N,35.343,K,D*18
$SMGPS,99.0 m,-6.52 m/s,8.34 VRx,5.193 km,169 m,76.3 °,1:1  ( 92.7 km/h)*DA
$SMGPS2,+0.04 X,-0.06 Y,+1.40 Z,999 ENL,0 us*43
$GNRMC,163711.30,A,4807.05613,N,01116.17698,E,23.07,36.45,160520,,,D*4B
$GNGGA,163711.30,4807.05613,N,01116.17698,E,2,12,0.57,660.3,M,46.5,M,,0000*48
$GNGSA,A,3,10,20,11,21,08,27,16,01,22,32,,,1.01,0.57,0.83*1F
$GNVTG,36.45,T,,M,18.003,N,33.341,K,D*1E
$SMGPS,96.7 m,-7.78 m/s,8.34 VRx,5.195 km,169 m,76.1 °,1:1  ( 92.7 km/h)*DF
$SMGPS2,+0.05 X,-0.09 Y,+1.43 Z,999 ENL,0 us*4E
$GNRMC,163711.40,A,4807.05651,N,01116.17737,E,22.92,30.28,160520,,,D*4E
$GNGGA,163711.40,4807.05651,N,01116.17737,E,2,12,0.57,658.7,M,46.5,M,,0000*42
$GNGSA,A,3,10,20,11,21,08,27,16,01,22,32,,,1.01,0.57,0.83*1F
$GNVTG,30.28,T,,M,16.342,N,30.265,K,D*1F
$SMGPS,95.1 m,-8.62 m/s,8.34 VRx,5.196 km,168 m,75.8 °,1:1  ( 92.7 km/h)*D6
$SMGPS2,+0.06 X,-0.11 Y,+1.45 Z,999 ENL,0 us*42
$GNRMC,163711.50,A,4807.05688,N,01116.17768,E,23.22,24.17,160520,,,D*42
$GNGGA,163711.50,4807.05688,N,01116.17768,E,2,12,0.57,656.8,M,46.5,M,,0000*4C
$GNGSA,A,3,10,20,11,21,08,27,16,01,22,32,,,1.01,0.57,0.83*1F
$GNVTG,24.17,T,,M,15.006,N,27.790,K,D*1F
$SMGPS,93.2 m,-9.36 m/s,8.34 VRx,5.197 km,168 m,75.5 °,1:1  ( 92.7 km/h)*DF
$SMGPS2,+0.09 X,-0.08 Y,+1.39 Z,999 ENL,0 us*4E
$GNRMC,163711.60,A,4807.05726,N,01116.17787,E,23.63,13.36,160520,,,D*47
$GNGGA,163711.60,4807.05726,N,01116.17787,E,2,12,0.57,656.9,M,46.5,M,,0000*4A
$GNGSA,A,3,10,20,11,21,08,27,16,01,22,32,,,1.01,0.57,0.83*1F
$GNVTG,13.36,T,,M,13.804,N,25.564,K,D*1F
$SMGPS,93.3 m,-10.04 m/s,8.34 VRx,5.197 km,167 m,75.5 °,1:1  ( 92.7 km/h)*E8
$SMGPS2,+0.07 X,-0.07 Y,+1.77 Z,999 ENL,0 us*45
$GNRMC,163711.70,A,4807.05763,N,01116.17793,E,24.20,0.98,160520,,,D*74
$GNGGA,163711.70,4807.05763,N,01116.17793,E,2,12,0.57,654.9,M,46.5,M,,0000*4D
$GNGSA,A,3,10,20,11,21,08,27,16,01,22,32,,,1.01,0.57,0.83*1F
$GNVTG,0.98,T,,M,13.196,N,24.439,K,D*23
$SMGPS,91.3 m,-10.59 m/s,8.34 VRx,5.198 km,167 m,75.2 °,1:1  ( 92.7 km/h)*EA
$SMGPS2,+0.07 X,-0.04 Y,+1.77 Z,999 ENL,0 us*46
$GNRMC,163711.80,A,4807.05799,N,01116.17786,E,24.83,344.38,160520,,,D*7A
$GNGGA,163711.80,4807.05799,N,01116.17786,E,2,12,0.57,654.3,M,46.5,M,,0000*49
$GNGSA,A,3,10,20,11,21,08,27,16,01,22,32,,,1.01,0.57,0.83*1F
$GNVTG,344.38,T,,M,12.935,N,23.956,K,D*29
$SMGPS,90.7 m,-11.12 m/s,8.34 VRx,5.199 km,166 m,74.9 °,1:1  ( 92.7 km/h)*EB
$SMGPS2,+0.09 X,-0.01 Y,+2.39 Z,999 ENL,0 us*44
$GNRMC,163711.90,A,4807.05834,N,01116.17760,E,26.55,326.03,160520,,,D*7E
$GNGGA,163711.90,4807.05834,N,01116.17760,E,2,12,0.57,651.0,M,46.5,M,,0000*4E
$GNGSA,A,3,10,20,11,21,08,27,16,01,22,32,,,1.01,0.57,0.83*1F
$GNVTG,326.03,T,,M,14.719,N,27.260,K,D*29
$SMGPS,87.4 m,-11.62 m/s,8.33 VRx,5.200 km,166 m,74.5 °,1:1  ( 92.7 km/h)*E1
$SMGPS2,+0.10 X,-0.02 Y,+2.46 Z,999 ENL,0 us*47
$GNRMC,163712.00,A,4807.05866,N,01116.17716,E,29.00,310.04,160520,,,D*7F
$GNGGA,163712.00,4807.05866,N,01116.17716,E,2,12,0.57,648.3,M,46.5,M,,0000*49
$GNGSA,A,3,10,20,11,21,08,27,16,01,22,32,,,1.01,0.57,0.83*1F
$GNVTG,310.04,T,,M,17.017,N,31.515,K,D*23
$SMGPS,84.7 m,-12.50 m/s,8.33 VRx,5.200 km,164 m,74.5 °,1:1  ( 92.7 km/h)*E1
$SMGPS2,+0.11 X,-0.02 Y,+2.54 Z,999 ENL,0 us*45
$GNRMC,163712.10,A,4807.05896,N,01116.17658,E,31.19,301.71,160520,,,D*79
$GNGGA,163712.10,4807.05896,N,01116.17658,E,2,12,0.57,646.0,M,46.5,M,,0000*41
$GNGSA,A,3,10,20,11,21,08,27,16,01,22,32,,,1.01,0.57,0.83*1F
$GNVTG,301.71,T,,M,19.393,N,35.915,K,D*28
$SMGPS,82.4 m,-13.20 m/s,8.33 VRx,5.201 km,162 m,74.1 °,1:1  ( 92.7 km/h)*E1
$SMGPS2,+0.11 X,-0.03 Y,+2.59 Z,999 ENL,0 us*49
$GNRMC,163712.20,A,4807.05923,N,01116.17586,E,33.84,294.28,160520,,,D*72
$GNGGA,163712.20,4807.05923,N,01116.17586,E,2,12,0.57,644.0,M,46.5,M,,0000*4F
$GNGSA,A,3,10,20,11,21,08,27,16,01,22,32,,,1.01,0.57,0.83*1F
$GNVTG,294.28,T,,M,22.418,N,41.519,K,D*26
$SMGPS,80.4 m,-13.78 m/s,8.33 VRx,5.202 km,161 m,73.5 °,1:1  ( 86.8 km/h)*E7
$SMGPS2,+0.09 X,-0.07 Y,+2.49 Z,999 ENL,0 us*45
$GNRMC,163712.30,A,4807.05945,N,01116.17486,E,37.58,285.89,160520,,,D*7C
$GNGGA,163712.30,4807.05945,N,01116.17486,E,2,12,0.59,642.5,M,46.5,M,,0000*42
$GNGSA,A,3,10,20,11,21,08,27,16,01,22,32,,,1.01,0.59,0.83*11
$GNVTG,285.89,T,,M,26.909,N,49.836,K,D*2C
$SMGPS,78.9 m,-14.30 m/s,8.34 VRx,5.203 km,159 m,73.4 °,1:1  ( 86.8 km/h)*EA
$SMGPS2,+0.13 X,-0.09 Y,+2.50 Z,999 ENL,0 us*48
$GNRMC,163712.40,A,4807.05963,N,01116.17365,E,41.98,280.63,160520,,,D*79
$GNGGA,163712.40,4807.05963,N,01116.17365,E,2,12,0.59,636.7,M,46.5,M,,0000*4A
$GNGSA,A,3,10,20,11,21,08,27,16,01,22,32,,,1.01,0.59,0.83*11
$GNVTG,280.63,T,,M,31.175,N,57.736,K,D*28
$SMGPS,73.1 m,-15.20 m/s,8.34 VRx,5.205 km,157 m,72.9 °,1:1  ( 86.8 km/h)*ED
$SMGPS2,+0.13 X,-0.09 Y,+2.03 Z,999 ENL,0 us*4E
$GNRMC,163712.50,A,4807.05976,N,01116.17228,E,45.53,277.39,160520,,,D*70
$GNGGA,163712.50,4807.05976,N,01116.17228,E,2,12,0.59,635.3,M,46.5,M,,0000*40
$GNGSA,A,3,10,20,11,21,08,27,16,01,22,32,,,1.01,0.59,0.83*11
$GNVTG,277.39,T,,M,34.217,N,63.371,K,D*2D
$SMGPS,71.7 m,-16.04 m/s,8.33 VRx,5.206 km,153 m,72.7 °,1:1  ( 86.8 km/h)*E2
$SMGPS2,+0.10 X,-0.11 Y,+2.45 Z,999 ENL,0 us*46
$GNRMC,163712.60,A,4807.05986,N,01116.17077,E,48.93,274.76,160520,,,D*7D
$GNGGA,163712.60,4807.05986,N,01116.17077,E,2,12,0.59,634.3,M,46.5,M,,0000*45
$GNGSA,A,3,10,20,11,21,08,27,16,01,22,32,,,1.01,0.59,0.83*11
$GNVTG,274.76,T,,M,37.559,N,69.559,K,D*2D
$SMGPS,70.7 m,-16.55 m/s,8.33 VRx,5.208 km,151 m,72.5 °,1:1  ( 86.8 km/h)*E9
$SMGPS2,+0.11 X,-0.17 Y,+2.71 Z,999 ENL,0 us*46
$GNRMC,163712.70,A,4807.05991,N,01116.16912,E,53.15,270.88,160520,,,D*70
$GNGGA,163712.70,4807.05991,N,01116.16912,E,2,12,0.59,631.8,M,46.5,M,,0000*47
$GNGSA,A,3,10,20,11,21,08,27,16,01,22,32,,,1.01,0.59,0.83*11
$GNVTG,270.88,T,,M,41.856,N,77.518,K,D*21
$SMGPS,68.2 m,-17.06 m/s,8.33 VRx,5.210 km,149 m,71.9 °,1:1  ( 86.8 km/h)*ED
$SMGPS2,+0.16 X,-0.13 Y,+2.37 Z,999 ENL,0 us*47
$GNRMC,163712.80,A,4807.05990,N,01116.16730,E,57.10,268.69,160520,,,D*77
$GNGGA,163712.80,4807.05990,N,01116.16730,E,2,12,0.59,627.4,M,46.5,M,,0000*4C
$GNGSA,A,3,10,20,11,21,08,27,16,01,22,32,,,1.01,0.59,0.83*11
$GNVTG,268.69,T,,M,45.071,N,83.471,K,D*2B
$SMGPS,63.8 m,-17.87 m/s,8.33 VRx,5.212 km,146 m,71.6 °,1:1  ( 86.8 km/h)*E7
$SMGPS2,+0.16 X,-0.15 Y,+2.27 Z,999 ENL,0 us*40
$GNRMC,163712.90,A,4807.05986,N,01116.16537,E,59.94,267.35,160520,,,D*70
$GNGGA,163712.90,4807.05986,N,01116.16537,E,2,12,0.59,625.5,M,46.5,M,,0000*4C
$GNGSA,A,3,10,20,11,21,08,27,16,01,22,32,,,1.01,0.59,0.83*11
$GNVTG,267.35,T,,M,47.586,N,88.130,K,D*29
$SMGPS,61.9 m,-18.39 m/s,8.33 VRx,5.214 km,143 m,71.3 °,1:1  ( 84.3 km/h)*E1
$SMGPS2,+0.22 X,-0.05 Y,+2.47 Z,999 ENL,0 us*40
$GNRMC,163713.00,A,4807.05978,N,01116.16334,E,62.79,265.74,160520,,,D*70
$GNGGA,163713.00,4807.05978,N,01116.16334,E,2,12,0.59,625.7,M,46.5,M,,0000*42
$GNGSA,A,3,10,20,11,21,08,27,16,01,22,32,,,1.01,0.59,0.83*11
$GNVTG,265.74,T,,M,50.293,N,93.143,K,D*25
$SMGPS,62.1 m,-18.92 m/s,8.33 VRx,5.217 km,140 m,70.9 °,1:1  ( 84.3 km/h)*E0
$SMGPS2,+0.06 X,-0.14 Y,+3.30 Z,999 ENL,0 us*47
$GNRMC,163713.10,A,4807.05964,N,01116.16118,E,66.26,263.56,160520,,,D*78
$GNGGA,163713.10,4807.05964,N,01116.16118,E,2,12,0.59,621.7,M,46.5,M,,0000*46
$GNGSA,A,3,10,20,11,21,08,27,16,01,22,32,,,1.01,0.59,0.83*11
$GNVTG,263.56,T,,M,54.357,N,100.669,K,D*1A
$SMGPS,58.1 m,-19.16 m/s,8.33 VRx,5.219 km,137 m,70.9 °,1:1  ( 84.3 km/h)*EA
$SMGPS2,+0.18 X,-0.14 Y,+2.77 Z,999 ENL,0 us*4A
$GNRMC,163713.20,A,4807.05944,N,01116.15887,E,69.33,262.05,160520,,,D*79
$GNGGA,163713.20,4807.05944,N,01116.15887,E,2,12,0.59,619.4,M,46.5,M,,0000*43
$GNGSA,A,3,10,20,11,21,08,27,16,01,22,32,,,1.01,0.59,0.83*11
$GNVTG,262.05,T,,M,57.666,N,106.798,K,D*10
$SMGPS,55.8 m,-19.49 m/s,8.33 VRx,5.222 km,133 m,70.5 °,1:1  ( 84.3 km/h)*E4
$SMGPS2,+0.14 X,-0.16 Y,+2.57 Z,999 ENL,0 us*46
$GNRMC,163713.30,A,4807.05919,N,01116.15644,E,71.95,260.55,160520,,,D*73
$GNGGA,163713.30,4807.05919,N,01116.15644,E,2,12,0.59,616.6,M,46.5,M,,0000*46
$GNGSA,A,3,10,20,11,21,08,27,16,01,22,32,,,1.01,0.59,0.83*11
$GNVTG,260.55,T,,M,60.251,N,111.586,K,D*18
$SMGPS,53.0 m,-19.97 m/s,8.33 VRx,5.225 km,130 m,70.0 °,1:1  ( 85.5 km/h)*EF
$SMGPS2,+0.23 X,-0.16 Y,+1.90 Z,999 ENL,0 us*4A
$GNRMC,163713.40,A,4807.05890,N,01116.15392,E,74.14,259.74,160520,,,D*7F
$GNGGA,163713.40,4807.05890,N,01116.15392,E,2,12,0.59,613.4,M,46.5,M,,0000*48
$GNGSA,A,3,10,20,11,21,08,27,16,01,22,32,,,1.01,0.59,0.83*11
$GNVTG,259.74,T,,M,62.268,N,115.321,K,D*16
$SMGPS,49.8 m,-20.46 m/s,8.33 VRx,5.228 km,126 m,69.9 °,1:1  ( 85.5 km/h)*E1
$SMGPS2,+0.22 X,-0.12 Y,+1.74 Z,999 ENL,0 us*45
$GNRMC,163713.50,A,4807.05857,N,01116.15134,E,75.40,259.23,160520,,,D*79
$GNGGA,163713.50,4807.05857,N,01116.15134,E,2,12,0.59,611.9,M,46.5,M,,0000*43
$GNGSA,A,3,10,20,11,21,08,27,16,01,22,32,,,1.01,0.59,0.83*11
$GNVTG,259.23,T,,M,63.374,N,117.369,K,D*17
$SMGPS,48.3 m,-20.79 m/s,8.33 VRx,5.231 km,122 m,69.4 °,1:1  ( 85.5 km/h)*E6
$SMGPS2,+0.25 X,-0.11 Y,+1.92 Z,999 ENL,0 us*49
$GNRMC,163713.60,A,4807.05823,N,01116.14872,E,76.59,258.97,160520,,,D*76
$GNGGA,163713.60,4807.05823,N,01116.14872,E,2,12,0.59,611.4,M,46.5,M,,0000*44
$GNGSA,A,3,10,20,11,21,08,27,16,01,22,32,,,1.01,0.59,0.83*11
$GNVTG,258.97,T,,M,64.852,N,120.106,K,D*1E
$SMGPS,47.8 m,-20.75 m/s,8.33 VRx,5.235 km,118 m,69.4 °,1:1  ( 85.5 km/h)*E3
$SMGPS2,+0.20 X,-0.12 Y,+2.51 Z,999 ENL,0 us*43
$GNRMC,163713.70,A,4807.05788,N,01116.14603,E,77.97,258.79,160520,,,D*72
$GNGGA,163713.70,4807.05788,N,01116.14603,E,2,12,0.59,610.4,M,46.5,M,,0000*42
$GNGSA,A,3,10,20,11,21,08,27,16,01,22,32,,,1.01,0.59,0.83*11
$GNVTG,258.79,T,,M,66.577,N,123.301,K,D*10
$SMGPS,46.8 m,-20.74 m/s,8.33 VRx,5.238 km,115 m,69.2 °,1:1  ( 88.6 km/h)*EB
$SMGPS2,+0.28 X,-0.07 Y,+1.81 Z,999 ENL,0 us*41
$GNRMC,163713.80,A,4807.05751,N,01116.14328,E,79.65,258.31,160520,,,D*7A
$GNGGA,163713.80,4807.05751,N,01116.14328,E,2,12,0.59,607.1,M,46.5,M,,0000*46
$GNGSA,A,3,10,20,11,21,08,27,16,01,22,32,,,1.01,0.59,0.83*11
$GNVTG,258.31,T,,M,68.297,N,126.487,K,D*17
$SMGPS,43.5 m,-20.86 m/s,8.33 VRx,5.241 km,112 m,68.5 °,1:1  ( 88.6 km/h)*E1
$SMGPS2,+0.12 X,-0.14 Y,+1.13 Z,999 ENL,0 us*41
$GNRMC,163713.90,A,4807.05713,N,01116.14049,E,79.88,258.31,160520,,,D*7A
$GNGGA,163713.90,4807.05713,N,01116.14049,E,2,12,0.59,603.6,M,46.5,M,,0000*46
$GNGSA,A,3,10,20,11,21,08,27,16,01,22,32,,,1.01,0.59,0.83*11
$GNVTG,258.31,T,,M,68.554,N,126.961,K,D*1A
$SMGPS,40.0 m,-20.90 m/s,8.33 VRx,5.245 km,107 m,68.3 °,1:1  ( 88.6 km/h)*E6
$SMGPS2,+0.38 X,-0.06 Y,+0.74 Z,999 ENL,0 us*4A
$GNRMC,163714.00,A,4807.05673,N,01116.13768,E,80.12,258.05,160520,,,D*72
$GNGGA,163714.00,4807.05673,N,01116.13768,E,2,12,0.59,601.4,M,46.5,M,,0000*4C
$GNGSA,A,3,10,20,11,21,08,27,16,01,22,32,,,1.01,0.59,0.83*11
$GNVTG,258.05,T,,M,68.760,N,127.344,K,D*14
$SMGPS,37.8 m,-20.94 m/s,8.33 VRx,5.248 km,103 m,68.0 °,1:1  ( 92.3 km/h)*EE
$SMGPS2,+0.29 X,-0.11 Y,+0.79 Z,999 ENL,0 us*41
$GNRMC,163714.10,A,4807.05634,N,01116.13487,E,80.30,258.06,160520,,,D*71
$GNGGA,163714.10,4807.05634,N,01116.13487,E,2,12,0.60,600.7,M,46.5,M,,0000*44
$GNGSA,A,3,10,20,11,21,08,27,16,01,22,32,,,1.03,0.60,0.84*1E
$GNVTG,258.06,T,,M,69.168,N,128.100,K,D*15
$SMGPS,37.1 m,-20.80 m/s,8.33 VRx,5.252 km,98 m,67.6 °,1:1  ( 92.3 km/h)*D3
$SMGPS2,+0.08 X,-0.23 Y,+0.44 Z,999 ENL,0 us*4D
$GNRMC,163714.20,A,4807.05595,N,01116.13205,E,80.32,257.96,160520,,,D*72
$GNGGA,163714.20,4807.05595,N,01116.13205,E,2,12,0.59,596.5,M,46.5,M,,0000*47
$GNGSA,A,3,10,20,11,21,08,27,16,01,22,32,,,1.01,0.59,0.83*11
$GNVTG,257.96,T,,M,69.138,N,128.043,K,D*10
$SMGPS,32.9 m,-20.85 m/s,8.33 VRx,5.256 km,95 m,67.3 °,1:1  ( 92.3 km/h)*D7
$SMGPS2,+0.06 X,-0.21 Y,-0.18 Z,999 ENL,0 us*4E
$GNRMC,163714.30,A,4807.05555,N,01116.12924,E,80.12,257.81,160520,,,D*72
$GNGGA,163714.30,4807.05555,N,01116.12924,E,2,12,0.59,595.7,M,46.5,M,,0000*42
$GNGSA,A,3,10,20,11,21,08,27,16,01,22,32,,,1.01,0.59,0.83*11
$GNVTG,257.81,T,,M,68.547,N,126.950,K,D*1E
$SMGPS,32.1 m,-21.06 m/s,8.33 VRx,5.259 km,90 m,66.4 °,1:1  ( 95.8 km/h)*D5
$SMGPS2,+0.17 X,-0.17 Y,+0.86 Z,999 ENL,0 us*4A
$GNRMC,163714.40,A,4807.05516,N,01116.12645,E,80.19,257.83,160520,,,D*73
$GNGGA,163714.40,4807.05516,N,01116.12645,E,2,12,0.59,594.8,M,46.5,M,,0000*44
$GNGSA,A,3,10,20,11,21,08,27,16,01,22,32,,,1.01,0.59,0.83*11
$GNVTG,257.83,T,,M,68.493,N,126.849,K,D*1D
$SMGPS,31.2 m,-21.13 m/s,8.33 VRx,5.263 km,87 m,65.9 °,1:1  ( 95.8 km/h)*D0
$SMGPS2,+0.12 X,-0.18 Y,+1.83 Z,999 ENL,0 us*44
$GNRMC,163714.50,A,4807.05476,N,01116.12361,E,82.05,257.59,160520,,,D*7E
$GNGGA,163714.50,4807.05476,N,01116.12361,E,2,12,0.59,590.4,M,46.5,M,,0000*49
$GNGSA,A,3,10,20,11,21,08,27,16,01,22,32,,,1.01,0.59,0.83*11
$GNVTG,257.59,T,,M,70.597,N,130.745,K,D*12
$SMGPS,26.8 m,-21.22 m/s,8.33 VRx,5.266 km,83 m,65.4 °,1:1  ( 95.8 km/h)*D2
$SMGPS2,-0.06 X,-0.24 Y,+0.50 Z,999 ENL,0 us*47
$GNRMC,163714.60,A,4807.05434,N,01116.12074,E,81.38,257.60,160520,,,D*7B
$GNGGA,163714.60,4807.05434,N,01116.12074,E,2,12,0.59,593.7,M,46.5,M,,0000*4B
$GNGSA,A,3,10,20,11,21,08,27,16,01,22,32,,,1.01,0.59,0.83*11
$GNVTG,257.60,T,,M,70.195,N,130.001,K,D*19
$SMGPS,30.1 m,-20.82 m/s,8.33 VRx,5.270 km,78 m,65.2 °,1:1  ( 99.3 km/h)*D5
$SMGPS2,+0.44 X,-0.10 Y,+2.16 Z,999 ENL,0 us*40
$GNRMC,163714.70,A,4807.05393,N,01116.11786,E,81.50,257.63,160520,,,D*74
$GNGGA,163714.70,4807.05393,N,01116.11786,E,2,12,0.59,593.5,M,46.5,M,,0000*4B
$GNGSA,A,3,10,20,11,21,08,27,16,01,22,32,,,1.01,0.59,0.83*11
$GNVTG,257.63,T,,M,71.261,N,131.976,K,D*1B
$SMGPS,29.9 m,-20.04 m/s,8.33 VRx,5.274 km,76 m,64.6 °,1:1  ( 99.3 km/h)*D4
$SMGPS2,+0.20 X,-0.09 Y,+2.31 Z,999 ENL,0 us*4F
$GNRMC,163714.80,A,4807.05350,N,01116.11492,E,82.47,257.64,160520,,,D*70
$GNGGA,163714.80,4807.05350,N,01116.11492,E,2,12,0.59,593.5,M,46.5,M,,0000*4D
$GNGSA,A,3,10,20,11,21,08,27,16,01,22,32,,,1.01,0.59,0.83*11
$GNVTG,257.64,T,,M,73.236,N,135.633,K,D*16
$SMGPS,29.9 m,-19.18 m/s,8.33 VRx,5.277 km,73 m,64.0 °,1:1  ( 99.3 km/h)*D3
$SMGPS2,+0.29 X,-0.02 Y,+2.57 Z,999 ENL,0 us*4D
$GNRMC,163714.90,A,4807.05307,N,01116.11193,E,82.22,257.83,160520,,,D*7D
$GNGGA,163714.90,4807.05307,N,01116.11193,E,2,12,0.59,593.4,M,46.5,M,,0000*4B
$GNGSA,A,3,10,20,11,21,08,27,16,01,22,32,,,1.01,0.59,0.83*11
$GNVTG,257.83,T,,M,74.192,N,137.403,K,D*16
$SMGPS,29.8 m,-17.98 m/s,8.33 VRx,5.281 km,70 m,62.5 °,1:-- ( 99.3 km/h)*CC
$SMGPS2,+0.23 X,+0.01 Y,+2.34 Z,999 ENL,0 us*47
$GNRMC,163715.00,A,4807.05264,N,01116.10888,E,82.41,258.05,160520,,,D*77
$GNGGA,163715.00,4807.05264,N,01116.10888,E,2,12,0.59,590.5,M,46.5,M,,0000*47
$GNGSA,A,3,10,20,11,21,08,27,16,01,22,32,,,1.01,0.59,0.83*11
$GNVTG,258.05,T,,M,75.758,N,140.303,K,D*11
$SMGPS,26.9 m,-16.61 m/s,8.33 VRx,5.285 km,66 m,61.6 °,1:-- ( 99.3 km/h)*C6
$SMGPS2,+0.02 X,-0.11 Y,+2.02 Z,999 ENL,0 us*46
$GNRMC,163715.10,A,4807.05221,N,01116.10580,E,82.16,258.29,160520,,,D*7E
$GNGGA,163715.10,4807.05221,N,01116.10580,E,2,12,0.59,589.1,M,46.5,M,,0000*4E
$GNGSA,A,3,10,20,11,21,08,27,16,01,22,32,,,1.01,0.59,0.83*11
$GNVTG,258.29,T,,M,76.099,N,140.936,K,D*1A
$SMGPS,25.5 m,-15.87 m/s,8.33 VRx,5.289 km,62 m,60.4 °,1:-- ( 99.3 km/h)*C9
$SMGPS2,-0.03 X,-0.21 Y,+2.49 Z,999 ENL,0 us*4D
$GNRMC,163715.20,A,4807.05179,N,01116.10269,E,82.33,258.55,160520,,,D*7F
$GNGGA,163715.20,4807.05179,N,01116.10269,E,2,12,0.59,584.2,M,46.5,M,,0000*4D
$GNGSA,A,3,10,20,11,21,08,27,16,01,22,32,,,1.01,0.59,0.83*11
$GNVTG,258.55,T,,M,76.826,N,142.282,K,D*1B
$SMGPS,20.6 m,-15.21 m/s,8.33 VRx,5.292 km,58 m,59.2 °,1:0  (103.1 km/h)*CC
$SMGPS2,+0.05 X,-0.17 Y,+1.73 Z,999 ENL,0 us*42
$GNRMC,163715.30,A,4807.05137,N,01116.09954,E,82.80,258.79,160520,,,D*7F
$GNGGA,163715.30,4807.05137,N,01116.09954,E,2,12,0.59,581.4,M,46.5,M,,0000*48
$GNGSA,A,3,10,20,11,21,08,27,16,01,22,32,,,1.01,0.59,0.83*11
$GNVTG,258.79,T,,M,77.357,N,143.264,K,D*10
$SMGPS,17.8 m,-15.26 m/s,8.33 VRx,5.297 km,52 m,57.6 °,1:0  (103.1 km/h)*C4
$SMGPS2,+0.25 X,-0.18 Y,+1.22 Z,999 ENL,0 us*4B
$GNRMC,163715.40,A,4807.05096,N,01116.09639,E,82.96,258.67,160520,,,D*7E
$GNGGA,163715.40,4807.05096,N,01116.09639,E,2,12,0.59,581.8,M,46.5,M,,0000*4D
$GNGSA,A,3,10,20,11,21,08,27,16,01,22,32,,,1.01,0.59,0.83*11
$GNVTG,258.67,T,,M,77.362,N,143.275,K,D*19
$SMGPS,18.2 m,-15.48 m/s,8.33 VRx,5.301 km,48 m,56.3 °,1:0  (103.1 km/h)*C8
$SMGPS2,+0.45 X,-0.09 Y,+1.55 Z,999 ENL,0 us*4D
$GNRMC,163715.50,A,4807.05055,N,01116.09323,E,83.39,258.75,160520,,,D*79
$GNGGA,163715.50,4807.05055,N,01116.09323,E,2,12,0.59,580.3,M,46.5,M,,0000*47
$GNGSA,A,3,10,20,11,21,08,27,16,01,22,32,,,1.01,0.59,0.83*11
$GNVTG,258.75,T,,M,77.688,N,143.878,K,D*1C
$SMGPS,16.7 m,-15.63 m/s,8.33 VRx,5.304 km,44 m,54.3 °,1:0  (107.3 km/h)*C7
$SMGPS2,+0.30 X,-0.16 Y,+0.75 Z,999 ENL,0 us*42
$GNRMC,163715.60,A,4807.05013,N,01116.09006,E,83.99,258.81,160520,,,D*7D
$GNGGA,163715.60,4807.05013,N,01116.09006,E,2,12,0.59,577.6,M,46.5,M,,0000*4F
$GNGSA,A,3,10,20,11,21,08,27,16,01,22,32,,,1.01,0.59,0.83*11
$GNVTG,258.81,T,,M,77.865,N,144.206,K,D*1E
$SMGPS,14.0 m,-16.21 m/s,8.33 VRx,5.308 km,41 m,50.7 °,1:0  (107.3 km/h)*CE
$SMGPS2,+0.33 X,-0.16 Y,+0.91 Z,999 ENL,0 us*4B
$GNRMC,163715.70,A,4807.04972,N,01116.08690,E,83.88,258.81,160520,,,D*7B
$GNGGA,163715.70,4807.04972,N,01116.08690,E,2,12,0.59,577.4,M,46.5,M,,0000*4B
$GNGSA,A,3,10,20,11,21,08,27,16,01,22,32,,,1.01,0.59,0.83*11
$GNVTG,258.81,T,,M,77.515,N,143.558,K,D*1F
$SMGPS,13.8 m,-16.39 m/s,8.33 VRx,5.312 km,37 m,47.6 °,1:0  (107.3 km/h)*C5
$SMGPS2,+0.36 X,-0.12 Y,+1.27 Z,999 ENL,0 us*46
$GNRMC,163715.80,A,4807.04931,N,01116.08374,E,83.91,259.00,160520,,,D*7C
$GNGGA,163715.80,4807.04931,N,01116.08374,E,2,12,0.59,579.2,M,46.5,M,,0000*44
$GNGSA,A,3,10,20,11,21,08,27,16,01,22,32,,,1.01,0.59,0.83*11
$GNVTG,259.00,T,,M,77.591,N,143.698,K,D*14
$SMGPS,15.6 m,-16.31 m/s,8.33 VRx,5.316 km,33 m,43.7 °,1:1  (111.0 km/h)*C5
$SMGPS2,-0.08 X,-0.21 Y,+2.16 Z,999 ENL,0 us*4C
$GNRMC,163715.90,A,4807.04892,N,01116.08058,E,83.63,259.72,160520,,,D*70
$GNGGA,163715.90,4807.04892,N,01116.08058,E,2,12,0.59,580.1,M,46.5,M,,0000*45
$GNGSA,A,3,10,20,11,21,08,27,16,01,22,32,,,1.01,0.59,0.83*11
$GNVTG,259.72,T,,M,77.876,N,144.226,K,D*13
$SMGPS,16.5 m,-15.56 m/s,8.33 VRx,5.320 km,32 m,38.9 °,1:1  (111.0 km/h)*C1
$SMGPS2,+0.38 X,-0.07 Y,+2.31 Z,999 ENL,0 us*48
$GNRMC,163716.00,A,4807.04855,N,01116.07738,E,83.69,260.38,160520,,,D*71
$GNGGA,163716.00,4807.04855,N,01116.07738,E,2,12,0.62,577.2,M,46.5,M,,0000*49
$GNGSA,A,3,10,20,11,08,27,16,01,22,32,,,,1.08,0.62,0.88*18
$GNVTG,260.38,T,,M,78.493,N,145.369,K,D*14
$SMGPS,13.6 m,-14.78 m/s,8.33 VRx,5.325 km,30 m,32.7 °,1:1  (111.0 km/h)*C9
$SMGPS2,+0.26 X,-0.11 Y,+1.92 Z,999 ENL,0 us*4A
$GNRMC,163716.10,A,4807.04820,N,01116.07416,E,82.91,260.89,160520,,,D*71
$GNGGA,163716.10,4807.04820,N,01116.07416,E,2,12,0.62,577.5,M,46.5,M,,0000*42
$GNGSA,A,3,10,20,11,08,27,16,01,22,32,,,,1.08,0.62,0.88*18
$GNVTG,260.89,T,,M,78.248,N,144.915,K,D*1E
$SMGPS,13.9 m,-13.98 m/s,8.33 VRx,5.329 km,26 m,25.0 °,1:7  (114.3 km/h)*C5
$SMGPS2,+0.42 X,-0.12 Y,+2.21 Z,999 ENL,0 us*40
$GNRMC,163716.20,A,4807.04787,N,01116.07094,E,82.40,261.50,160520,,,D*77
$GNGGA,163716.20,4807.04787,N,01116.07094,E,2,12,0.62,577.1,M,46.5,M,,0000*49
$GNGSA,A,3,10,20,11,08,27,16,01,22,32,,,,1.08,0.62,0.88*18
$GNVTG,261.50,T,,M,78.205,N,144.836,K,D*12
$SMGPS,13.5 m,-13.28 m/s,8.33 VRx,5.332 km,25 m,14.6 °,1:7  (114.3 km/h)*CF
$SMGPS2,+0.17 X,-0.09 Y,+2.26 Z,999 ENL,0 us*4D
$GNRMC,163716.30,A,4807.04757,N,01116.06773,E,81.60,262.13,160520,,,D*71
$GNGGA,163716.30,4807.04757,N,01116.06773,E,2,12,0.62,578.0,M,46.5,M,,0000*44
$GNGSA,A,3,10,20,11,08,27,16,01,22,32,,,,1.08,0.62,0.88*18
$GNVTG,262.13,T,,M,78.029,N,144.510,K,D*13
$SMGPS,14.4 m,-12.23 m/s,8.33 VRx,5.337 km,23 m,2.9 °,1:7  (114.3 km/h)*F8
$SMGPS2,+0.23 X,-0.12 Y,+2.37 Z,999 ENL,0 us*40
$GNRMC,163716.40,A,4807.04730,N,01116.06452,E,80.97,262.90,160520,,,D*75
$GNGGA,163716.40,4807.04730,N,01116.06452,E,2,12,0.62,578.0,M,46.5,M,,0000*42
$GNGSA,A,3,10,20,11,08,27,16,01,22,32,,,,1.08,0.62,0.88*18
$GNVTG,262.90,T,,M,78.010,N,144.474,K,D*11
$SMGPS,14.4 m,-11.16 m/s,8.33 VRx,5.341 km,23 m,349.8 °,1:-- (114.3 km/h)*E6
$SMGPS2,+0.16 X,-0.09 Y,+2.41 Z,999 ENL,0 us*4D
$GNRMC,163716.50,A,4807.04705,N,01116.06132,E,79.58,263.53,160520,,,D*7A
$GNGGA,163716.50,4807.04705,N,01116.06132,E,2,12,0.62,579.0,M,46.5,M,,0000*47
$GNGSA,A,3,10,20,11,08,27,16,01,22,32,,,,1.08,0.62,0.88*18
$GNVTG,263.53,T,,M,77.271,N,143.106,K,D*12
$SMGPS,15.4 m,-9.82 m/s,8.33 VRx,5.345 km,24 m,337.8 °,1:-- (114.3 km/h)*D9
$SMGPS2,+0.26 X,-0.07 Y,+2.28 Z,999 ENL,0 us*4F
$GNRMC,163716.60,A,4807.04684,N,01116.05814,E,78.95,264.51,160520,,,D*7A
$GNGGA,163716.60,4807.04684,N,01116.05814,E,2,12,0.62,577.2,M,46.5,M,,0000*4E
$GNGSA,A,3,10,20,11,08,27,16,01,22,32,,,,1.08,0.62,0.88*18
$GNVTG,264.51,T,,M,76.890,N,142.401,K,D*10
$SMGPS,13.6 m,-9.16 m/s,8.33 VRx,5.349 km,26 m,325.6 °,1:-- (114.3 km/h)*D3
$SMGPS2,+0.19 X,-0.15 Y,+2.25 Z,999 ENL,0 us*4D
$GNRMC,163716.70,A,4807.04666,N,01116.05497,E,77.92,265.44,160520,,,D*7D
$GNGGA,163716.70,4807.04666,N,01116.05497,E,2,12,0.62,580.5,M,46.5,M,,0000*4B
$GNGSA,A,3,10,20,11,08,27,16,01,22,32,,,,1.08,0.62,0.88*18
$GNVTG,265.44,T,,M,76.288,N,141.286,K,D*1C
$SMGPS,16.9 m,-8.12 m/s,8.33 VRx,5.353 km,26 m,317.2 °,1:2  (117.2 km/h)*C2
$SMGPS2,+0.23 X,-0.10 Y,+3.56 Z,999 ENL,0 us*44
$GNRMC,163716.80,A,4807.04652,N,01116.05183,E,76.23,266.96,160520,,,D*72
$GNGGA,163716.80,4807.04652,N,01116.05183,E,2,12,0.59,582.2,M,46.5,M,,0000*4E
$GNGSA,A,3,10,20,11,21,08,27,16,01,22,32,,,1.01,0.59,0.83*11
$GNVTG,266.96,T,,M,75.023,N,138.942,K,D*1D
$SMGPS,18.6 m,-6.82 m/s,8.33 VRx,5.357 km,31 m,310.5 °,1:2  (117.2 km/h)*C6
$SMGPS2,+0.08 X,-0.07 Y,+4.32 Z,999 ENL,0 us*4E
$GNRMC,163716.90,A,4807.04645,N,01116.04873,E,73.93,268.93,160520,,,D*77
$GNGGA,163716.90,4807.04645,N,01116.04873,E,2,12,0.59,581.0,M,46.5,M,,0000*4F
$GNGSA,A,3,10,20,11,21,08,27,16,01,22,32,,,1.01,0.59,0.83*11
$GNVTG,268.93,T,,M,73.047,N,135.284,K,D*1E
$SMGPS,17.4 m,-5.75 m/s,8.33 VRx,5.361 km,34 m,304.0 °,1:2  (117.2 km/h)*C0
$SMGPS2,+0.08 X,-0.10 Y,+3.69 Z,999 ENL,0 us*41
$GNRMC,163717.00,A,4807.04644,N,01116.04573,E,71.23,270.58,160520,,,D*74
$GNGGA,163717.00,4807.04644,N,01116.04573,E,2,12,0.62,580.0,M,46.5,M,,0000*42
$GNGSA,A,3,10,20,11,08,27,16,01,22,32,,,,1.08,0.62,0.88*18
$GNVTG,270.58,T,,M,70.562,N,130.680,K,D*14
$SMGPS,16.4 m,-4.95 m/s,8.33 VRx,5.365 km,36 m,299.8 °,1:-- (117.2 km/h)*D7
$SMGPS2,+0.18 X,-0.20 Y,+3.24 Z,999 ENL,0 us*4A
$GNRMC,163717.10,A,4807.04649,N,01116.04282,E,68.74,272.04,160520,,,D*70
$GNGGA,163717.10,4807.04649,N,01116.04282,E,2,12,0.59,579.9,M,46.5,M,,0000*40
$GNGSA,A,3,10,20,11,21,08,27,16,01,22,32,,,1.01,0.59,0.83*11
$GNVTG,272.04,T,,M,68.194,N,126.296,K,D*1F
$SMGPS,16.3 m,-4.34 m/s,8.33 VRx,5.368 km,38 m,296.8 °,1:-- (117.2 km/h)*D7
$SMGPS2,+0.25 X,-0.20 Y,+2.78 Z,999 ENL,0 us*4C
$GNRMC,163717.20,A,4807.04660,N,01116.04003,E,66.39,273.91,160520,,,D*79
$GNGGA,163717.20,4807.04660,N,01116.04003,E,2,12,0.59,580.8,M,46.5,M,,0000*44
$GNGSA,A,3,10,20,11,21,08,27,16,01,22,32,,,1.01,0.59,0.83*11
$GNVTG,273.91,T,,M,65.986,N,122.205,K,D*1A
$SMGPS,17.2 m,-3.74 m/s,8.33 VRx,5.372 km,41 m,294.3 °,1:-- (117.2 km/h)*D8
$SMGPS2,+0.29 X,-0.24 Y,+1.84 Z,999 ENL,0 us*44
$GNRMC,163717.30,A,4807.04673,N,01116.03734,E,63.90,275.06,160520,,,D*70
$GNGGA,163717.30,4807.04673,N,01116.03734,E,2,12,0.59,580.7,M,46.5,M,,0000*4C
$GNGSA,A,3,10,20,11,21,08,27,16,01,22,32,,,1.01,0.59,0.83*11
$GNVTG,275.06,T,,M,63.637,N,117.856,K,D*1B
$SMGPS,17.1 m,-3.02 m/s,8.33 VRx,5.375 km,44 m,292.3 °,1:5  (118.3 km/h)*C5
$SMGPS2,+0.31 X,-0.29 Y,+1.47 Z,999 ENL,0 us*4F
$GNRMC,163717.40,A,4807.04689,N,01116.03471,E,62.65,275.98,160520,,,D*7C
$GNGGA,163717.40,4807.04689,N,01116.03471,E,2,12,0.59,583.0,M,46.5,M,,0000*48
$GNGSA,A,3,10,20,11,21,08,27,16,01,22,32,,,1.01,0.59,0.83*11
$GNVTG,275.98,T,,M,62.487,N,115.727,K,D*1F
$SMGPS,19.4 m,-2.38 m/s,8.33 VRx,5.379 km,47 m,291.6 °,1:5  (118.3 km/h)*CF
$SMGPS2,+0.25 X,-0.23 Y,+1.79 Z,999 ENL,0 us*4D
$GNRMC,163717.50,A,4807.04709,N,01116.03216,E,60.73,277.55,160520,,,D*75
$GNGGA,163717.50,4807.04709,N,01116.03216,E,2,12,0.59,583.2,M,46.5,M,,0000*45
$GNGSA,A,3,10,20,11,21,08,27,16,01,22,32,,,1.01,0.59,0.83*11
$GNVTG,277.55,T,,M,60.609,N,112.248,K,D*11
$SMGPS,19.6 m,-2.07 m/s,8.33 VRx,5.382 km,51 m,290.1 °,1:5  (118.3 km/h)*C4
$SMGPS2,+0.17 X,-0.23 Y,+2.05 Z,999 ENL,0 us*44
$GNRMC,163717.60,A,4807.04733,N,01116.02970,E,58.77,279.73,160520,,,D*70
$GNGGA,163717.60,4807.04733,N,01116.02970,E,2,12,0.59,583.5,M,46.5,M,,0000*42
$GNGSA,A,3,10,20,11,21,08,27,16,01,22,32,,,1.01,0.59,0.83*11
$GNVTG,279.73,T,,M,58.709,N,108.729,K,D*18
$SMGPS,19.9 m,-1.49 m/s,8.33 VRx,5.385 km,54 m,288.9 °,1:5  (118.3 km/h)*C1
$SMGPS2,+0.09 X,-0.23 Y,+1.36 Z,999 ENL,0 us*48
$GNRMC,163717.70,A,4807.04763,N,01116.02731,E,57.48,281.58,160520,,,D*72
$GNGGA,163717.70,4807.04763,N,01116.02731,E,2,12,0.59,582.9,M,46.5,M,,0000*40
$GNGSA,A,3,10,20,11,21,08,27,16,01,22,32,,,1.01,0.59,0.83*11
$GNVTG,281.58,T,,M,57.449,N,106.396,K,D*10
$SMGPS,19.3 m,-1.07 m/s,8.33 VRx,5.388 km,57 m,288.7 °,1:-- (118.3 km/h)*D4
$SMGPS2,+0.13 X,-0.12 Y,+0.74 Z,999 ENL,0 us*46
$GNRMC,163717.80,A,4807.04795,N,01116.02499,E,56.76,281.83,160520,,,D*7F
$GNGGA,163717.80,4807.04795,N,01116.02499,E,2,12,0.59,583.4,M,46.5,M,,0000*4B
$GNGSA,A,3,10,20,11,21,08,27,16,01,22,32,,,1.01,0.59,0.83*11
$GNVTG,281.83,T,,M,56.753,N,105.107,K,D*16
$SMGPS,19.8 m,-0.49 m/s,8.33 VRx,5.391 km,60 m,289.0 °,1:-- (118.3 km/h)*DE
$SMGPS2,+0.16 X,-0.15 Y,+0.64 Z,999 ENL,0 us*45
$GNRMC,163717.90,A,4807.04827,N,01116.02269,E,56.32,282.03,160520,,,D*7A
$GNGGA,163717.90,4807.04827,N,01116.02269,E,2,12,0.59,586.3,M,46.5,M,,0000*47
