$GPSSETUP,8A9B,0,1,1,0,0,1,0,0,0,1,3,0,0,0,0,6,0,C8,C8,1F4,1C2,32,64,7C,64,7D0,5,1,1,1E,0,0,0,0,0,0,1003,4,10,5,6,10,10,10,10,10,10,10,10,10,BC10,0,7C,0,108,302,604,0,20F,0,0,0,0,0,0,0,0,0,0,0,0,0,0,0,0,0,0,0,0,0,0,0,0,0,0,0,0,0,0,0,0,0,20,12C,6A8A*33
$SMGPS,62.2 m,-5.78 m/s,8.33 VRx,9.561 km,85 m,342.9 °,1:2  ( 95.6 km/h)*DD
$SMGPS2,-0.17 X,-0.02 Y,+2.13 Z,999 ENL,0 us*46
$GNRMC,164059.50,A,4807.06877,N,01116.06220,E,69.81,76.27,160520,,,D*49
$GNGGA,164059.50,4807.06877,N,01116.06220,E,2,12,0.57,625.8,M,46.5,M,,0000*40
$GNGSA,A,3,10,20,11,21,08,27,16,01,22,32,,,1.01,0.57,0.83*1F
$GNVTG,76.27,T,,M,69.079,N,127.933,K,D*2E
$SMGPS,62.2 m,-5.34 m/s,8.33 VRx,9.564 km,86 m,346.6 °,1:2  ( 95.6 km/h)*D8
$SMGPS2,-0.13 X,+0.17 Y,+3.09 Z,999 ENL,0 us*4A
$GNRMC,164059.60,A,4807.06924,N,01116.06495,E,68.72,74.77,160520,,,D*4F
$GNGGA,164059.60,4807.06924,N,01116.06495,E,2,12,0.57,625.2,M,46.5,M,,0000*46
$GNGSA,A,3,10,20,11,21,08,27,16,01,22,32,,,1.01,0.57,0.83*1F
$GNVTG,74.77,T,,M,68.061,N,126.048,K,D*25
$SMGPS,61.6 m,-4.89 m/s,8.33 VRx,9.568 km,86 m,350.2 °,1:-- ( 95.6 km/h)*C5
$SMGPS2,-0.26 X,-0.20 Y,+2.70 Z,999 ENL,0 us*41
$GNRMC,164059.70,A,4807.06976,N,01116.06765,E,67.57,73.03,160520,,,D*49
$GNGGA,164059.70,4807.06976,N,01116.06765,E,2,12,0.57,626.1,M,46.5,M,,0000*4C
$GNGSA,A,3,10,20,11,21,08,27,16,01,22,32,,,1.01,0.57,0.83*1F
$GNVTG,73.03,T,,M,66.980,N,124.048,K,D*2B
$SMGPS,62.5 m,-4.45 m/s,8.33 VRx,9.571 km,86 m,353.6 °,1:-- ( 95.6 km/h)*CA
$SMGPS2,+0.07 X,+0.05 Y,+2.64 Z,999 ENL,0 us*40
$GNRMC,164059.80,A,4807.07031,N,01116.07028,E,66.34,71.97,160520,,,D*49
$GNGGA,164059.80,4807.07031,N,01116.07028,E,2,12,0.57,626.3,M,46.5,M,,0000*45
$GNGSA,A,3,10,20,11,21,08,27,16,01,22,32,,,1.01,0.57,0.83*1F
$GNVTG,71.97,T,,M,65.856,N,121.965,K,D*2E
$SMGPS,62.7 m,-3.85 m/s,8.33 VRx,9.575 km,87 m,356.9 °,1:-- ( 95.6 km/h)*CC
$SMGPS2,-0.11 X,+0.02 Y,+2.73 Z,999 ENL,0 us*40
$GNRMC,164059.90,A,4807.07088,N,01116.07283,E,64.40,70.74,160520,,,D*44
$GNGGA,164059.90,4807.07088,N,01116.07283,E,2,12,0.57,629.6,M,46.5,M,,0000*4F
$GNGSA,A,3,10,20,11,21,08,27,16,01,22,32,,,1.01,0.57,0.83*1F
$GNVTG,70.74,T,,M,64.135,N,118.777,K,D*28
$SMGPS,66.0 m,-2.71 m/s,8.33 VRx,9.578 km,88 m,0.1 °,1:-- ( 95.6 km/h)*CF
$SMGPS2,-0.17 X,+0.15 Y,+3.33 Z,999 ENL,0 us*45
$GNRMC,164100.00,A,4807.07148,N,01116.07528,E,61.92,68.62,160520,,,D*4F
$GNGGA,164100.00,4807.07148,N,01116.07528,E,2,12,0.57,629.7,M,46.5,M,,0000*41
$GNGSA,A,3,10,20,11,21,08,27,16,01,22,32,,,1.01,0.57,0.83*1F
$GNVTG,68.62,T,,M,61.768,N,114.394,K,D*28
$SMGPS,66.1 m,-1.91 m/s,8.33 VRx,9.582 km,91 m,3.1 °,1:-- ( 95.6 km/h)*CD
$SMGPS2,+0.10 X,-0.01 Y,+2.30 Z,999 ENL,0 us*45
$GNRMC,164100.10,A,4807.07211,N,01116.07763,E,60.60,67.65,160520,,,D*48
$GNGGA,164100.10,4807.07211,N,01116.07763,E,2,12,0.57,630.4,M,46.5,M,,0000*49
$GNGSA,A,3,10,20,11,21,08,27,16,01,22,32,,,1.01,0.57,0.83*1F
$GNVTG,67.65,T,,M,60.534,N,112.108,K,D*2B
$SMGPS,66.8 m,-1.16 m/s,8.33 VRx,9.585 km,91 m,5.9 °,1:-- ( 95.6 km/h)*C2
$SMGPS2,-0.17 X,-0.05 Y,+2.01 Z,999 ENL,0 us*42
$GNRMC,164100.20,A,4807.07275,N,01116.07991,E,59.04,66.95,160520,,,D*4C
$GNGGA,164100.20,4807.07275,N,01116.07991,E,2,12,0.57,630.3,M,46.5,M,,0000*4C
$GNGSA,A,3,10,20,11,21,08,27,16,01,22,32,,,1.01,0.57,0.83*1F
$GNVTG,66.95,T,,M,59.028,N,109.321,K,D*24
$SMGPS,66.7 m,-0.50 m/s,8.33 VRx,9.588 km,93 m,8.3 °,1:-- ( 95.6 km/h)*C6
$SMGPS2,-0.04 X,+0.04 Y,+1.55 Z,999 ENL,0 us*45
$GNRMC,164100.30,A,4807.07339,N,01116.08213,E,57.85,66.19,160520,,,D*49
$GNGGA,164100.30,4807.07339,N,01116.08213,E,2,12,0.57,631.7,M,46.5,M,,0000*4F
$GNGSA,A,3,10,20,11,21,08,27,16,01,22,32,,,1.01,0.57,0.83*1F
$GNVTG,66.19,T,,M,57.851,N,107.141,K,D*22
$SMGPS,68.1 m,+0.24 m/s,8.33 VRx,9.591 km,94 m,10.7 °,1:-- ( 95.6 km/h)*F9
$SMGPS2,-0.46 X,-0.24 Y,+1.67 Z,999 ENL,0 us*46
$GNRMC,164100.40,A,4807.07404,N,01116.08429,E,56.73,65.62,160520,,,D*4F
$GNGGA,164100.40,4807.07404,N,01116.08429,E,2,12,0.57,632.6,M,46.5,M,,0000*4C
$GNGSA,A,3,10,20,11,21,08,27,16,01,22,32,,,1.01,0.57,0.83*1F
$GNVTG,65.62,T,,M,56.701,N,105.010,K,D*21
$SMGPS,69.0 m,+1.07 m/s,8.33 VRx,9.594 km,96 m,12.8 °,1:-- ( 95.6 km/h)*F3
$SMGPS2,+0.03 X,-0.18 Y,+1.54 Z,999 ENL,0 us*4E
$GNRMC,164100.50,A,4807.07469,N,01116.08640,E,55.55,64.87,160520,,,D*45
$GNGGA,164100.50,4807.07469,N,01116.08640,E,2,12,0.57,632.1,M,46.5,M,,0000*4C
$GNGSA,A,3,10,20,11,21,08,27,16,01,22,32,,,1.01,0.57,0.83*1F
$GNVTG,64.87,T,,M,55.469,N,102.728,K,D*2E
$SMGPS,68.5 m,+1.79 m/s,8.33 VRx,9.597 km,99 m,14.6 °,1:-- ( 95.6 km/h)*FA
$SMGPS2,+0.16 X,+0.06 Y,+1.44 Z,999 ENL,0 us*42
$GNRMC,164100.60,A,4807.07534,N,01116.08845,E,54.72,64.29,160520,,,D*44
$GNGGA,164100.60,4807.07534,N,01116.08845,E,2,12,0.57,635.9,M,46.5,M,,0000*42
$GNGSA,A,3,10,20,11,21,08,27,16,01,22,32,,,1.01,0.57,0.83*1F
$GNVTG,64.29,T,,M,54.534,N,100.997,K,D*2A
$SMGPS,72.3 m,+2.64 m/s,8.33 VRx,9.600 km,99 m,16.5 °,1:-- ( 95.6 km/h)*F4
$SMGPS2,+0.00 X,+0.14 Y,+1.50 Z,999 ENL,0 us*43
$GNRMC,164100.70,A,4807.07600,N,01116.09046,E,53.64,63.60,160520,,,D*41
$GNGGA,164100.70,4807.07600,N,01116.09046,E,2,12,0.57,638.5,M,46.5,M,,0000*4C
$GNGSA,A,3,10,20,11,21,08,27,16,01,22,32,,,1.01,0.57,0.83*1F
$GNVTG,63.60,T,,M,53.302,N,98.715,K,D*10
$SMGPS,74.9 m,+3.42 m/s,8.33 VRx,9.603 km,103 m,18.2 °,1:-- ( 95.6 km/h)*C5
$SMGPS2,-0.32 X,-0.06 Y,+1.76 Z,999 ENL,0 us*45
$GNRMC,164100.80,A,4807.07665,N,01116.09240,E,52.39,62.82,160520,,,D*4D
$GNGGA,164100.80,4807.07665,N,01116.09240,E,2,12,0.57,642.3,M,46.5,M,,0000*4F
$GNGSA,A,3,10,20,11,21,08,27,16,01,22,32,,,1.01,0.57,0.83*1F
$GNVTG,62.82,T,,M,51.768,N,95.875,K,D*13
$SMGPS,78.7 m,+4.52 m/s,8.33 VRx,9.606 km,107 m,19.6 °,1:-- ( 95.6 km/h)*C5
$SMGPS2,+0.04 X,+0.24 Y,+1.20 Z,999 ENL,0 us*43
$GNRMC,164100.90,A,4807.07730,N,01116.09429,E,51.96,62.64,160520,,,D*4A
$GNGGA,164100.90,4807.07730,N,01116.09429,E,2,12,0.57,644.6,M,46.5,M,,0000*45
$GNGSA,A,3,10,20,11,21,08,27,16,01,22,32,,,1.01,0.57,0.83*1F
$GNVTG,62.64,T,,M,50.850,N,94.174,K,D*17
$SMGPS,81.0 m,+5.69 m/s,8.33 VRx,9.608 km,111 m,21.1 °,1:-- ( 95.6 km/h)*C8
$SMGPS2,+0.03 X,+0.10 Y,+1.28 Z,999 ENL,0 us*4B
$GNRMC,164101.00,A,4807.07794,N,01116.09613,E,51.61,62.47,160520,,,D*4E
$GNGGA,164101.00,4807.07794,N,01116.09613,E,2,12,0.57,646.1,M,46.5,M,,0000*4D
$GNGSA,A,3,10,20,11,21,08,27,16,01,22,32,,,1.01,0.57,0.83*1F
$GNVTG,62.47,T,,M,49.832,N,92.289,K,D*1D
$SMGPS,82.5 m,+6.89 m/s,8.33 VRx,9.611 km,114 m,22.3 °,1:-- ( 95.6 km/h)*CF
$SMGPS2,-0.21 X,+0.06 Y,+1.29 Z,999 ENL,0 us*4B
$GNRMC,164101.10,A,4807.07857,N,01116.09793,E,50.86,61.97,160520,,,D*40
$GNGGA,164101.10,4807.07857,N,01116.09793,E,2,12,0.57,647.2,M,46.5,M,,0000*47
$GNGSA,A,3,10,20,11,21,08,27,16,01,22,32,,,1.01,0.57,0.83*1F
$GNVTG,61.97,T,,M,48.354,N,89.552,K,D*12
$SMGPS,83.6 m,+7.90 m/s,8.33 VRx,9.614 km,116 m,23.3 °,1:-- ( 95.6 km/h)*C2
$SMGPS2,-0.18 X,+0.17 Y,+1.26 Z,999 ENL,0 us*4E
$GNRMC,164101.20,A,4807.07919,N,01116.09967,E,50.68,61.54,160520,,,D*42
$GNGGA,164101.20,4807.07919,N,01116.09967,E,2,12,0.57,648.7,M,46.5,M,,0000*40
$GNGSA,A,3,10,20,11,21,08,27,16,01,22,32,,,1.01,0.57,0.83*1F
$GNVTG,61.54,T,,M,47.262,N,87.529,K,D*14
$SMGPS,85.1 m,+8.94 m/s,8.33 VRx,9.616 km,118 m,24.5 °,1:-- ( 95.6 km/h)*C5
$SMGPS2,-0.03 X,+0.08 Y,+1.50 Z,999 ENL,0 us*4B
$GNRMC,164101.30,A,4807.07981,N,01116.10137,E,50.76,61.21,160520,,,D*4A
$GNGGA,164101.30,4807.07981,N,01116.10137,E,2,12,0.57,651.0,M,46.5,M,,0000*4A
$GNGSA,A,3,10,20,11,21,08,27,16,01,22,32,,,1.01,0.57,0.83*1F
$GNVTG,61.21,T,,M,46.346,N,85.832,K,D*15
$SMGPS,87.4 m,+10.09 m/s,8.33 VRx,9.618 km,121 m,25.6 °,1:-- ( 95.6 km/h)*F9
$SMGPS2,-0.17 X,+0.14 Y,+1.38 Z,999 ENL,0 us*4D
$GNRMC,164101.40,A,4807.08042,N,01116.10301,E,50.53,60.56,160520,,,D*45
$GNGGA,164101.40,4807.08042,N,01116.10301,E,2,12,0.57,652.9,M,46.5,M,,0000*49
$GNGSA,A,3,10,20,11,21,08,27,16,01,22,32,,,1.01,0.57,0.83*1F
$GNVTG,60.56,T,,M,44.895,N,83.146,K,D*1F
$SMGPS,89.3 m,+11.31 m/s,8.33 VRx,9.621 km,123 m,26.6 °,1:-- ( 95.6 km/h)*F1
$SMGPS2,-0.35 X,-0.04 Y,+1.34 Z,999 ENL,0 us*46
$GNRMC,164101.50,A,4807.08103,N,01116.10460,E,49.71,60.03,160520,,,D*48
$GNGGA,164101.50,4807.08103,N,01116.10460,E,2,12,0.57,652.2,M,46.5,M,,0000*47
$GNGSA,A,3,10,20,11,21,08,27,16,01,22,32,,,1.01,0.57,0.83*1F
$GNVTG,60.03,T,,M,43.651,N,80.841,K,D*13
$SMGPS,88.6 m,+11.64 m/s,8.33 VRx,9.623 km,127 m,27.4 °,1:-- ( 95.6 km/h)*F0
$SMGPS2,+0.10 X,+0.04 Y,+1.09 Z,999 ENL,0 us*4F
$GNRMC,164101.60,A,4807.08163,N,01116.10614,E,49.17,59.31,160520,,,D*47
$GNGGA,164101.60,4807.08163,N,01116.10614,E,2,12,0.57,655.2,M,46.5,M,,0000*44
$GNGSA,A,3,10,20,11,21,08,27,16,01,22,32,,,1.01,0.57,0.83*1F
$GNVTG,59.31,T,,M,42.755,N,79.182,K,D*1C
$SMGPS,91.6 m,+12.12 m/s,8.33 VRx,9.626 km,127 m,28.1 °,1:-- ( 95.6 km/h)*F5
$SMGPS2,-0.30 X,+0.08 Y,+1.72 Z,999 ENL,0 us*4B
$GNRMC,164101.70,A,4807.08223,N,01116.10763,E,48.00,58.32,160520,,,D*45
$GNGGA,164101.70,4807.08223,N,01116.10763,E,2,12,0.57,657.5,M,46.5,M,,0000*46
$GNGSA,A,3,10,20,11,21,08,27,16,01,22,32,,,1.01,0.57,0.83*1F
$GNVTG,58.32,T,,M,41.170,N,76.247,K,D*19
$SMGPS,93.9 m,+12.57 m/s,8.33 VRx,9.628 km,131 m,28.8 °,1:-- ( 95.6 km/h)*F9
$SMGPS2,-0.23 X,+0.09 Y,+1.32 Z,999 ENL,0 us*4C
$GNRMC,164101.80,A,4807.08283,N,01116.10905,E,47.33,57.49,160520,,,D*42
$GNGGA,164101.80,4807.08283,N,01116.10905,E,2,12,0.57,659.5,M,46.5,M,,0000*43
$GNGSA,A,3,10,20,11,21,08,27,16,01,22,32,,,1.01,0.57,0.83*1F
$GNVTG,57.49,T,,M,39.911,N,73.916,K,D*10
$SMGPS,95.9 m,+13.16 m/s,8.33 VRx,9.630 km,134 m,29.7 °,1:-- ( 95.6 km/h)*F9
$SMGPS2,-0.07 X,+0.15 Y,+1.25 Z,999 ENL,0 us*41
$GNRMC,164101.90,A,4807.08342,N,01116.11042,E,46.93,56.87,160520,,,D*4C
$GNGGA,164101.90,4807.08342,N,01116.11042,E,2,12,0.57,662.2,M,46.5,M,,0000*4A
$GNGSA,A,3,10,20,11,21,08,27,16,01,22,32,,,1.01,0.57,0.83*1F
$GNVTG,56.87,T,,M,38.907,N,72.057,K,D*18
$SMGPS,98.6 m,+13.78 m/s,8.33 VRx,9.632 km,137 m,30.0 °,1:-- ( 95.6 km/h)*FD
$SMGPS2,-0.19 X,+0.19 Y,+1.38 Z,999 ENL,0 us*4E
$GNRMC,164102.00,A,4807.08401,N,01116.11175,E,46.66,55.99,160520,,,D*45
$GNGGA,164102.00,4807.08401,N,01116.11175,E,2,12,0.57,663.2,M,46.5,M,,0000*44
$GNGSA,A,3,10,20,11,21,08,27,16,01,22,32,,,1.01,0.57,0.83*1F
$GNVTG,55.99,T,,M,38.095,N,70.552,K,D*14
$SMGPS,99.6 m,+14.15 m/s,8.33 VRx,9.634 km,140 m,30.7 °,1:-- ( 95.6 km/h)*F1
$SMGPS2,-0.29 X,+0.18 Y,+1.03 Z,999 ENL,0 us*44
$GNRMC,164102.10,A,4807.08460,N,01116.11303,E,46.45,55.36,160520,,,D*44
$GNGGA,164102.10,4807.08460,N,01116.11303,E,2,12,0.57,665.9,M,46.5,M,,0000*4C
$GNGSA,A,3,10,20,11,21,08,27,16,01,22,32,,,1.01,0.57,0.83*1F
$GNVTG,55.36,T,,M,37.077,N,68.667,K,D*1E
$SMGPS,102.3 m,+14.77 m/s,8.33 VRx,9.636 km,141 m,31.2 °,1:-- ( 95.6 km/h)*C4
$SMGPS2,-0.32 X,-0.07 Y,+0.83 Z,999 ENL,0 us*4F
$GNRMC,164102.20,A,4807.08519,N,01116.11427,E,46.68,54.40,160520,,,D*46
$GNGGA,164102.20,4807.08519,N,01116.11427,E,2,12,0.57,669.3,M,46.5,M,,0000*47
$GNGSA,A,3,10,20,11,21,08,27,16,01,22,32,,,1.01,0.57,0.83*1F
$GNVTG,54.40,T,,M,36.141,N,66.933,K,D*1B
$SMGPS,105.7 m,+15.46 m/s,8.33 VRx,9.638 km,145 m,31.6 °,1:-- ( 95.6 km/h)*CA
$SMGPS2,-0.11 X,+0.04 Y,+1.18 Z,999 ENL,0 us*48
$GNRMC,164102.30,A,4807.08576,N,01116.11546,E,46.21,53.49,160520,,,D*4B
$GNGGA,164102.30,4807.08576,N,01116.11546,E,2,12,0.57,670.8,M,46.5,M,,0000*4A
$GNGSA,A,3,10,20,11,21,08,27,16,01,22,32,,,1.01,0.57,0.83*1F
$GNVTG,53.49,T,,M,34.553,N,63.992,K,D*1E
$SMGPS,107.2 m,+15.94 m/s,8.33 VRx,9.640 km,148 m,32.1 °,1:-- ( 95.6 km/h)*C4
$SMGPS2,-0.11 X,+0.10 Y,+0.97 Z,999 ENL,0 us*4B
$GNRMC,164102.40,A,4807.08633,N,01116.11658,E,46.11,52.49,160520,,,D*40
$GNGGA,164102.40,4807.08633,N,01116.11658,E,2,12,0.57,672.6,M,46.5,M,,0000*4F
$GNGSA,A,3,10,20,11,21,08,27,16,01,22,32,,,1.01,0.57,0.83*1F
$GNVTG,52.49,T,,M,33.567,N,62.166,K,D*1D
$SMGPS,109.0 m,+16.28 m/s,8.33 VRx,9.642 km,151 m,32.3 °,1:-- ( 95.6 km/h)*C4
$SMGPS2,-0.07 X,+0.11 Y,+0.83 Z,999 ENL,0 us*48
$GNRMC,164102.50,A,4807.08689,N,01116.11766,E,45.94,51.44,160520,,,D*4C
$GNGGA,164102.50,4807.08689,N,01116.11766,E,2,12,0.57,675.2,M,46.5,M,,0000*40
$GNGSA,A,3,10,20,11,21,08,27,16,01,22,32,,,1.01,0.57,0.83*1F
$GNVTG,51.44,T,,M,32.487,N,60.167,K,D*1E
$SMGPS,111.6 m,+16.62 m/s,8.33 VRx,9.644 km,153 m,32.7 °,1:-- ( 95.6 km/h)*C5
$SMGPS2,-0.27 X,+0.06 Y,+0.91 Z,999 ENL,0 us*4F
$GNRMC,164102.60,A,4807.08745,N,01116.11868,E,45.54,50.36,160520,,,D*47
$GNGGA,164102.60,4807.08745,N,01116.11868,E,2,12,0.57,675.4,M,46.5,M,,0000*45
$GNGSA,A,3,10,20,11,21,08,27,16,01,22,32,,,1.01,0.57,0.83*1F
$GNVTG,50.36,T,,M,31.332,N,58.026,K,D*1F
$SMGPS,111.8 m,+16.83 m/s,8.33 VRx,9.645 km,156 m,33.0 °,1:-- ( 95.6 km/h)*C6
$SMGPS2,-0.32 X,-0.16 Y,+1.01 Z,999 ENL,0 us*44
$GNRMC,164102.70,A,4807.08799,N,01116.11964,E,44.93,49.32,160520,,,D*4C
$GNGGA,164102.70,4807.08799,N,01116.11964,E,2,12,0.57,676.6,M,46.5,M,,0000*49
$GNGSA,A,3,10,20,11,21,08,27,16,01,22,32,,,1.01,0.57,0.83*1F
$GNVTG,49.32,T,,M,30.054,N,55.661,K,D*19
$SMGPS,113.0 m,+17.05 m/s,8.33 VRx,9.647 km,157 m,33.3 °,1:-- ( 95.6 km/h)*C3
$SMGPS2,-0.37 X,+0.03 Y,+0.91 Z,999 ENL,0 us*4B
$GNRMC,164102.80,A,4807.08853,N,01116.12055,E,44.55,47.92,160520,,,D*4C
$GNGGA,164102.80,4807.08853,N,01116.12055,E,2,12,0.57,678.8,M,46.5,M,,0000*47
$GNGSA,A,3,10,20,11,21,08,27,16,01,22,32,,,1.01,0.57,0.83*1F
$GNVTG,47.92,T,,M,28.969,N,53.651,K,D*16
$SMGPS,115.2 m,+17.33 m/s,8.33 VRx,9.648 km,159 m,33.6 °,1:-- ( 95.6 km/h)*C6
$SMGPS2,-0.47 X,-0.01 Y,+1.32 Z,999 ENL,0 us*40
$GNRMC,164102.90,A,4807.08906,N,01116.12140,E,44.08,46.20,160520,,,D*49
$GNGGA,164102.90,4807.08906,N,01116.12140,E,2,12,0.57,681.9,M,46.5,M,,0000*45
$GNGSA,A,3,10,20,11,21,08,27,16,01,22,32,,,1.01,0.57,0.83*1F
$GNVTG,46.20,T,,M,28.022,N,51.897,K,D*1E
$SMGPS,118.3 m,+17.47 m/s,8.33 VRx,9.650 km,162 m,33.8 °,1:-- ( 95.6 km/h)*C6
$SMGPS2,-0.26 X,+0.24 Y,+1.05 Z,999 ENL,0 us*42
$GNRMC,164103.00,A,4807.08960,N,01116.12221,E,43.37,44.35,160520,,,D*48
$GNGGA,164103.00,4807.08960,N,01116.12221,E,2,12,0.57,683.3,M,46.5,M,,0000*41
$GNGSA,A,3,10,20,11,21,08,27,16,01,22,32,,,1.01,0.57,0.83*1F
$GNVTG,44.35,T,,M,26.935,N,49.883,K,D*15
$SMGPS,119.7 m,+17.55 m/s,8.33 VRx,9.651 km,165 m,34.0 °,1:-- ( 95.6 km/h)*C9
$SMGPS2,-0.16 X,+0.40 Y,+1.06 Z,999 ENL,0 us*40
$GNRMC,164103.10,A,4807.09013,N,01116.12295,E,42.93,42.23,160520,,,D*44
$GNGGA,164103.10,4807.09013,N,01116.12295,E,2,12,0.57,685.1,M,46.5,M,,0000*47
$GNGSA,A,3,10,20,11,21,08,27,16,01,22,32,,,1.01,0.57,0.83*1F
$GNVTG,42.23,T,,M,25.920,N,48.003,K,D*12
$SMGPS,121.5 m,+17.69 m/s,8.33 VRx,9.653 km,167 m,33.9 °,1:-- ( 95.6 km/h)*C1
$SMGPS2,-0.52 X,-0.09 Y,+1.07 Z,999 ENL,0 us*4A
$GNRMC,164103.20,A,4807.09066,N,01116.12366,E,42.69,40.53,160520,,,D*48
$GNGGA,164103.20,4807.09066,N,01116.12366,E,2,12,0.57,687.5,M,46.5,M,,0000*4D
$GNGSA,A,3,10,20,11,21,08,27,16,01,22,32,,,1.01,0.57,0.83*1F
$GNVTG,40.53,T,,M,25.332,N,46.914,K,D*1F
$SMGPS,123.9 m,+17.84 m/s,8.33 VRx,9.655 km,169 m,34.0 °,1:-- ( 95.6 km/h)*CA
$SMGPS2,-0.36 X,+0.14 Y,+1.05 Z,999 ENL,0 us*40
$GNRMC,164103.30,A,4807.09119,N,01116.12431,E,42.27,38.28,160520,,,D*4C
$GNGGA,164103.30,4807.09119,N,01116.12431,E,2,12,0.57,689.7,M,46.5,M,,0000*4C
$GNGSA,A,3,10,20,11,21,08,27,16,01,22,32,,,1.01,0.57,0.83*1F
$GNVTG,38.28,T,,M,24.202,N,44.823,K,D*18
$SMGPS,126.1 m,+17.96 m/s,8.33 VRx,9.656 km,172 m,34.1 °,1:-- ( 95.6 km/h)*CC
$SMGPS2,-0.28 X,+0.24 Y,+1.06 Z,999 ENL,0 us*4F
$GNRMC,164103.40,A,4807.09172,N,01116.12490,E,42.15,36.07,160520,,,D*4F
$GNGGA,164103.40,4807.09172,N,01116.12490,E,2,12,0.57,691.5,M,46.5,M,,0000*46
$GNGSA,A,3,10,20,11,21,08,27,16,01,22,32,,,1.01,0.57,0.83*1F
$GNVTG,36.07,T,,M,23.341,N,43.227,K,D*13
$SMGPS,127.9 m,+18.14 m/s,8.33 VRx,9.657 km,174 m,34.2 °,1:-- ( 95.6 km/h)*C4
$SMGPS2,-0.17 X,+0.32 Y,+1.06 Z,999 ENL,0 us*44
$GNRMC,164103.50,A,4807.09224,N,01116.12544,E,42.10,33.59,160520,,,D*4D
$GNGGA,164103.50,4807.09224,N,01116.12544,E,2,12,0.57,692.7,M,46.5,M,,0000*4E
$GNGSA,A,3,10,20,11,21,08,27,16,01,22,32,,,1.01,0.57,0.83*1F
$GNVTG,33.59,T,,M,22.633,N,41.916,K,D*17
$SMGPS,129.1 m,+18.26 m/s,8.33 VRx,9.658 km,177 m,34.2 °,1:-- ( 95.6 km/h)*CF
$SMGPS2,-0.47 X,+0.07 Y,+0.99 Z,999 ENL,0 us*40
$GNRMC,164103.60,A,4807.09276,N,01116.12594,E,42.19,31.37,160520,,,D*47
$GNGGA,164103.60,4807.09276,N,01116.12594,E,2,12,0.57,696.5,M,46.5,M,,0000*41
$GNGSA,A,3,10,20,11,21,08,27,16,01,22,32,,,1.01,0.57,0.83*1F
$GNVTG,31.37,T,,M,21.807,N,40.387,K,D*14
$SMGPS,132.9 m,+18.56 m/s,8.33 VRx,9.660 km,178 m,34.2 °,1:-- ( 95.6 km/h)*CE
$SMGPS2,-0.33 X,+0.31 Y,+1.11 Z,999 ENL,0 us*47
$GNRMC,164103.70,A,4807.09328,N,01116.12637,E,42.00,28.20,160520,,,D*40
$GNGGA,164103.70,4807.09328,N,01116.12637,E,2,12,0.57,697.2,M,46.5,M,,0000*46
$GNGSA,A,3,10,20,11,21,08,27,16,01,22,32,,,1.01,0.57,0.83*1F
$GNVTG,28.20,T,,M,20.939,N,38.780,K,D*1B
$SMGPS,133.6 m,+18.59 m/s,8.33 VRx,9.661 km,182 m,34.2 °,1:-- ( 95.6 km/h)*CB
$SMGPS2,-0.44 X,+0.09 Y,+1.01 Z,999 ENL,0 us*4D
$GNRMC,164103.80,A,4807.09378,N,01116.12674,E,41.71,24.43,160520,,,D*41
$GNGGA,164103.80,4807.09378,N,01116.12674,E,2,12,0.57,699.5,M,46.5,M,,0000*42
$GNGSA,A,3,10,20,11,21,08,27,16,01,22,32,,,1.01,0.57,0.83*1F
$GNVTG,24.43,T,,M,19.966,N,36.978,K,D*15
$SMGPS,135.9 m,+18.75 m/s,8.33 VRx,9.662 km,183 m,34.2 °,1:-- ( 95.6 km/h)*CE
$SMGPS2,-0.33 X,+0.34 Y,+0.91 Z,999 ENL,0 us*4B
$GNRMC,164103.90,A,4807.09428,N,01116.12706,E,41.55,22.09,160520,,,D*48
$GNGGA,164103.90,4807.09428,N,01116.12706,E,2,12,0.57,701.4,M,46.5,M,,0000*44
$GNGSA,A,3,10,20,11,21,08,27,16,01,22,32,,,1.01,0.57,0.83*1F
$GNVTG,22.09,T,,M,19.518,N,36.148,K,D*13
$SMGPS,137.8 m,+18.75 m/s,8.33 VRx,9.662 km,185 m,34.2 °,1:-- ( 95.6 km/h)*CB
$SMGPS2,-0.45 X,+0.13 Y,+0.72 Z,999 ENL,0 us*42
$GNRMC,164104.00,A,4807.09479,N,01116.12734,E,41.29,18.93,160520,,,D*42
$GNGGA,164104.00,4807.09479,N,01116.12734,E,2,12,0.57,701.6,M,46.5,M,,0000*4D
$GNGSA,A,3,10,20,11,21,08,27,16,01,22,32,,,1.01,0.57,0.83*1F
$GNVTG,18.93,T,,M,19.443,N,36.009,K,D*12
$SMGPS,138.0 m,+18.65 m/s,8.33 VRx,9.663 km,187 m,34.1 °,1:-- ( 95.6 km/h)*CD
$SMGPS2,-0.35 X,+0.37 Y,+0.35 Z,999 ENL,0 us*40
$GNRMC,164104.10,A,4807.09531,N,01116.12761,E,41.20,18.71,160520,,,D*4B
$GNGGA,164104.10,4807.09531,N,01116.12761,E,2,12,0.57,703.5,M,46.5,M,,0000*40
$GNGSA,A,3,10,20,11,21,08,27,16,01,22,32,,,1.01,0.57,0.83*1F
$GNVTG,18.71,T,,M,19.588,N,36.278,K,D*1C
$SMGPS,139.9 m,+18.61 m/s,8.33 VRx,9.664 km,188 m,34.0 °,1:-- ( 95.6 km/h)*C8
$SMGPS2,-0.50 X,+0.19 Y,+0.23 Z,999 ENL,0 us*48
$GNRMC,164104.20,A,4807.09583,N,01116.12788,E,41.08,18.69,160520,,,D*45
$GNGGA,164104.20,4807.09583,N,01116.12788,E,2,12,0.57,704.7,M,46.5,M,,0000*48
$GNGSA,A,3,10,20,11,21,08,27,16,01,22,32,,,1.01,0.57,0.83*1F
$GNVTG,18.69,T,,M,19.905,N,36.864,K,D*1B
$SMGPS,141.1 m,+18.48 m/s,8.33 VRx,9.665 km,190 m,33.9 °,1:-- ( 95.6 km/h)*C2
$SMGPS2,-0.44 X,+0.14 Y,-0.04 Z,999 ENL,0 us*43
$GNRMC,164104.30,A,4807.09636,N,01116.12815,E,40.99,18.80,160520,,,D*4C
$GNGGA,164104.30,4807.09636,N,01116.12815,E,2,12,0.57,705.9,M,46.5,M,,0000*40
$GNGSA,A,3,10,20,11,21,08,27,16,01,22,32,,,1.01,0.57,0.83*1F
$GNVTG,18.80,T,,M,20.690,N,38.319,K,D*1A
$SMGPS,142.3 m,+18.17 m/s,8.33 VRx,9.667 km,192 m,33.8 °,1:-- ( 95.6 km/h)*C8
$SMGPS2,-0.44 X,+0.28 Y,-0.00 Z,999 ENL,0 us*48
$GNRMC,164104.40,A,4807.09691,N,01116.12844,E,40.69,19.67,160520,,,D*45
$GNGGA,164104.40,4807.09691,N,01116.12844,E,2,12,0.57,709.2,M,46.5,M,,0000*49
$GNGSA,A,3,10,20,11,21,08,27,16,01,22,32,,,1.01,0.57,0.83*1F
$GNVTG,19.67,T,,M,21.186,N,39.236,K,D*1E
$SMGPS,145.6 m,+18.00 m/s,8.33 VRx,9.667 km,193 m,33.6 °,1:-- ( 95.6 km/h)*C3
$SMGPS2,-0.42 X,+0.24 Y,+0.13 Z,999 ENL,0 us*46
$GNRMC,164104.50,A,4807.09748,N,01116.12873,E,40.63,18.65,160520,,,D*4C
$GNGGA,164104.50,4807.09748,N,01116.12873,E,2,12,0.57,710.5,M,46.5,M,,0000*46
$GNGSA,A,3,10,20,11,21,08,27,16,01,22,32,,,1.01,0.57,0.83*1F
$GNVTG,18.65,T,,M,21.794,N,40.362,K,D*16
$SMGPS,146.9 m,+17.78 m/s,8.33 VRx,9.668 km,196 m,33.6 °,1:-- ( 95.6 km/h)*C5
$SMGPS2,-0.38 X,+0.25 Y,-0.04 Z,999 ENL,0 us*4A
$GNRMC,164104.60,A,4807.09806,N,01116.12903,E,40.39,18.72,160520,,,D*45
$GNGGA,164104.60,4807.09806,N,01116.12903,E,2,12,0.57,710.7,M,46.5,M,,0000*44
$GNGSA,A,3,10,20,11,21,08,27,16,01,22,32,,,1.01,0.57,0.83*1F
$GNVTG,18.72,T,,M,22.338,N,41.369,K,D*1B
$SMGPS,147.1 m,+17.49 m/s,8.33 VRx,9.670 km,198 m,33.3 °,1:-- ( 95.6 km/h)*CC
$SMGPS2,-0.51 X,+0.12 Y,+0.17 Z,999 ENL,0 us*45
$GNRMC,164104.70,A,4807.09866,N,01116.12932,E,40.29,18.23,160520,,,D*45
$GNGGA,164104.70,4807.09866,N,01116.12932,E,2,12,0.57,711.7,M,46.5,M,,0000*40
$GNGSA,A,3,10,20,11,21,08,27,16,01,22,32,,,1.01,0.57,0.83*1F
$GNVTG,18.23,T,,M,22.785,N,42.198,K,D*12
$SMGPS,148.1 m,+17.30 m/s,8.33 VRx,9.671 km,199 m,33.2 °,1:-- ( 95.6 km/h)*CC
$SMGPS2,-0.45 X,+0.20 Y,+0.09 Z,999 ENL,0 us*4E
$GNRMC,164104.80,A,4807.09927,N,01116.12962,E,40.16,18.10,160520,,,D*47
$GNGGA,164104.80,4807.09927,N,01116.12962,E,2,12,0.57,712.9,M,46.5,M,,0000*43
$GNGSA,A,3,10,20,11,21,08,27,16,01,22,32,,,1.01,0.57,0.83*1F
$GNVTG,18.10,T,,M,23.398,N,43.332,K,D*18
$SMGPS,149.3 m,+16.97 m/s,8.33 VRx,9.672 km,200 m,33.1 °,1:-- ( 95.6 km/h)*C0
$SMGPS2,-0.43 X,+0.09 Y,+0.03 Z,999 ENL,0 us*49
$GNRMC,164104.90,A,4807.09989,N,01116.12992,E,40.19,17.90,160520,,,D*45
$GNGGA,164104.90,4807.09989,N,01116.12992,E,2,12,0.57,714.7,M,46.5,M,,0000*41
$GNGSA,A,3,10,20,11,21,08,27,16,01,22,32,,,1.01,0.57,0.83*1F
$GNVTG,17.90,T,,M,24.012,N,44.471,K,D*1E
$SMGPS,151.1 m,+16.77 m/s,8.33 VRx,9.673 km,202 m,33.0 °,1:-- ( 95.6 km/h)*C7
$SMGPS2,-0.53 X,+0.11 Y,+0.22 Z,999 ENL,0 us*42
$GNRMC,164105.00,A,4807.10054,N,01116.13023,E,40.36,17.59,160520,,,D*46
$GNGGA,164105.00,4807.10054,N,01116.13023,E,2,12,0.57,716.1,M,46.5,M,,0000*4E
$GNGSA,A,3,10,20,11,21,08,27,16,01,22,32,,,1.01,0.57,0.83*1F
$GNVTG,17.59,T,,M,24.610,N,45.578,K,D*16
$SMGPS,152.5 m,+16.65 m/s,8.33 VRx,9.675 km,205 m,32.7 °,1:-- ( 95.6 km/h)*C4
$SMGPS2,-0.36 X,+0.30 Y,+0.15 Z,999 ENL,0 us*46
$GNRMC,164105.10,A,4807.10120,N,01116.13054,E,40.00,17.35,160520,,,D*4A
$GNGGA,164105.10,4807.10120,N,01116.13054,E,2,12,0.57,716.9,M,46.5,M,,0000*45
$GNGSA,A,3,10,20,11,21,08,27,16,01,22,32,,,1.01,0.57,0.83*1F
$GNVTG,17.35,T,,M,25.182,N,46.637,K,D*1A
$SMGPS,153.3 m,+16.11 m/s,8.33 VRx,9.676 km,206 m,32.7 °,1:-- ( 95.6 km/h)*C0
$SMGPS2,-0.33 X,+0.10 Y,+0.03 Z,999 ENL,0 us*46
$GNRMC,164105.20,A,4807.10187,N,01116.13085,E,39.54,17.41,160520,,,D*44
$GNGGA,164105.20,4807.10187,N,01116.13085,E,2,12,0.57,717.2,M,46.5,M,,0000*4D
$GNGSA,A,3,10,20,11,21,08,27,16,01,22,32,,,1.01,0.57,0.83*1F
$GNVTG,17.41,T,,M,25.569,N,47.354,K,D*19
$SMGPS,153.6 m,+15.57 m/s,8.33 VRx,9.677 km,207 m,32.6 °,1:-- ( 95.6 km/h)*C5
$SMGPS2,-0.11 X,+0.06 Y,+0.03 Z,999 ENL,0 us*41
$GNRMC,164105.30,A,4807.10255,N,01116.13115,E,39.04,17.14,160520,,,D*44
$GNGGA,164105.30,4807.10255,N,01116.13115,E,2,12,0.57,717.9,M,46.5,M,,0000*43
$GNGSA,A,3,10,20,11,21,08,27,16,01,22,32,,,1.01,0.57,0.83*1F
$GNVTG,17.14,T,,M,25.745,N,47.680,K,D*19
$SMGPS,154.3 m,+15.14 m/s,8.33 VRx,9.679 km,209 m,32.4 °,1:-- ( 95.6 km/h)*C2
$SMGPS2,+0.02 X,-0.02 Y,+0.05 Z,999 ENL,0 us*41
$GNRMC,164105.40,A,4807.10322,N,01116.13146,E,38.22,16.92,160520,,,D*4E
$GNGGA,164105.40,4807.10322,N,01116.13146,E,2,12,0.57,719.4,M,46.5,M,,0000*40
$GNGSA,A,3,10,20,11,21,08,27,16,01,22,32,,,1.01,0.57,0.83*1F
$GNVTG,16.92,T,,M,25.449,N,47.131,K,D*14
$SMGPS,155.8 m,+14.72 m/s,8.33 VRx,9.680 km,210 m,32.3 °,1:-- ( 95.6 km/h)*C0
$SMGPS2,+0.07 X,-0.04 Y,+0.14 Z,999 ENL,0 us*42
$GNRMC,164105.50,A,4807.10389,N,01116.13175,E,37.42,16.67,160520,,,D*4D
$GNGGA,164105.50,4807.10389,N,01116.13175,E,2,12,0.57,720.1,M,46.5,M,,0000*4F
$GNGSA,A,3,10,20,11,21,08,27,16,01,22,32,,,1.01,0.57,0.83*1F
$GNVTG,16.67,T,,M,25.112,N,46.508,K,D*1A
$SMGPS,156.5 m,+14.33 m/s,8.33 VRx,9.681 km,212 m,32.2 °,1:-- ( 95.6 km/h)*C9
$SMGPS2,+0.10 X,-0.02 Y,+0.15 Z,999 ENL,0 us*43
$GNRMC,164105.60,A,4807.10455,N,01116.13204,E,36.65,16.50,160520,,,D*4D
$GNGGA,164105.60,4807.10455,N,01116.13204,E,2,12,0.57,720.8,M,46.5,M,,0000*46
$GNGSA,A,3,10,20,11,21,08,27,16,01,22,32,,,1.01,0.57,0.83*1F
$GNVTG,16.50,T,,M,24.903,N,46.121,K,D*18
$SMGPS,157.2 m,+13.83 m/s,8.33 VRx,9.683 km,214 m,31.9 °,1:-- ( 95.6 km/h)*CF
$SMGPS2,+0.09 X,-0.01 Y,+0.12 Z,999 ENL,0 us*4F
$GNRMC,164105.70,A,4807.10521,N,01116.13232,E,35.75,16.08,160520,,,D*44
$GNGGA,164105.70,4807.10521,N,01116.13232,E,2,12,0.57,721.4,M,46.5,M,,0000*4D
$GNGSA,A,3,10,20,11,21,08,27,16,01,22,32,,,1.01,0.57,0.83*1F
$GNVTG,16.08,T,,M,24.686,N,45.719,K,D*19
$SMGPS,157.8 m,+13.24 m/s,8.33 VRx,9.684 km,215 m,31.9 °,1:-- ( 95.6 km/h)*CE
$SMGPS2,+0.11 X,+0.02 Y,+0.14 Z,999 ENL,0 us*45
$GNRMC,164105.80,A,4807.10586,N,01116.13259,E,34.71,15.96,160520,,,D*4A
$GNGGA,164105.80,4807.10586,N,01116.13259,E,2,12,0.57,721.6,M,46.5,M,,0000*40
$GNGSA,A,3,10,20,11,21,08,27,16,01,22,32,,,1.01,0.57,0.83*1F
$GNVTG,15.96,T,,M,24.304,N,45.011,K,D*1D
$SMGPS,158.0 m,+12.64 m/s,8.33 VRx,9.685 km,216 m,31.8 °,1:-- ( 95.6 km/h)*CF
$SMGPS2,+0.11 X,+0.01 Y,+0.10 Z,999 ENL,0 us*42
$GNRMC,164105.90,A,4807.10650,N,01116.13287,E,33.61,16.13,160520,,,D*48
$GNGGA,164105.90,4807.10650,N,01116.13287,E,2,12,0.57,722.1,M,46.5,M,,0000*4E
$GNGSA,A,3,10,20,11,21,08,27,16,01,22,32,,,1.01,0.57,0.83*1F
$GNVTG,16.13,T,,M,24.166,N,44.755,K,D*13
$SMGPS,158.5 m,+11.91 m/s,8.33 VRx,9.686 km,217 m,31.6 °,1:-- ( 95.6 km/h)*CF
$SMGPS2,+0.10 X,-0.00 Y,+0.10 Z,999 ENL,0 us*44
$GNRMC,164106.00,A,4807.10714,N,01116.13314,E,32.78,15.98,160520,,,D*41
$GNGGA,164106.00,4807.10714,N,01116.13314,E,2,12,0.57,722.4,M,46.5,M,,0000*4B
$GNGSA,A,3,10,20,11,21,08,27,16,01,22,32,,,1.01,0.57,0.83*1F
$GNVTG,15.98,T,,M,23.912,N,44.284,K,D*16
$SMGPS,158.8 m,+11.41 m/s,8.33 VRx,9.688 km,218 m,31.4 °,1:-- ( 95.6 km/h)*CC
$SMGPS2,+0.11 X,+0.01 Y,+0.06 Z,999 ENL,0 us*45
$GNRMC,164106.10,A,4807.10777,N,01116.13342,E,32.01,15.99,160520,,,D*49
$GNGGA,164106.10,4807.10777,N,01116.13342,E,2,12,0.57,722.9,M,46.5,M,,0000*41
$GNGSA,A,3,10,20,11,21,08,27,16,01,22,32,,,1.01,0.57,0.83*1F
$GNVTG,15.99,T,,M,23.760,N,44.004,K,D*16
$SMGPS,159.3 m,+10.88 m/s,8.33 VRx,9.689 km,219 m,31.4 °,1:-- ( 95.6 km/h)*C2
$SMGPS2,+0.11 X,-0.03 Y,+0.06 Z,999 ENL,0 us*41
$GNRMC,164106.20,A,4807.10841,N,01116.13369,E,31.05,16.04,160520,,,D*49
$GNGGA,164106.20,4807.10841,N,01116.13369,E,2,12,0.57,723.3,M,46.5,M,,0000*4A
$GNGSA,A,3,10,20,11,21,08,27,16,01,22,32,,,1.01,0.57,0.83*1F
$GNVTG,16.04,T,,M,23.486,N,43.496,K,D*12
$SMGPS,159.7 m,+10.25 m/s,8.33 VRx,9.690 km,221 m,31.2 °,1:-- ( 95.6 km/h)*C4
$SMGPS2,+0.10 X,+0.02 Y,+0.20 Z,999 ENL,0 us*43
$GNRMC,164106.30,A,4807.10903,N,01116.13396,E,30.11,15.83,160520,,,D*47
$GNGGA,164106.30,4807.10903,N,01116.13396,E,2,12,0.57,723.8,M,46.5,M,,0000*47
$GNGSA,A,3,10,20,11,21,08,27,16,01,22,32,,,1.01,0.57,0.83*1F
$GNVTG,15.83,T,,M,23.139,N,42.853,K,D*1B
$SMGPS,160.2 m,+9.69 m/s,8.33 VRx,9.691 km,221 m,31.1 °,1:-- ( 95.6 km/h)*F9
$SMGPS2,+0.09 X,-0.01 Y,+0.29 Z,999 ENL,0 us*47
$GNRMC,164106.40,A,4807.10965,N,01116.13423,E,29.35,15.57,160520,,,D*4E
$GNGGA,164106.40,4807.10965,N,01116.13423,E,2,12,0.57,724.5,M,46.5,M,,0000*43
$GNGSA,A,3,10,20,11,21,08,27,16,01,22,32,,,1.01,0.57,0.83*1F
$GNVTG,15.57,T,,M,22.947,N,42.498,K,D*19
$SMGPS,160.9 m,+9.27 m/s,8.33 VRx,9.692 km,222 m,31.0 °,1:-- ( 95.6 km/h)*F9
$SMGPS2,+0.06 X,-0.01 Y,+0.45 Z,999 ENL,0 us*42
$GNRMC,164106.50,A,4807.11026,N,01116.13448,E,28.67,14.87,160520,,,D*47
$GNGGA,164106.50,4807.11026,N,01116.13448,E,2,12,0.57,724.9,M,46.5,M,,0000*4C
$GNGSA,A,3,10,20,11,21,08,27,16,01,22,32,,,1.01,0.57,0.83*1F
$GNVTG,14.87,T,,M,22.789,N,42.204,K,D*1A
$SMGPS,161.3 m,+8.85 m/s,8.33 VRx,9.694 km,224 m,30.8 °,1:-- ( 95.6 km/h)*F2
$SMGPS2,+0.05 X,-0.02 Y,+0.64 Z,999 ENL,0 us*41
$GNRMC,164106.60,A,4807.11088,N,01116.13472,E,28.27,13.59,160520,,,D*49
$GNGGA,164106.60,4807.11088,N,01116.13472,E,2,12,0.57,725.8,M,46.5,M,,0000*42
$GNGSA,A,3,10,20,11,21,08,27,16,01,22,32,,,1.01,0.57,0.83*1F
$GNVTG,13.59,T,,M,22.943,N,42.490,K,D*1D
$SMGPS,162.2 m,+8.43 m/s,8.33 VRx,9.695 km,225 m,30.7 °,1:-- ( 95.6 km/h)*F5
$SMGPS2,+0.04 X,-0.02 Y,+0.81 Z,999 ENL,0 us*4B
$GNRMC,164106.70,A,4807.11150,N,01116.13494,E,27.52,13.04,160520,,,D*41
$GNGGA,164106.70,4807.11150,N,01116.13494,E,2,12,0.57,725.5,M,46.5,M,,0000*42
$GNGSA,A,3,10,20,11,21,08,27,16,01,22,32,,,1.01,0.57,0.83*1F
$GNVTG,13.04,T,,M,22.485,N,41.643,K,D*1D
$SMGPS,161.9 m,+8.11 m/s,8.33 VRx,9.696 km,226 m,30.6 °,1:-- ( 95.6 km/h)*FB
$SMGPS2,+0.03 X,-0.02 Y,+0.87 Z,999 ENL,0 us*4A
$GNRMC,164106.80,A,4807.11211,N,01116.13515,E,27.07,12.30,160520,,,D*46
$GNGGA,164106.80,4807.11211,N,01116.13515,E,2,12,0.57,725.6,M,46.5,M,,0000*40
$GNGSA,A,3,10,20,11,21,08,27,16,01,22,32,,,1.01,0.57,0.83*1F
$GNVTG,12.30,T,,M,22.402,N,41.488,K,D*11
$SMGPS,162.0 m,+7.83 m/s,8.33 VRx,9.697 km,227 m,30.5 °,1:-- ( 95.6 km/h)*F6
$SMGPS2,+0.02 X,-0.04 Y,+0.89 Z,999 ENL,0 us*43
$GNRMC,164106.90,A,4807.11272,N,01116.13533,E,26.80,10.47,160520,,,D*4A
$GNGGA,164106.90,4807.11272,N,01116.13533,E,2,12,0.57,725.8,M,46.5,M,,0000*4E
$GNGSA,A,3,10,20,11,21,08,27,16,01,22,32,,,1.01,0.57,0.83*1F
$GNVTG,10.47,T,,M,22.529,N,41.724,K,D*1E
$SMGPS,162.2 m,+7.54 m/s,8.33 VRx,9.699 km,228 m,30.3 °,1:-- ( 95.6 km/h)*F9
$SMGPS2,+0.02 X,-0.03 Y,+0.89 Z,946 ENL,0 us*46
$GNRMC,164107.00,A,4807.11334,N,01116.13549,E,26.10,9.29,160520,,,D*75
$GNGGA,164107.00,4807.11334,N,01116.13549,E,2,12,0.57,725.4,M,46.5,M,,0000*44
$GNGSA,A,3,10,20,11,21,08,27,16,01,22,32,,,1.01,0.57,0.83*1F
$GNVTG,9.29,T,,M,22.227,N,41.164,K,D*25
$SMGPS,161.8 m,+7.18 m/s,8.33 VRx,9.700 km,229 m,30.2 °,1:-- ( 95.6 km/h)*F9
$SMGPS2,+0.02 X,-0.04 Y,+0.89 Z,896 ENL,0 us*4D
$GNRMC,164107.10,A,4807.11395,N,01116.13563,E,25.64,7.88,160520,,,D*72
$GNGGA,164107.10,4807.11395,N,01116.13563,E,2,12,0.57,725.4,M,46.5,M,,0000*46
$GNGSA,A,3,10,20,11,21,08,27,16,01,22,32,,,1.01,0.57,0.83*1F
$GNVTG,7.88,T,,M,22.249,N,41.205,K,D*2C
$SMGPS,161.8 m,+6.70 m/s,8.33 VRx,9.700 km,229 m,30.1 °,1:-- ( 95.6 km/h)*F5
$SMGPS2,+0.02 X,-0.05 Y,+0.82 Z,903 ENL,0 us*4A
$GNRMC,164107.20,A,4807.11457,N,01116.13574,E,25.27,6.20,160520,,,D*7A
$GNGGA,164107.20,4807.11457,N,01116.13574,E,2,12,0.57,725.4,M,46.5,M,,0000*4A
$GNGSA,A,3,10,20,11,21,08,27,16,01,22,32,,,1.01,0.57,0.83*1F
$GNVTG,6.20,T,,M,22.304,N,41.307,K,D*24
$SMGPS,161.8 m,+6.30 m/s,8.33 VRx,9.702 km,230 m,30.0 °,1:-- ( 95.6 km/h)*FA
$SMGPS2,+0.01 X,-0.05 Y,+0.81 Z,907 ENL,0 us*4E
$GNRMC,164107.30,A,4807.11519,N,01116.13583,E,24.77,4.99,160520,,,D*7C
$GNGGA,164107.30,4807.11519,N,01116.13583,E,2,12,0.57,725.3,M,46.5,M,,0000*4F
$GNGSA,A,3,10,20,11,21,08,27,16,01,22,32,,,1.01,0.57,0.83*1F
$GNVTG,4.99,T,,M,22.285,N,41.272,K,D*2F
$SMGPS,161.7 m,+5.74 m/s,8.33 VRx,9.703 km,231 m,29.7 °,1:-- ( 95.6 km/h)*F9
$SMGPS2,+0.01 X,-0.05 Y,+0.81 Z,920 ENL,0 us*4B
$GNRMC,164107.40,A,4807.11581,N,01116.13590,E,24.16,3.40,160520,,,D*7C
$GNGGA,164107.40,4807.11581,N,01116.13590,E,2,12,0.57,725.0,M,46.5,M,,0000*48
$GNGSA,A,3,10,20,11,21,08,27,16,01,22,32,,,1.01,0.57,0.83*1F
$GNVTG,3.40,T,,M,22.319,N,41.335,K,D*2A
$SMGPS,161.4 m,+4.94 m/s,8.33 VRx,9.704 km,231 m,29.6 °,1:-- ( 95.6 km/h)*F3
$SMGPS2,+0.02 X,-0.04 Y,+0.78 Z,900 ENL,0 us*4D
$GNRMC,164107.50,A,4807.11645,N,01116.13594,E,24.02,1.54,160520,,,D*70
$GNGGA,164107.50,4807.11645,N,01116.13594,E,2,12,0.57,725.4,M,46.5,M,,0000*42
$GNGSA,A,3,10,20,11,21,08,27,16,01,22,32,,,1.01,0.57,0.83*1F
$GNVTG,1.54,T,,M,22.498,N,41.666,K,D*20
$SMGPS,161.8 m,+4.47 m/s,8.33 VRx,9.705 km,232 m,29.5 °,1:-- ( 95.6 km/h)*F0
$SMGPS2,+0.02 X,-0.03 Y,+0.84 Z,909 ENL,0 us*40
$GNRMC,164107.60,A,4807.11708,N,01116.13595,E,23.86,359.98,160520,,,D*7F
$GNGGA,164107.60,4807.11708,N,01116.13595,E,2,12,0.57,725.2,M,46.5,M,,0000*4E
$GNGSA,A,3,10,20,11,21,08,27,16,01,22,32,,,1.01,0.57,0.83*1F
$GNVTG,359.98,T,,M,22.633,N,41.916,K,D*25
$SMGPS,161.6 m,+4.03 m/s,8.33 VRx,9.706 km,233 m,29.4 °,1:-- ( 95.6 km/h)*FD
$SMGPS2,+0.03 X,-0.03 Y,+0.82 Z,925 ENL,0 us*49
$GNRMC,164107.70,A,4807.11772,N,01116.13594,E,23.69,358.20,160520,,,D*71
$GNGGA,164107.70,4807.11772,N,01116.13594,E,2,12,0.57,725.4,M,46.5,M,,0000*45
$GNGSA,A,3,10,20,11,21,08,27,16,01,22,32,,,1.01,0.57,0.83*1F
$GNVTG,358.20,T,,M,22.669,N,41.983,K,D*24
$SMGPS,161.8 m,+3.69 m/s,8.33 VRx,9.708 km,234 m,29.1 °,1:-- ( 95.6 km/h)*F4
$SMGPS2,+0.04 X,-0.01 Y,+0.81 Z,999 ENL,0 us*48
$GNRMC,164107.80,A,4807.11836,N,01116.13590,E,23.72,356.84,160520,,,D*7F
$GNGGA,164107.80,4807.11836,N,01116.13590,E,2,12,0.57,725.5,M,46.5,M,,0000*40
$GNGSA,A,3,10,20,11,21,08,27,16,01,22,32,,,1.01,0.57,0.83*1F
$GNVTG,356.84,T,,M,22.869,N,42.353,K,D*2E
$SMGPS,161.9 m,+3.37 m/s,8.33 VRx,9.709 km,235 m,28.9 °,1:-- ( 95.6 km/h)*F7
$SMGPS2,+0.04 X,-0.00 Y,+0.88 Z,999 ENL,0 us*40
$GNRMC,164107.90,A,4807.11901,N,01116.13583,E,23.65,354.74,160520,,,D*72
$GNGGA,164107.90,4807.11901,N,01116.13583,E,2,12,0.57,724.9,M,46.5,M,,0000*4B
$GNGSA,A,3,10,20,11,21,08,27,16,01,22,32,,,1.01,0.57,0.83*1F
$GNVTG,354.74,T,,M,22.939,N,42.484,K,D*2A
$SMGPS,161.3 m,+3.03 m/s,8.33 VRx,9.710 km,235 m,28.7 °,1:-- ( 95.6 km/h)*FC
$SMGPS2,+0.05 X,-0.00 Y,+0.81 Z,999 ENL,0 us*48
$GNRMC,164108.00,A,4807.11965,N,01116.13573,E,23.66,353.71,160520,,,D*78
$GNGGA,164108.00,4807.11965,N,01116.13573,E,2,12,0.57,724.4,M,46.5,M,,0000*4D
$GNGSA,A,3,10,20,11,21,08,27,16,01,22,32,,,1.01,0.57,0.83*1F
$GNVTG,353.71,T,,M,23.107,N,42.793,K,D*29
$SMGPS,160.8 m,+2.67 m/s,8.33 VRx,9.711 km,236 m,28.4 °,1:2  ( 90.4 km/h)*E1
$SMGPS2,+0.05 X,+0.01 Y,+0.82 Z,999 ENL,0 us*4C
$GNRMC,164108.10,A,4807.12030,N,01116.13561,E,24.01,351.95,160520,,,D*7E
$GNGGA,164108.10,4807.12030,N,01116.13561,E,2,12,0.57,724.1,M,46.5,M,,0000*40
$GNGSA,A,3,10,20,11,21,08,27,16,01,22,32,,,1.01,0.57,0.83*1F
$GNVTG,351.95,T,,M,23.662,N,43.823,K,D*20
$SMGPS,160.5 m,+2.17 m/s,8.33 VRx,9.712 km,236 m,28.2 °,1:2  ( 90.4 km/h)*EE
$SMGPS2,+0.05 X,+0.00 Y,+0.76 Z,999 ENL,0 us*46
$GNRMC,164108.20,A,4807.12096,N,01116.13546,E,23.76,350.71,160520,,,D*78
$GNGGA,164108.20,4807.12096,N,01116.13546,E,2,12,0.57,724.4,M,46.5,M,,0000*4F
$GNGSA,A,3,10,20,11,21,08,27,16,01,22,32,,,1.01,0.57,0.83*1F
$GNVTG,350.71,T,,M,23.502,N,43.525,K,D*25
$SMGPS,160.8 m,+1.89 m/s,8.33 VRx,9.713 km,236 m,28.1 °,1:2  ( 90.4 km/h)*E5
$SMGPS2,+0.04 X,+0.01 Y,+0.96 Z,999 ENL,0 us*48
$GNRMC,164108.30,A,4807.12161,N,01116.13529,E,23.99,349.34,160520,,,D*71
$GNGGA,164108.30,4807.12161,N,01116.13529,E,2,12,0.57,723.7,M,46.5,M,,0000*4A
$GNGSA,A,3,10,20,11,21,08,27,16,01,22,32,,,1.01,0.57,0.83*1F
$GNVTG,349.34,T,,M,23.812,N,44.100,K,D*24
$SMGPS,160.1 m,+1.59 m/s,8.33 VRx,9.715 km,238 m,27.7 °,1:2  ( 90.4 km/h)*E0
$SMGPS2,+0.05 X,+0.01 Y,+0.88 Z,999 ENL,0 us*46
$GNRMC,164108.40,A,4807.12227,N,01116.13509,E,24.16,347.56,160520,,,D*7F
$GNGGA,164108.40,4807.12227,N,01116.13509,E,2,12,0.57,723.7,M,46.5,M,,0000*4E
$GNGSA,A,3,10,20,11,21,08,27,16,01,22,32,,,1.01,0.57,0.83*1F
$GNVTG,347.56,T,,M,24.056,N,44.551,K,D*21
$SMGPS,160.1 m,+1.22 m/s,8.33 VRx,9.716 km,238 m,27.5 °,1:2  ( 90.4 km/h)*ED
$SMGPS2,+0.05 X,+0.02 Y,+0.80 Z,999 ENL,0 us*4D
$GNRMC,164108.50,A,4807.12293,N,01116.13486,E,24.70,346.61,160520,,,D*72
$GNGGA,164108.50,4807.12293,N,01116.13486,E,2,12,0.57,723.2,M,46.5,M,,0000*43
$GNGSA,A,3,10,20,11,21,08,27,16,01,22,32,,,1.01,0.57,0.83*1F
$GNVTG,346.61,T,,M,24.654,N,45.659,K,D*2A
$SMGPS,159.6 m,+0.87 m/s,8.33 VRx,9.717 km,238 m,27.3 °,1:2  ( 90.4 km/h)*E9
$SMGPS2,+0.05 X,+0.02 Y,+0.83 Z,999 ENL,0 us*4E
$GNRMC,164108.60,A,4807.12360,N,01116.13461,E,24.57,345.16,160520,,,D*73
$GNGGA,164108.60,4807.12360,N,01116.13461,E,2,12,0.57,723.2,M,46.5,M,,0000*44
$GNGSA,A,3,10,20,11,21,08,27,16,01,22,32,,,1.01,0.57,0.83*1F
$GNVTG,345.16,T,,M,24.552,N,45.470,K,D*25
$SMGPS,159.6 m,+0.60 m/s,8.33 VRx,9.719 km,239 m,27.0 °,1:2  ( 90.4 km/h)*EC
$SMGPS2,+0.05 X,+0.00 Y,+0.86 Z,999 ENL,0 us*49
$GNRMC,164108.70,A,4807.12427,N,01116.13433,E,25.30,344.12,160520,,,D*74
$GNGGA,164108.70,4807.12427,N,01116.13433,E,2,12,0.57,722.9,M,46.5,M,,0000*4C
$GNGSA,A,3,10,20,11,21,08,27,16,01,22,32,,,1.01,0.57,0.83*1F
$GNVTG,344.12,T,,M,25.298,N,46.852,K,D*2F
$SMGPS,159.3 m,+0.34 m/s,8.33 VRx,9.720 km,239 m,26.7 °,1:2  ( 90.4 km/h)*E4
$SMGPS2,+0.04 X,-0.02 Y,+0.91 Z,999 ENL,0 us*4A
$GNRMC,164108.80,A,4807.12495,N,01116.13403,E,25.29,342.83,160520,,,D*77
$GNGGA,164108.80,4807.12495,N,01116.13403,E,2,12,0.57,722.9,M,46.5,M,,0000*49
$GNGSA,A,3,10,20,11,21,08,27,16,01,22,32,,,1.01,0.57,0.83*1F
$GNVTG,342.83,T,,M,25.291,N,46.839,K,D*25
$SMGPS,159.3 m,+0.14 m/s,8.33 VRx,9.722 km,240 m,26.4 °,1:3  ( 85.9 km/h)*E1
$SMGPS2,+0.03 X,-0.02 Y,+0.95 Z,999 ENL,0 us*49
$GNRMC,164108.90,A,4807.12563,N,01116.13371,E,25.84,342.46,160520,,,D*72
$GNGGA,164108.90,4807.12563,N,01116.13371,E,2,12,0.57,722.5,M,46.5,M,,0000*4E
$GNGSA,A,3,10,20,11,21,08,27,16,01,22,32,,,1.01,0.57,0.83*1F
$GNVTG,342.46,T,,M,25.837,N,47.851,K,D*25
$SMGPS,158.9 m,-0.23 m/s,8.33 VRx,9.723 km,241 m,26.1 °,1:3  ( 85.9 km/h)*ED
$SMGPS2,+0.04 X,-0.02 Y,+0.87 Z,999 ENL,0 us*4D
$GNRMC,164109.00,A,4807.12633,N,01116.13338,E,26.17,341.76,160520,,,D*78
$GNGGA,164109.00,4807.12633,N,01116.13338,E,2,12,0.57,721.9,M,46.5,M,,0000*42
$GNGSA,A,3,10,20,11,21,08,27,16,01,22,32,,,1.01,0.57,0.83*1F
$GNVTG,341.76,T,,M,26.155,N,48.439,K,D*26
$SMGPS,158.3 m,-0.43 m/s,8.33 VRx,9.724 km,241 m,25.9 °,1:3  ( 85.9 km/h)*ED
$SMGPS2,+0.04 X,-0.03 Y,+0.86 Z,999 ENL,0 us*4D
$GNRMC,164109.10,A,4807.12704,N,01116.13304,E,26.10,340.63,160520,,,D*71
$GNGGA,164109.10,4807.12704,N,01116.13304,E,2,12,0.57,722.0,M,46.5,M,,0000*43
$GNGSA,A,3,10,20,11,21,08,27,16,01,22,32,,,1.01,0.57,0.83*1F
$GNVTG,340.63,T,,M,26.078,N,48.296,K,D*2E
$SMGPS,158.4 m,-0.60 m/s,8.33 VRx,9.726 km,242 m,25.5 °,1:3  ( 85.9 km/h)*E6
$SMGPS2,+0.01 X,-0.07 Y,+1.01 Z,999 ENL,0 us*42
$GNRMC,164109.20,A,4807.12775,N,01116.13267,E,26.85,340.05,160520,,,D*7C
$GNGGA,164109.20,4807.12775,N,01116.13267,E,2,12,0.57,721.3,M,46.5,M,,0000*42
$GNGSA,A,3,10,20,11,21,08,27,16,01,22,32,,,1.01,0.57,0.83*1F
$GNVTG,340.05,T,,M,26.808,N,49.648,K,D*27
$SMGPS,157.7 m,-0.80 m/s,8.33 VRx,9.726 km,242 m,25.3 °,1:3  ( 85.9 km/h)*E2
$SMGPS2,+0.01 X,-0.09 Y,+0.98 Z,999 ENL,0 us*4D
$GNRMC,164109.30,A,4807.12846,N,01116.13229,E,27.03,339.12,160520,,,D*7F
$GNGGA,164109.30,4807.12846,N,01116.13229,E,2,12,0.57,720.7,M,46.5,M,,0000*43
$GNGSA,A,3,10,20,11,21,08,27,16,01,22,32,,,1.01,0.57,0.83*1F
$GNVTG,339.12,T,,M,26.968,N,49.945,K,D*2A
$SMGPS,157.1 m,-1.03 m/s,8.33 VRx,9.728 km,243 m,24.9 °,1:3  ( 85.9 km/h)*EA
$SMGPS2,-0.00 X,-0.09 Y,+0.99 Z,999 ENL,0 us*4B
$GNRMC,164109.40,A,4807.12917,N,01116.13188,E,27.60,338.23,160520,,,D*73
$GNGGA,164109.40,4807.12917,N,01116.13188,E,2,12,0.57,720.0,M,46.5,M,,0000*4E
$GNGSA,A,3,10,20,11,21,08,27,16,01,22,32,,,1.01,0.57,0.83*1F
$GNVTG,338.23,T,,M,27.493,N,50.917,K,D*2E
$SMGPS,156.4 m,-1.27 m/s,8.33 VRx,9.730 km,243 m,24.6 °,1:3  ( 85.9 km/h)*EE
$SMGPS2,-0.01 X,-0.08 Y,+0.98 Z,999 ENL,0 us*4A
$GNRMC,164109.50,A,4807.12989,N,01116.13146,E,27.91,337.68,160520,,,D*79
$GNGGA,164109.50,4807.12989,N,01116.13146,E,2,12,0.57,719.2,M,46.5,M,,0000*42
$GNGSA,A,3,10,20,11,21,08,27,16,01,22,32,,,1.01,0.57,0.83*1F
$GNVTG,337.68,T,,M,27.751,N,51.395,K,D*22
$SMGPS,155.6 m,-1.58 m/s,8.33 VRx,9.731 km,244 m,24.3 °,1:3  ( 85.9 km/h)*E4
$SMGPS2,+0.00 X,-0.09 Y,+0.92 Z,999 ENL,0 us*46
$GNRMC,164109.60,A,4807.13062,N,01116.13101,E,28.53,336.54,160520,,,D*7B
$GNGGA,164109.60,4807.13062,N,01116.13101,E,2,12,0.57,718.7,M,46.5,M,,0000*4B
$GNGSA,A,3,10,20,11,21,08,27,16,01,22,32,,,1.01,0.57,0.83*1F
$GNVTG,336.54,T,,M,28.257,N,52.332,K,D*2E
$SMGPS,155.1 m,-2.02 m/s,8.33 VRx,9.732 km,244 m,24.0 °,1:3  ( 82.2 km/h)*E3
$SMGPS2,+0.02 X,-0.08 Y,+0.92 Z,999 ENL,0 us*45
$GNRMC,164109.70,A,4807.13136,N,01116.13054,E,28.91,335.78,160520,,,D*78
$GNGGA,164109.70,4807.13136,N,01116.13054,E,2,12,0.57,718.6,M,46.5,M,,0000*4A
$GNGSA,A,3,10,20,11,21,08,27,16,01,22,32,,,1.01,0.57,0.83*1F
$GNVTG,335.78,T,,M,28.579,N,52.928,K,D*29
$SMGPS,155.0 m,-2.23 m/s,8.33 VRx,9.734 km,244 m,23.6 °,1:3  ( 82.2 km/h)*E6
$SMGPS2,+0.02 X,-0.07 Y,+0.92 Z,999 ENL,0 us*4A
$GNRMC,164109.80,A,4807.13209,N,01116.13003,E,29.18,334.55,160520,,,D*74
$GNGGA,164109.80,4807.13209,N,01116.13003,E,2,12,0.57,718.2,M,46.5,M,,0000*4C
$GNGSA,A,3,10,20,11,21,08,27,16,01,22,32,,,1.01,0.57,0.83*1F
$GNVTG,334.55,T,,M,28.770,N,53.282,K,D*26
$SMGPS,154.6 m,-2.51 m/s,8.33 VRx,9.735 km,245 m,23.4 °,1:3  ( 82.2 km/h)*E6
$SMGPS2,+0.03 X,-0.06 Y,+0.91 Z,998 ENL,0 us*48
$GNRMC,164109.90,A,4807.13282,N,01116.12951,E,29.89,333.83,160520,,,D*7D
$GNGGA,164109.90,4807.13282,N,01116.12951,E,2,12,0.57,718.5,M,46.5,M,,0000*46
$GNGSA,A,3,10,20,11,21,08,27,16,01,22,32,,,1.01,0.57,0.83*1F
$GNVTG,333.83,T,,M,29.431,N,54.506,K,D*21
$SMGPS,154.9 m,-2.65 m/s,8.33 VRx,9.737 km,246 m,22.9 °,1:3  ( 82.2 km/h)*E3
$SMGPS2,+0.06 X,-0.06 Y,+0.91 Z,999 ENL,0 us*4C
$GNRMC,164110.00,A,4807.13357,N,01116.12896,E,30.05,333.15,160520,,,D*7C
$GNGGA,164110.00,4807.13357,N,01116.12896,E,2,12,0.57,718.6,M,46.5,M,,0000*47
$GNGSA,A,3,10,20,11,21,08,27,16,01,22,32,,,1.01,0.57,0.83*1F
$GNVTG,333.15,T,,M,29.577,N,54.777,K,D*29
$SMGPS,155.0 m,-2.68 m/s,8.33 VRx,9.738 km,246 m,22.7 °,1:3  ( 82.2 km/h)*E7
$SMGPS2,+0.04 X,-0.03 Y,+1.19 Z,999 ENL,0 us*4A
$GNRMC,164110.10,A,4807.13431,N,01116.12839,E,30.64,332.00,160520,,,D*7D
$GNGGA,164110.10,4807.13431,N,01116.12839,E,2,12,0.57,718.8,M,46.5,M,,0000*4A
$GNGSA,A,3,10,20,11,21,08,27,16,01,22,32,,,1.01,0.57,0.83*1F
$GNVTG,332.00,T,,M,30.208,N,55.945,K,D*25
$SMGPS,155.2 m,-2.62 m/s,8.33 VRx,9.740 km,247 m,22.3 °,1:3  ( 82.2 km/h)*E5
$SMGPS2,+0.02 X,-0.01 Y,+1.41 Z,999 ENL,0 us*43
$GNRMC,164110.20,A,4807.13506,N,01116.12779,E,31.13,330.85,160520,,,D*7E
$GNGGA,164110.20,4807.13506,N,01116.12779,E,2,12,0.57,719.5,M,46.5,M,,0000*4B
$GNGSA,A,3,10,20,11,21,08,27,16,01,22,32,,,1.01,0.57,0.83*1F
$GNVTG,330.85,T,,M,30.767,N,56.980,K,D*2C
$SMGPS,155.9 m,-2.44 m/s,8.33 VRx,9.741 km,248 m,22.0 °,1:3  ( 82.2 km/h)*E7
$SMGPS2,+0.02 X,+0.01 Y,+1.52 Z,999 ENL,0 us*47
$GNRMC,164110.30,A,4807.13582,N,01116.12715,E,31.52,329.94,160520,,,D*74
$GNGGA,164110.30,4807.13582,N,01116.12715,E,2,12,0.57,718.1,M,46.5,M,,0000*49
$GNGSA,A,3,10,20,11,21,08,27,16,01,22,32,,,1.01,0.57,0.83*1F
$GNVTG,329.94,T,,M,31.253,N,57.881,K,D*26
$SMGPS,154.5 m,-2.12 m/s,8.33 VRx,9.743 km,249 m,21.6 °,1:-- ( 82.2 km/h)*FC
$SMGPS2,+0.01 X,+0.01 Y,+1.55 Z,999 ENL,0 us*43
$GNRMC,164110.40,A,4807.13658,N,01116.12648,E,32.22,328.91,160520,,,D*7E
$GNGGA,164110.40,4807.13658,N,01116.12648,E,2,12,0.57,717.6,M,46.5,M,,0000*4B
$GNGSA,A,3,10,20,11,21,08,27,16,01,22,32,,,1.01,0.57,0.83*1F
$GNVTG,328.91,T,,M,31.962,N,59.194,K,D*28
$SMGPS,154.0 m,-2.07 m/s,8.33 VRx,9.745 km,249 m,21.3 °,1:-- ( 82.2 km/h)*FE
$SMGPS2,+0.03 X,+0.03 Y,+1.59 Z,999 ENL,0 us*4F
$GNRMC,164110.50,A,4807.13734,N,01116.12579,E,32.22,327.95,160520,,,D*7E
$GNGGA,164110.50,4807.13734,N,01116.12579,E,2,12,0.57,717.7,M,46.5,M,,0000*41
$GNGSA,A,3,10,20,11,21,08,27,16,01,22,32,,,1.01,0.57,0.83*1F
$GNVTG,327.95,T,,M,31.988,N,59.241,K,D*2C
$SMGPS,154.1 m,-1.95 m/s,8.33 VRx,9.747 km,250 m,20.8 °,1:-- ( 82.2 km/h)*F7
$SMGPS2,+0.01 X,+0.03 Y,+1.67 Z,999 ENL,0 us*40
$GNRMC,164110.60,A,4807.13810,N,01116.12507,E,32.60,326.97,160520,,,D*78
$GNGGA,164110.60,4807.13810,N,01116.12507,E,2,12,0.57,717.8,M,46.5,M,,0000*4D
$GNGSA,A,3,10,20,11,21,08,27,16,01,22,32,,,1.01,0.57,0.83*1F
$GNVTG,326.97,T,,M,32.398,N,60.002,K,D*28
$SMGPS,154.2 m,-1.86 m/s,8.33 VRx,9.748 km,250 m,20.5 °,1:-- ( 82.2 km/h)*F4
$SMGPS2,+0.00 X,+0.02 Y,+1.74 Z,999 ENL,0 us*42
$GNRMC,164110.70,A,4807.13885,N,01116.12434,E,32.70,326.28,160520,,,D*71
$GNGGA,164110.70,4807.13885,N,01116.12434,E,2,12,0.57,717.5,M,46.5,M,,0000*4C
$GNGSA,A,3,10,20,11,21,08,27,16,01,22,32,,,1.01,0.57,0.83*1F
$GNVTG,326.28,T,,M,32.504,N,60.198,K,D*2D
$SMGPS,153.9 m,-1.83 m/s,8.33 VRx,9.750 km,251 m,20.1 °,1:-- ( 82.2 km/h)*F1
$SMGPS2,-0.01 X,+0.01 Y,+1.74 Z,999 ENL,0 us*46
$GNRMC,164110.80,A,4807.13960,N,01116.12358,E,32.82,325.83,160520,,,D*76
$GNGGA,164110.80,4807.13960,N,01116.12358,E,2,12,0.57,717.5,M,46.5,M,,0000*44
$GNGSA,A,3,10,20,11,21,08,27,16,01,22,32,,,1.01,0.57,0.83*1F
$GNVTG,325.83,T,,M,32.612,N,60.397,K,D*26
$SMGPS,153.9 m,-1.88 m/s,8.33 VRx,9.751 km,252 m,19.8 °,1:-- ( 82.2 km/h)*FB
$SMGPS2,-0.00 X,-0.01 Y,+1.68 Z,999 ENL,0 us*4C
$GNRMC,164110.90,A,4807.14035,N,01116.12282,E,32.63,324.96,160520,,,D*75
$GNGGA,164110.90,4807.14035,N,01116.12282,E,2,12,0.57,718.5,M,46.5,M,,0000*42
$GNGSA,A,3,10,20,11,21,08,27,16,01,22,32,,,1.01,0.57,0.83*1F
$GNVTG,324.96,T,,M,32.430,N,60.060,K,D*2A
$SMGPS,154.9 m,-1.86 m/s,8.33 VRx,9.753 km,253 m,19.3 °,1:1  ( 80.0 km/h)*EB
$SMGPS2,+0.00 X,-0.02 Y,+1.60 Z,999 ENL,0 us*41
$GNRMC,164111.00,A,4807.14108,N,01116.12204,E,32.34,324.50,160520,,,D*74
$GNGGA,164111.00,4807.14108,N,01116.12204,E,2,12,0.57,717.5,M,46.5,M,,0000*44
$GNGSA,A,3,10,20,11,21,08,27,16,01,22,32,,,1.01,0.57,0.83*1F
$GNVTG,324.50,T,,M,32.129,N,59.503,K,D*27
$SMGPS,153.9 m,-1.92 m/s,8.33 VRx,9.755 km,254 m,19.0 °,1:1  ( 80.0 km/h)*EB
$SMGPS2,+0.00 X,-0.04 Y,+1.51 Z,999 ENL,0 us*45
$GNRMC,164111.10,A,4807.14180,N,01116.12125,E,32.13,323.95,160520,,,D*7E
$GNGGA,164111.10,4807.14180,N,01116.12125,E,2,12,0.57,716.8,M,46.5,M,,0000*49
$GNGSA,A,3,10,20,11,21,08,27,16,01,22,32,,,1.01,0.57,0.83*1F
$GNVTG,323.95,T,,M,31.940,N,59.152,K,D*2D
$SMGPS,153.2 m,-1.83 m/s,8.33 VRx,9.756 km,254 m,18.6 °,1:1  ( 80.0 km/h)*E4
$SMGPS2,-0.01 X,-0.05 Y,+1.42 Z,999 ENL,0 us*41
$GNRMC,164111.20,A,4807.14251,N,01116.12048,E,31.78,323.35,160520,,,D*7C
$GNGGA,164111.20,4807.14251,N,01116.12048,E,2,12,0.57,716.7,M,46.5,M,,0000*40
$GNGSA,A,3,10,20,11,21,08,27,16,01,22,32,,,1.01,0.57,0.83*1F
$GNVTG,323.35,T,,M,31.603,N,58.528,K,D*27
$SMGPS,153.1 m,-1.76 m/s,8.33 VRx,9.758 km,254 m,18.2 °,1:1  ( 80.0 km/h)*E7
$SMGPS2,-0.01 X,-0.05 Y,+1.32 Z,999 ENL,0 us*46
$GNRMC,164111.30,A,4807.14321,N,01116.11969,E,31.50,322.61,160520,,,D*78
$GNGGA,164111.30,4807.14321,N,01116.11969,E,2,12,0.57,716.9,M,46.5,M,,0000*40
$GNGSA,A,3,10,20,11,21,08,27,16,01,22,32,,,1.01,0.57,0.83*1F
$GNVTG,322.61,T,,M,31.338,N,58.038,K,D*2E
$SMGPS,153.3 m,-1.71 m/s,8.33 VRx,9.760 km,255 m,17.8 °,1:1  ( 80.0 km/h)*ED
$SMGPS2,+0.00 X,-0.06 Y,+1.25 Z,999 ENL,0 us*44
$GNRMC,164111.40,A,4807.14389,N,01116.11890,E,31.29,321.88,160520,,,D*70
$GNGGA,164111.40,4807.14389,N,01116.11890,E,2,12,0.59,716.7,M,46.5,M,,0000*42
$GNGSA,A,3,10,20,11,21,08,27,16,01,22,32,,,1.02,0.59,0.83*12
$GNVTG,321.88,T,,M,31.134,N,57.660,K,D*20
$SMGPS,153.1 m,-1.65 m/s,8.33 VRx,9.761 km,256 m,17.5 °,1:1  ( 80.0 km/h)*E5
$SMGPS2,-0.00 X,-0.06 Y,+1.20 Z,999 ENL,0 us*47
$GNRMC,164111.50,A,4807.14456,N,01116.11811,E,30.56,321.34,160520,,,D*73
$GNGGA,164111.50,4807.14456,N,01116.11811,E,2,12,0.57,717.0,M,46.5,M,,0000*47
$GNGSA,A,3,10,20,11,21,08,27,16,01,22,32,,,1.01,0.57,0.83*1F
$GNVTG,321.34,T,,M,30.421,N,56.340,K,D*21
$SMGPS,153.4 m,-1.53 m/s,8.33 VRx,9.763 km,257 m,17.1 °,1:2  ( 78.1 km/h)*E7
$SMGPS2,+0.01 X,-0.07 Y,+1.07 Z,999 ENL,0 us*44
$GNRMC,164111.60,A,4807.14521,N,01116.11732,E,30.30,320.40,160520,,,D*7D
$GNGGA,164111.60,4807.14521,N,01116.11732,E,2,12,0.57,716.7,M,46.5,M,,0000*4D
$GNGSA,A,3,10,20,11,21,08,27,16,01,22,32,,,1.01,0.57,0.83*1F
$GNVTG,320.40,T,,M,30.141,N,55.820,K,D*2E
$SMGPS,153.1 m,-1.55 m/s,8.33 VRx,9.765 km,258 m,16.7 °,1:2  ( 78.1 km/h)*EA
$SMGPS2,+0.00 X,-0.07 Y,+1.02 Z,999 ENL,0 us*40
$GNRMC,164111.70,A,4807.14585,N,01116.11653,E,29.91,319.90,160520,,,D*70
$GNGGA,164111.70,4807.14585,N,01116.11653,E,2,12,0.57,717.8,M,46.5,M,,0000*4A
$GNGSA,A,3,10,20,11,21,08,27,16,01,22,32,,,1.01,0.57,0.83*1F
$GNVTG,319.90,T,,M,29.773,N,55.140,K,D*29
$SMGPS,154.2 m,-1.44 m/s,8.33 VRx,9.766 km,258 m,16.4 °,1:2  ( 78.1 km/h)*EE
$SMGPS2,-0.00 X,-0.05 Y,+1.16 Z,970 ENL,0 us*46
$GNRMC,164111.80,A,4807.14647,N,01116.11574,E,29.47,319.38,160520,,,D*7D
$GNGGA,164111.80,4807.14647,N,01116.11574,E,2,12,0.59,718.1,M,46.5,M,,0000*46
$GNGSA,A,3,10,20,11,21,08,27,16,01,22,32,,,1.02,0.59,0.83*12
$GNVTG,319.38,T,,M,29.367,N,54.388,K,D*2D
$SMGPS,154.5 m,-1.21 m/s,8.33 VRx,9.768 km,260 m,16.0 °,1:2  ( 78.1 km/h)*EB
$SMGPS2,+0.00 X,-0.04 Y,+1.18 Z,959 ENL,0 us*44
$GNRMC,164111.90,A,4807.14708,N,01116.11495,E,29.04,318.04,160520,,,D*71
$GNGGA,164111.90,4807.14708,N,01116.11495,E,2,12,0.59,718.3,M,46.5,M,,0000*41
$GNGSA,A,3,10,20,11,21,08,27,16,01,22,32,,,1.02,0.59,0.83*12
$GNVTG,318.04,T,,M,28.995,N,53.699,K,D*27
$SMGPS,154.7 m,-0.77 m/s,8.33 VRx,9.769 km,260 m,15.7 °,1:2  ( 78.1 km/h)*EE
$SMGPS2,+0.02 X,-0.04 Y,+1.05 Z,957 ENL,0 us*44
$GNRMC,164112.00,A,4807.14768,N,01116.11415,E,28.59,318.07,160520,,,D*7F
$GNGGA,164112.00,4807.14768,N,01116.11415,E,2,12,0.59,718.3,M,46.5,M,,0000*45
$GNGSA,A,3,10,20,11,21,08,27,16,01,22,32,,,1.02,0.59,0.83*12
$GNVTG,318.07,T,,M,28.566,N,52.905,K,D*2F
$SMGPS,154.7 m,-0.55 m/s,8.33 VRx,9.771 km,261 m,15.4 °,1:2  ( 78.1 km/h)*E5
$SMGPS2,+0.03 X,-0.03 Y,+0.92 Z,999 ENL,0 us*4F
$GNRMC,164112.10,A,4807.14826,N,01116.11337,E,28.29,317.50,160520,,,D*76
$GNGGA,164112.10,4807.14826,N,01116.11337,E,2,12,0.59,718.5,M,46.5,M,,0000*40
$GNGSA,A,3,10,20,11,21,08,27,16,01,22,32,,,1.02,0.59,0.83*12
$GNVTG,317.50,T,,M,28.284,N,52.382,K,D*2C
$SMGPS,154.9 m,-0.31 m/s,8.33 VRx,9.772 km,262 m,15.0 °,1:2  ( 78.1 km/h)*ED
$SMGPS2,+0.03 X,-0.03 Y,+0.82 Z,999 ENL,0 us*4E
$GNRMC,164112.20,A,4807.14883,N,01116.11257,E,27.98,316.71,160520,,,D*7A
$GNGGA,164112.20,4807.14883,N,01116.11257,E,2,12,0.59,719.1,M,46.5,M,,0000*4E
$GNGSA,A,3,10,20,11,21,08,27,16,01,22,32,,,1.02,0.59,0.83*12
$GNVTG,316.71,T,,M,27.983,N,51.825,K,D*28
$SMGPS,155.5 m,-0.00 m/s,8.33 VRx,9.774 km,263 m,14.7 °,1:-- ( 78.1 km/h)*F1
$SMGPS2,+0.04 X,-0.02 Y,+0.79 Z,999 ENL,0 us*4C
$GNRMC,164112.30,A,4807.14940,N,01116.11179,E,27.57,316.65,160520,,,D*7C
$GNGGA,164112.30,4807.14940,N,01116.11179,E,2,12,0.59,719.2,M,46.5,M,,0000*4D
$GNGSA,A,3,10,20,11,21,08,27,16,01,22,32,,,1.02,0.59,0.83*12
$GNVTG,316.65,T,,M,27.563,N,51.047,K,D*23
$SMGPS,155.6 m,+0.31 m/s,8.33 VRx,9.775 km,264 m,14.3 °,1:-- ( 78.1 km/h)*F4
$SMGPS2,+0.03 X,-0.02 Y,+0.77 Z,999 ENL,0 us*45
$GNRMC,164112.40,A,4807.14995,N,01116.11100,E,27.49,316.27,160520,,,D*74
$GNGGA,164112.40,4807.14995,N,01116.11100,E,2,12,0.57,719.6,M,46.5,M,,0000*46
$GNGSA,A,3,10,20,11,21,08,27,16,01,22,32,,,1.01,0.57,0.83*1F
$GNVTG,316.27,T,,M,27.478,N,50.889,K,D*25
$SMGPS,156.0 m,+0.55 m/s,8.33 VRx,9.777 km,264 m,14.0 °,1:-- ( 78.1 km/h)*F2
$SMGPS2,+0.03 X,-0.02 Y,+0.78 Z,999 ENL,0 us*4A
$GNRMC,164112.50,A,4807.15049,N,01116.11023,E,27.00,316.31,160520,,,D*76
$GNGGA,164112.50,4807.15049,N,01116.11023,E,2,12,0.57,720.0,M,46.5,M,,0000*42
$GNGSA,A,3,10,20,11,21,08,27,16,01,22,32,,,1.01,0.57,0.83*1F
$GNVTG,316.31,T,,M,26.973,N,49.954,K,D*2C
$SMGPS,156.4 m,+0.68 m/s,8.33 VRx,9.778 km,265 m,13.7 °,1:-- ( 78.1 km/h)*F6
$SMGPS2,+0.03 X,-0.01 Y,+0.75 Z,999 ENL,0 us*44
$GNRMC,164112.60,A,4807.15103,N,01116.10946,E,26.83,315.87,160520,,,D*75
$GNGGA,164112.60,4807.15103,N,01116.10946,E,2,12,0.57,720.1,M,46.5,M,,0000*44
$GNGSA,A,3,10,20,11,21,08,27,16,01,22,32,,,1.01,0.57,0.83*1F
$GNVTG,315.87,T,,M,26.787,N,49.609,K,D*20
$SMGPS,156.5 m,+0.75 m/s,8.33 VRx,9.780 km,266 m,13.4 °,1:-- ( 78.1 km/h)*FC
$SMGPS2,+0.03 X,-0.02 Y,+0.69 Z,999 ENL,0 us*4A
$GNRMC,164112.70,A,4807.15156,N,01116.10869,E,26.76,315.37,160520,,,D*79
$GNGGA,164112.70,4807.15156,N,01116.10869,E,2,12,0.57,719.7,M,46.5,M,,0000*45
$GNGSA,A,3,10,20,11,21,08,27,16,01,22,32,,,1.01,0.57,0.83*1F
$GNVTG,315.37,T,,M,26.708,N,49.463,K,D*22
$SMGPS,156.1 m,+0.87 m/s,8.33 VRx,9.781 km,266 m,13.1 °,1:-- ( 78.1 km/h)*F1
$SMGPS2,+0.04 X,-0.02 Y,+0.70 Z,967 ENL,0 us*44
$GNRMC,164112.80,A,4807.15209,N,01116.10792,E,26.40,315.54,160520,,,D*74
$GNGGA,164112.80,4807.15209,N,01116.10792,E,2,12,0.57,720.0,M,46.5,M,,0000*45
$GNGSA,A,3,10,20,11,21,08,27,16,01,22,32,,,1.01,0.57,0.83*1F
$GNVTG,315.54,T,,M,26.337,N,48.776,K,D*29
$SMGPS,156.4 m,+0.96 m/s,8.33 VRx,9.782 km,267 m,12.8 °,1:-- ( 78.1 km/h)*FE
$SMGPS2,+0.03 X,-0.01 Y,+0.74 Z,998 ENL,0 us*44
$GNRMC,164112.90,A,4807.15261,N,01116.10716,E,26.11,315.65,160520,,,D*71
$GNGGA,164112.90,4807.15261,N,01116.10716,E,2,12,0.57,720.2,M,46.5,M,,0000*44
$GNGSA,A,3,10,20,11,21,08,27,16,01,22,32,,,1.01,0.57,0.83*1F
$GNVTG,315.65,T,,M,26.034,N,48.214,K,D*2A
$SMGPS,156.6 m,+1.00 m/s,8.33 VRx,9.783 km,267 m,12.5 °,1:-- ( 78.1 km/h)*FE
$SMGPS2,+0.04 X,-0.02 Y,+0.69 Z,999 ENL,0 us*4D
$GNRMC,164113.00,A,4807.15312,N,01116.10641,E,26.07,314.86,160520,,,D*74
$GNGGA,164113.00,4807.15312,N,01116.10641,E,2,12,0.57,720.4,M,46.5,M,,0000*4C
$GNGSA,A,3,10,20,11,21,08,27,16,01,22,32,,,1.01,0.57,0.83*1F
$GNVTG,314.86,T,,M,25.986,N,48.127,K,D*26
$SMGPS,156.8 m,+1.07 m/s,8.33 VRx,9.785 km,269 m,12.1 °,1:-- ( 78.1 km/h)*FB
$SMGPS2,+0.03 X,-0.02 Y,+0.75 Z,999 ENL,0 us*47
$GNRMC,164113.10,A,4807.15363,N,01116.10565,E,25.83,315.01,160520,,,D*77
$GNGGA,164113.10,4807.15363,N,01116.10565,E,2,12,0.57,720.5,M,46.5,M,,0000*4F
$GNGSA,A,3,10,20,11,21,08,27,16,01,22,32,,,1.01,0.57,0.83*1F
$GNVTG,315.01,T,,M,25.744,N,47.678,K,D*2A
$SMGPS,156.9 m,+1.07 m/s,8.33 VRx,9.787 km,269 m,11.9 °,1:-- ( 78.1 km/h)*F3
$SMGPS2,+0.03 X,-0.02 Y,+0.81 Z,999 ENL,0 us*4C
$GNRMC,164113.20,A,4807.15413,N,01116.10490,E,25.67,315.19,160520,,,D*7C
$GNGGA,164113.20,4807.15413,N,01116.10490,E,2,12,0.57,720.4,M,46.5,M,,0000*46
$GNGSA,A,3,10,20,11,21,08,27,16,01,22,32,,,1.01,0.57,0.83*1F
$GNVTG,315.19,T,,M,25.585,N,47.383,K,D*2D
$SMGPS,156.8 m,+1.04 m/s,8.33 VRx,9.788 km,270 m,11.6 °,1:-- ( 78.1 km/h)*F9
$SMGPS2,+0.03 X,-0.00 Y,+0.81 Z,999 ENL,0 us*4E
$GNRMC,164113.30,A,4807.15463,N,01116.10416,E,25.37,314.77,160520,,,D*78
$GNGGA,164113.30,4807.15463,N,01116.10416,E,2,12,0.57,720.3,M,46.5,M,,0000*49
$GNGSA,A,3,10,20,11,21,08,27,16,01,22,32,,,1.01,0.57,0.83*1F
$GNVTG,314.77,T,,M,25.283,N,46.824,K,D*22
$SMGPS,156.7 m,+1.06 m/s,8.33 VRx,9.789 km,271 m,11.3 °,1:-- ( 78.1 km/h)*F1
$SMGPS2,+0.03 X,-0.01 Y,+0.84 Z,999 ENL,0 us*4A
$GNRMC,164113.40,A,4807.15512,N,01116.10342,E,25.38,314.72,160520,,,D*74
$GNGGA,164113.40,4807.15512,N,01116.10342,E,2,12,0.57,719.9,M,46.5,M,,0000*4F
$GNGSA,A,3,10,20,11,21,08,27,16,01,22,32,,,1.01,0.57,0.83*1F
$GNVTG,314.72,T,,M,25.307,N,46.869,K,D*23
$SMGPS,156.3 m,+0.95 m/s,8.33 VRx,9.791 km,271 m,11.0 °,1:-- ( 78.1 km/h)*F4
$SMGPS2,+0.02 X,-0.01 Y,+0.87 Z,931 ENL,0 us*4A
$GNRMC,164113.50,A,4807.15561,N,01116.10268,E,25.24,314.67,160520,,,D*71
$GNGGA,164113.50,4807.15561,N,01116.10268,E,2,12,0.57,720.3,M,46.5,M,,0000*43
$GNGSA,A,3,10,20,11,21,08,27,16,01,22,32,,,1.01,0.57,0.83*1F
$GNVTG,314.67,T,,M,25.172,N,46.618,K,D*2F
$SMGPS,156.7 m,+0.91 m/s,8.33 VRx,9.792 km,272 m,10.7 °,1:-- ( 78.1 km/h)*F2
$SMGPS2,+0.01 X,-0.00 Y,+0.84 Z,960 ENL,0 us*4F
$GNRMC,164113.60,A,4807.15610,N,01116.10194,E,25.06,314.34,160520,,,D*71
$GNGGA,164113.60,4807.15610,N,01116.10194,E,2,12,0.57,720.1,M,46.5,M,,0000*47
$GNGSA,A,3,10,20,11,21,08,27,16,01,22,32,,,1.01,0.57,0.83*1F
$GNVTG,314.34,T,,M,25.000,N,46.300,K,D*21
$SMGPS,156.5 m,+0.84 m/s,8.33 VRx,9.793 km,272 m,10.4 °,1:-- ( 78.1 km/h)*F6
$SMGPS2,+0.02 X,-0.01 Y,+0.83 Z,966 ENL,0 us*4C
$GNRMC,164113.70,A,4807.15658,N,01116.10121,E,24.98,314.39,160520,,,D*79
$GNGGA,164113.70,4807.15658,N,01116.10121,E,2,12,0.57,720.4,M,46.5,M,,0000*41
$GNGSA,A,3,10,20,11,21,08,27,16,01,22,32,,,1.01,0.57,0.83*1F
$GNVTG,314.39,T,,M,24.927,N,46.165,K,D*20
$SMGPS,156.8 m,+0.76 m/s,8.33 VRx,9.794 km,273 m,10.2 °,1:-- ( 78.1 km/h)*F6
$SMGPS2,+0.00 X,-0.02 Y,+0.95 Z,978 ENL,0 us*45
$GNRMC,164113.80,A,4807.15706,N,01116.10047,E,24.86,313.81,160520,,,D*76
$GNGGA,164113.80,4807.15706,N,01116.10047,E,2,12,0.57,720.5,M,46.5,M,,0000*44
$GNGSA,A,3,10,20,11,21,08,27,16,01,22,32,,,1.01,0.57,0.83*1F
$GNVTG,313.81,T,,M,24.811,N,45.950,K,D*2D
$SMGPS,156.9 m,+0.72 m/s,8.33 VRx,9.796 km,273 m,9.9 °,1:-- ( 78.1 km/h)*C2
$SMGPS2,+0.01 X,-0.00 Y,+0.95 Z,897 ENL,0 us*46
$GNRMC,164113.90,A,4807.15754,N,01116.09973,E,24.75,313.90,160520,,,D*7A
$GNGGA,164113.90,4807.15754,N,01116.09973,E,2,12,0.57,720.3,M,46.5,M,,0000*42
$GNGSA,A,3,10,20,11,21,08,27,16,01,22,32,,,1.01,0.57,0.83*1F
$GNVTG,313.90,T,,M,24.709,N,45.761,K,D*27
$SMGPS,156.7 m,+0.66 m/s,8.33 VRx,9.797 km,274 m,9.6 °,1:-- ( 78.1 km/h)*C0
$SMGPS2,+0.01 X,-0.01 Y,+0.94 Z,862 ENL,0 us*4C
$GNRMC,164114.00,A,4807.15801,N,01116.09900,E,24.68,313.93,160520,,,D*70
$GNGGA,164114.00,4807.15801,N,01116.09900,E,2,12,0.57,720.1,M,46.5,M,,0000*45
$GNGSA,A,3,10,20,11,21,08,27,16,01,22,32,,,1.01,0.57,0.83*1F
$GNVTG,313.93,T,,M,24.650,N,45.652,K,D*28
$SMGPS,156.5 m,+0.59 m/s,8.33 VRx,9.799 km,275 m,9.4 °,1:-- ( 78.1 km/h)*C3
$SMGPS2,+0.00 X,-0.02 Y,+0.95 Z,859 ENL,0 us*47
$GNRMC,164114.10,A,4807.15849,N,01116.09826,E,24.72,313.57,160520,,,D*7B
$GNGGA,164114.10,4807.15849,N,01116.09826,E,2,12,0.57,719.8,M,46.5,M,,0000*4E
$GNGSA,A,3,10,20,11,21,08,27,16,01,22,32,,,1.01,0.57,0.83*1F
$GNVTG,313.57,T,,M,24.703,N,45.749,K,D*2C
$SMGPS,156.2 m,+0.50 m/s,8.33 VRx,9.800 km,275 m,9.1 °,1:-- ( 78.1 km/h)*C7
$SMGPS2,+0.00 X,-0.03 Y,+0.92 Z,839 ENL,0 us*47
$GNRMC,164114.20,A,4807.15896,N,01116.09752,E,24.55,313.46,160520,,,D*73
$GNGGA,164114.20,4807.15896,N,01116.09752,E,2,12,0.57,719.7,M,46.5,M,,0000*4C
$GNGSA,A,3,10,20,11,21,08,27,16,01,22,32,,,1.01,0.57,0.83*1F
$GNVTG,313.46,T,,M,24.538,N,45.444,K,D*28
$SMGPS,156.1 m,+0.37 m/s,8.33 VRx,9.801 km,276 m,8.8 °,1:-- ( 78.1 km/h)*CF
$SMGPS2,+0.00 X,-0.02 Y,+0.92 Z,854 ENL,0 us*4D
$GNRMC,164114.30,A,4807.15943,N,01116.09679,E,24.65,313.26,160520,,,D*76
$GNGGA,164114.30,4807.15943,N,01116.09679,E,2,12,0.57,719.7,M,46.5,M,,0000*4C
$GNGSA,A,3,10,20,11,21,08,27,16,01,22,32,,,1.01,0.57,0.83*1F
$GNVTG,313.26,T,,M,24.646,N,45.645,K,D*27
$SMGPS,156.1 m,+0.27 m/s,8.33 VRx,9.802 km,276 m,8.6 °,1:-- ( 78.1 km/h)*C3
$SMGPS2,-0.01 X,-0.02 Y,+0.95 Z,837 ENL,0 us*48
$GNRMC,164114.40,A,4807.15990,N,01116.09605,E,24.65,313.39,160520,,,D*7A
$GNGGA,164114.40,4807.15990,N,01116.09605,E,2,12,0.57,719.2,M,46.5,M,,0000*4B
$GNGSA,A,3,10,20,11,21,08,27,16,01,22,32,,,1.01,0.57,0.83*1F
$GNVTG,313.39,T,,M,24.650,N,45.652,K,D*28
$SMGPS,155.6 m,+0.12 m/s,8.33 VRx,9.803 km,277 m,8.3 °,1:-- ( 78.1 km/h)*C4
$SMGPS2,-0.00 X,-0.02 Y,+0.99 Z,837 ENL,0 us*45
$GNRMC,164114.50,A,4807.16037,N,01116.09531,E,24.55,313.19,160520,,,D*79
$GNGGA,164114.50,4807.16037,N,01116.09531,E,2,12,0.57,719.3,M,46.5,M,,0000*48
$GNGSA,A,3,10,20,11,21,08,27,16,01,22,32,,,1.01,0.57,0.83*1F
$GNVTG,313.19,T,,M,24.549,N,45.465,K,D*27
$SMGPS,155.7 m,-0.03 m/s,8.33 VRx,9.804 km,276 m,8.1 °,1:-- ( 78.1 km/h)*C7
$SMGPS2,-0.01 X,-0.02 Y,+0.98 Z,867 ENL,0 us*40
$GNRMC,164114.60,A,4807.16084,N,01116.09458,E,24.46,312.96,160520,,,D*78
$GNGGA,164114.60,4807.16084,N,01116.09458,E,2,12,0.57,718.9,M,46.5,M,,0000*46
$GNGSA,A,3,10,20,11,21,08,27,16,01,22,32,,,1.01,0.57,0.83*1F
$GNVTG,312.96,T,,M,24.460,N,45.300,K,D*2F
$SMGPS,155.3 m,-0.18 m/s,8.33 VRx,9.806 km,277 m,7.8 °,1:-- ( 78.1 km/h)*CC
$SMGPS2,+0.00 X,-0.01 Y,+0.98 Z,851 ENL,0 us*41
$GNRMC,164114.70,A,4807.16130,N,01116.09384,E,24.50,313.02,160520,,,D*7A
$GNGGA,164114.70,4807.16130,N,01116.09384,E,2,12,0.59,719.5,M,46.5,M,,0000*4C
$GNGSA,A,3,10,20,11,21,08,27,16,01,22,32,,,1.02,0.59,0.83*12
$GNVTG,313.02,T,,M,24.499,N,45.373,K,D*21
$SMGPS,155.9 m,-0.23 m/s,8.33 VRx,9.807 km,277 m,7.6 °,1:1  ( 74.7 km/h)*DA
$SMGPS2,+0.01 X,-0.01 Y,+0.95 Z,812 ENL,0 us*4A
$GNRMC,164114.80,A,4807.16176,N,01116.09310,E,24.40,312.75,160520,,,D*7A
$GNGGA,164114.80,4807.16176,N,01116.09310,E,2,12,0.59,718.8,M,46.5,M,,0000*40
$GNGSA,A,3,10,20,11,21,08,27,16,01,22,32,,,1.02,0.59,0.83*12
$GNVTG,312.75,T,,M,24.392,N,45.173,K,D*2E
$SMGPS,155.2 m,-0.30 m/s,8.33 VRx,9.808 km,278 m,7.3 °,1:1  ( 74.7 km/h)*D6
$SMGPS2,+0.00 X,-0.01 Y,+0.93 Z,892 ENL,0 us*45
$GNRMC,164114.90,A,4807.16222,N,01116.09236,E,24.53,312.43,160520,,,D*7B
$GNGGA,164114.90,4807.16222,N,01116.09236,E,2,12,0.59,719.1,M,46.5,M,,0000*4E
$GNGSA,A,3,10,20,11,21,08,27,16,01,22,32,,,1.02,0.59,0.83*12
$GNVTG,312.43,T,,M,24.519,N,45.409,K,D*26
$SMGPS,155.5 m,-0.37 m/s,8.33 VRx,9.810 km,279 m,7.1 °,1:1  ( 74.7 km/h)*DC
$SMGPS2,+0.01 X,-0.01 Y,+0.93 Z,916 ENL,0 us*49
$GNRMC,164115.00,A,4807.16269,N,01116.09161,E,24.53,312.58,160520,,,D*77
$GNGGA,164115.00,4807.16269,N,01116.09161,E,2,12,0.57,719.3,M,46.5,M,,0000*44
$GNGSA,A,3,10,20,11,21,08,27,16,01,22,32,,,1.01,0.57,0.83*1F
$GNVTG,312.58,T,,M,24.516,N,45.404,K,D*2E
$SMGPS,155.7 m,-0.46 m/s,8.33 VRx,9.811 km,280 m,6.8 °,1:1  ( 74.7 km/h)*D7
$SMGPS2,-0.01 X,-0.01 Y,+1.04 Z,850 ENL,0 us*43
$GNRMC,164115.10,A,4807.16314,N,01116.09087,E,24.53,312.24,160520,,,D*7F
$GNGGA,164115.10,4807.16314,N,01116.09087,E,2,12,0.57,718.9,M,46.5,M,,0000*4C
$GNGSA,A,3,10,20,11,21,08,27,16,01,22,32,,,1.01,0.57,0.83*1F
$GNVTG,312.24,T,,M,24.515,N,45.401,K,D*23
$SMGPS,155.3 m,-0.47 m/s,8.33 VRx,9.812 km,280 m,6.5 °,1:1  ( 74.7 km/h)*DC
$SMGPS2,-0.01 X,-0.00 Y,+1.02 Z,827 ENL,0 us*44
$GNRMC,164115.20,A,4807.16360,N,01116.09012,E,24.52,312.24,160520,,,D*72
$GNGGA,164115.20,4807.16360,N,01116.09012,E,2,12,0.57,719.1,M,46.5,M,,0000*49
$GNGSA,A,3,10,20,11,21,08,27,16,01,22,32,,,1.01,0.57,0.83*1F
$GNVTG,312.24,T,,M,24.504,N,45.382,K,D*2F
